[{"ods":"K83002","name":"LAKESIDE HEALTHCARE","pcn":"U53419","lat":52.48827,"lng":-0.695748,"list":46203,"gp_fte":22.9501333335,"rating":"Good","prev":{"asthma":5.206,"atrial_fibrillation":2.049,"copd":3.415,"coronary_heart_disease":3.296,"dementia":0.801,"depression":14.893,"diabetes":7.733,"hypertension":14.462,"obesity":18.718,"serious_mental_illness":0.795,"stroke_tia":1.861}},{"ods":"K83003","name":"QUEENSVIEW MEDICAL CENTRE","pcn":"U58673","lat":52.257181,"lng":-0.903418,"list":9762,"gp_fte":3.4933333333,"rating":"Good","prev":{"asthma":6.385,"atrial_fibrillation":2.156,"copd":3.073,"coronary_heart_disease":3.115,"dementia":0.732,"depression":16.923,"diabetes":8.472,"hypertension":15.625,"obesity":12.819,"serious_mental_illness":1.083,"stroke_tia":1.774}},{"ods":"K83005","name":"QUEENSWAY MEDICAL CENTRE","pcn":"U19031","lat":52.30395,"lng":-0.711786,"list":14798,"gp_fte":6.096,"rating":"Good","prev":{"asthma":6.863,"atrial_fibrillation":1.994,"copd":2.13,"coronary_heart_disease":2.936,"dementia":0.696,"depression":23.445,"diabetes":8.642,"hypertension":14.59,"obesity":16.38,"serious_mental_illness":0.765,"stroke_tia":1.761}},{"ods":"K83006","name":"HEADLANDS SURGERY","pcn":"U53419","lat":52.394117,"lng":-0.716728,"list":9574,"gp_fte":5.3333333334,"rating":"Good","prev":{"asthma":7.081,"atrial_fibrillation":2.145,"copd":2.093,"coronary_heart_disease":2.749,"dementia":0.635,"depression":15.39,"diabetes":7.699,"hypertension":15.077,"obesity":17.442,"serious_mental_illness":1.135,"stroke_tia":1.958}},{"ods":"K83007","name":"HARBOROUGH FIELD SURGERY","pcn":"U28255","lat":52.290961,"lng":-0.593768,"list":13926,"gp_fte":5.7466666668,"rating":"Good","prev":{"asthma":6.916,"atrial_fibrillation":2.54,"copd":2.214,"coronary_heart_disease":3.462,"dementia":0.769,"depression":20.796,"diabetes":8.758,"hypertension":17.696,"obesity":18.4,"serious_mental_illness":0.74,"stroke_tia":2.163}},{"ods":"K83008","name":"THE PINES SURGERY","pcn":"U58673","lat":52.272492,"lng":-0.902749,"list":11125,"gp_fte":4.6266666667,"rating":"Requires improvement","prev":{"asthma":6.157,"atrial_fibrillation":2.663,"copd":1.643,"coronary_heart_disease":2.663,"dementia":1.114,"depression":14.616,"diabetes":9.811,"hypertension":17.558,"obesity":15.278,"serious_mental_illness":1.152,"stroke_tia":2.002}},{"ods":"K83009","name":"MOULTON SURGERY","pcn":"U36651","lat":52.283346,"lng":-0.850975,"list":14558,"gp_fte":4.16,"rating":"Good","prev":{"asthma":6.697,"atrial_fibrillation":1.973,"copd":1.355,"coronary_heart_disease":2.029,"dementia":0.695,"depression":13.611,"diabetes":5.567,"hypertension":11.861,"obesity":10.365,"serious_mental_illness":0.492,"stroke_tia":1.503}},{"ods":"K83010","name":"ELEANOR CROSS HEALTHCARE","pcn":"U97651","lat":52.221434,"lng":-0.91488,"list":19785,"gp_fte":6.1546666668,"rating":"Good","prev":{"asthma":6.721,"atrial_fibrillation":1.767,"copd":1.445,"coronary_heart_disease":2.436,"dementia":0.47,"depression":15.084,"diabetes":7.683,"hypertension":11.945,"obesity":12.108,"serious_mental_illness":0.715,"stroke_tia":1.44}},{"ods":"K83011","name":"THE REDWELL MEDICAL CENTRE","pcn":"U19031","lat":52.310593,"lng":-0.707912,"list":12322,"gp_fte":4.16,"rating":"Good","prev":{"asthma":6.118,"atrial_fibrillation":2.414,"copd":1.927,"coronary_heart_disease":3.512,"dementia":0.919,"depression":19.051,"diabetes":9.327,"hypertension":18.664,"obesity":15.957,"serious_mental_illness":0.74,"stroke_tia":1.935}},{"ods":"K83012","name":"KING EDWARD ROAD SURGERY","pcn":"U09187","lat":52.247397,"lng":-0.86582,"list":11847,"gp_fte":5.0373333333,"rating":"Good","prev":{"asthma":6.27,"atrial_fibrillation":2.446,"copd":1.448,"coronary_heart_disease":2.845,"dementia":1.364,"depression":16.879,"diabetes":8.232,"hypertension":16.082,"obesity":12.556,"serious_mental_illness":0.94,"stroke_tia":1.997}},{"ods":"K83013","name":"ESKDAILL MEDICAL","pcn":"U09772","lat":52.400181,"lng":-0.717891,"list":15266,"gp_fte":7.5866666667,"rating":"Good","prev":{"asthma":6.653,"atrial_fibrillation":2.116,"copd":2.797,"coronary_heart_disease":2.903,"dementia":0.966,"depression":16.406,"diabetes":8.675,"hypertension":15.674,"obesity":18.452,"serious_mental_illness":1.144,"stroke_tia":1.931}},{"ods":"K83014","name":"LEICESTER TCE HEALTHCARE CTR","pcn":"U09187","lat":52.249054,"lng":-0.900225,"list":17935,"gp_fte":9.48,"rating":"Good","prev":{"asthma":5.416,"atrial_fibrillation":1.878,"copd":1.785,"coronary_heart_disease":2.281,"dementia":0.566,"depression":14.022,"diabetes":7.976,"hypertension":13.063,"obesity":15.058,"serious_mental_illness":1.067,"stroke_tia":1.459}},{"ods":"K83015","name":"DANETRE MEDICAL PRACTICE","pcn":"U79464","lat":52.262432,"lng":-1.169775,"list":12888,"gp_fte":6.8666666668,"rating":"Good","prev":{"asthma":6.515,"atrial_fibrillation":2.645,"copd":2.025,"coronary_heart_disease":2.764,"dementia":1.144,"depression":12.107,"diabetes":9.715,"hypertension":18.949,"obesity":16.035,"serious_mental_illness":0.723,"stroke_tia":2.065}},{"ods":"K83018","name":"SPRINGFIELD SURGERY","pcn":"U07902","lat":52.042195,"lng":-1.152826,"list":12525,"gp_fte":5.12,"rating":"Good","prev":{"asthma":7.37,"atrial_fibrillation":2.546,"copd":1.289,"coronary_heart_disease":2.791,"dementia":0.53,"depression":15.676,"diabetes":6.189,"hypertension":14.824,"obesity":12.807,"serious_mental_illness":0.593,"stroke_tia":1.858}},{"ods":"K83019","name":"THE LONG BUCKBY PRACTICE","pcn":"U96568","lat":52.306216,"lng":-1.065469,"list":6562,"gp_fte":3.7333333334,"rating":"Good","prev":{"asthma":7.955,"atrial_fibrillation":2.813,"copd":1.697,"coronary_heart_disease":3.256,"dementia":0.459,"depression":12.521,"diabetes":7.346,"hypertension":16.557,"obesity":11.851,"serious_mental_illness":0.627,"stroke_tia":2.385}},{"ods":"K83021","name":"ROTHWELL MEDICAL CENTRE","pcn":"U21248","lat":52.434902,"lng":-0.812427,"list":22063,"gp_fte":7.9866666666,"rating":"Requires improvement","prev":{"asthma":7.293,"atrial_fibrillation":3.047,"copd":2.136,"coronary_heart_disease":3.312,"dementia":0.757,"depression":19.791,"diabetes":8.891,"hypertension":19.623,"obesity":16.028,"serious_mental_illness":0.738,"stroke_tia":2.132}},{"ods":"K83022","name":"TOWCESTER MEDICAL CENTRE","pcn":"U07902","lat":52.123991,"lng":-0.979333,"list":11733,"gp_fte":5.9466666668,"rating":"Good","prev":{"asthma":7.195,"atrial_fibrillation":2.263,"copd":1.293,"coronary_heart_disease":2.228,"dementia":0.463,"depression":18.795,"diabetes":6.562,"hypertension":15.28,"obesity":15.498,"serious_mental_illness":0.489,"stroke_tia":1.503}},{"ods":"K83023","name":"OUNDLE","pcn":"U53419","lat":52.481174,"lng":-0.471297,"list":10566,"gp_fte":5.2000000001,"rating":"Good","prev":{"asthma":6.027,"atrial_fibrillation":3.429,"copd":1.766,"coronary_heart_disease":3.542,"dementia":1.256,"depression":12.54,"diabetes":6.567,"hypertension":17.91,"obesity":14.772,"serious_mental_illness":0.642,"stroke_tia":2.248}},{"ods":"K83024","name":"RUSHDEN MEDICAL CENTRE","pcn":"U52261","lat":52.292797,"lng":-0.601003,"list":8918,"gp_fte":3.7333333333,"rating":"Requires improvement","prev":{"asthma":6.459,"atrial_fibrillation":2.662,"copd":2.693,"coronary_heart_disease":3.302,"dementia":0.454,"depression":19.71,"diabetes":9.18,"hypertension":18.077,"obesity":12.518,"serious_mental_illness":1.042,"stroke_tia":2.084}},{"ods":"K83025","name":"THE MOUNTS MEDICAL CENTRE","pcn":"U40159","lat":52.245876,"lng":-0.898438,"list":16586,"gp_fte":7.8133333334,"rating":"Requires improvement","prev":{"asthma":4.238,"atrial_fibrillation":1.165,"copd":1.326,"coronary_heart_disease":1.848,"dementia":0.281,"depression":12.523,"diabetes":7.194,"hypertension":10.376,"obesity":9.298,"serious_mental_illness":0.907,"stroke_tia":1.004}},{"ods":"K83026","name":"ALBANY HOUSE MEDICAL CENTRE","pcn":"U19031","lat":52.30157,"lng":-0.694724,"list":20023,"gp_fte":7.9466666668,"rating":"Good","prev":{"asthma":5.01,"atrial_fibrillation":1.78,"copd":1.706,"coronary_heart_disease":2.278,"dementia":0.768,"depression":15.197,"diabetes":7.848,"hypertension":14.784,"obesity":16.409,"serious_mental_illness":1.061,"stroke_tia":1.545}},{"ods":"K83027","name":"LANGHAM PLACE SURGERY","pcn":"U58673","lat":52.249415,"lng":-0.899517,"list":10296,"gp_fte":5.4933333333,"rating":"Good","prev":{"asthma":5.732,"atrial_fibrillation":2.072,"copd":1.88,"coronary_heart_disease":2.207,"dementia":0.94,"depression":13.554,"diabetes":7.247,"hypertension":13.528,"obesity":9.653,"serious_mental_illness":1.228,"stroke_tia":1.506}},{"ods":"K83028","name":"SPINNEY BROOK MEDICAL CENTRE","pcn":"U28255","lat":52.330373,"lng":-0.613343,"list":11523,"gp_fte":8.1333333332,"rating":"Good","prev":{"asthma":7.811,"atrial_fibrillation":3.022,"copd":2.996,"coronary_heart_disease":3.968,"dementia":0.825,"depression":20.221,"diabetes":9.291,"hypertension":19.243,"obesity":15.261,"serious_mental_illness":0.955,"stroke_tia":2.292}},{"ods":"K83029","name":"ABINGTON PARK SURGERY","pcn":"U09187","lat":52.250191,"lng":-0.862372,"list":12867,"gp_fte":5.0666666667,"rating":"Good","prev":{"asthma":7.011,"atrial_fibrillation":2.296,"copd":1.426,"coronary_heart_disease":2.555,"dementia":0.925,"depression":8.863,"diabetes":9.15,"hypertension":16.411,"obesity":12.861,"serious_mental_illness":0.839,"stroke_tia":1.638}},{"ods":"K83030","name":"THE COTTONS MEDICAL CENTRE","pcn":"U28255","lat":52.3439,"lng":-0.541304,"list":9294,"gp_fte":5.6168,"rating":"Good","prev":{"asthma":7.795,"atrial_fibrillation":2.794,"copd":2.348,"coronary_heart_disease":3.511,"dementia":1.236,"depression":16.638,"diabetes":9.76,"hypertension":19.248,"obesity":14.088,"serious_mental_illness":0.758,"stroke_tia":2.223}},{"ods":"K83031","name":"BYFIELD MEDICAL CENTRE","pcn":"U96568","lat":52.175382,"lng":-1.220164,"list":8285,"gp_fte":4.3466666666,"rating":"Good","prev":{"asthma":7.369,"atrial_fibrillation":3.161,"copd":1.744,"coronary_heart_disease":3.064,"dementia":0.484,"depression":15.142,"diabetes":7.319,"hypertension":18.181,"obesity":11.2,"serious_mental_illness":0.848,"stroke_tia":1.732}},{"ods":"K83032","name":"ABBEY HOUSE MEDICAL PRACTICE","pcn":"U79464","lat":52.266941,"lng":-1.168733,"list":22074,"gp_fte":7.3037333333,"rating":"Outstanding","prev":{"asthma":6.97,"atrial_fibrillation":2.167,"copd":1.424,"coronary_heart_disease":2.852,"dementia":0.841,"depression":14.496,"diabetes":8.344,"hypertension":16.435,"obesity":11.964,"serious_mental_illness":0.859,"stroke_tia":1.802}},{"ods":"K83035","name":"KINGSTHORPE MEDICAL CTR.","pcn":"U36651","lat":52.260863,"lng":-0.896887,"list":6851,"gp_fte":3.32,"rating":"Good","prev":{"asthma":3.228,"atrial_fibrillation":1.894,"copd":1.31,"coronary_heart_disease":2.336,"dementia":0.797,"depression":8.315,"diabetes":9.192,"hypertension":13.13,"obesity":11.706,"serious_mental_illness":1.011,"stroke_tia":1.267}},{"ods":"K83036","name":"LINDEN MEDICAL GROUP","pcn":"U09772","lat":52.39603,"lng":-0.708242,"list":16946,"gp_fte":5.9200000001,"rating":"Good","prev":{"asthma":6.856,"atrial_fibrillation":2.218,"copd":1.873,"coronary_heart_disease":2.763,"dementia":0.697,"depression":10.251,"diabetes":8.29,"hypertension":16.98,"obesity":19.597,"serious_mental_illness":1.217,"stroke_tia":1.674}},{"ods":"K83037","name":"DR SPENCER & PARTNERS","pcn":"U35821","lat":52.36349,"lng":-0.676413,"list":13861,"gp_fte":6.3733333332,"rating":"Good","prev":{"asthma":6.582,"atrial_fibrillation":2.427,"copd":2.12,"coronary_heart_disease":2.998,"dementia":0.728,"depression":17.548,"diabetes":8.654,"hypertension":16.639,"obesity":15.998,"serious_mental_illness":0.671,"stroke_tia":1.799}},{"ods":"K83039","name":"DRYLAND MEDICAL CENTRE","pcn":"U35821","lat":52.400845,"lng":-0.71732,"list":12176,"gp_fte":3.9176000001,"rating":"Good","prev":{"asthma":6.318,"atrial_fibrillation":2.591,"copd":2.151,"coronary_heart_disease":3.612,"dementia":1.138,"depression":16.667,"diabetes":8.863,"hypertension":20.294,"obesity":9.023,"serious_mental_illness":0.913,"stroke_tia":2.425}},{"ods":"K83040","name":"WOODVIEW MEDICAL CENTRE","pcn":"U36651","lat":52.26639,"lng":-0.831548,"list":11110,"gp_fte":4.7199999999,"rating":"Good","prev":{"asthma":6.591,"atrial_fibrillation":1.952,"copd":1.584,"coronary_heart_disease":2.606,"dementia":0.562,"depression":20.579,"diabetes":9.791,"hypertension":15.137,"obesity":11.233,"serious_mental_illness":0.755,"stroke_tia":1.473}},{"ods":"K83041","name":"ST LUKES PRIMARY CARE CENTRE","pcn":"U97651","lat":52.245768,"lng":-0.945097,"list":23910,"gp_fte":6.34,"rating":"Good","prev":{"asthma":5.785,"atrial_fibrillation":2.324,"copd":1.345,"coronary_heart_disease":2.579,"dementia":0.98,"depression":13.164,"diabetes":8.16,"hypertension":16.423,"obesity":9.948,"serious_mental_illness":0.785,"stroke_tia":1.841}},{"ods":"K83042","name":"PARK AVE MED CNT & KINGS HEATH PRACTICE","pcn":"U52261","lat":52.258566,"lng":-0.882708,"list":15356,"gp_fte":4.0533333334,"rating":null,"prev":{"asthma":6.211,"atrial_fibrillation":2.02,"copd":1.858,"coronary_heart_disease":2.311,"dementia":0.621,"depression":15.071,"diabetes":9.065,"hypertension":14.151,"obesity":14.003,"serious_mental_illness":1.068,"stroke_tia":1.696}},{"ods":"K83043","name":"ABINGTON MEDICAL CENTRE","pcn":"U09187","lat":52.256383,"lng":-0.860131,"list":14706,"gp_fte":6.24,"rating":"Good","prev":{"asthma":6.685,"atrial_fibrillation":2.052,"copd":1.862,"coronary_heart_disease":2.575,"dementia":0.802,"depression":19.919,"diabetes":8.778,"hypertension":16.987,"obesity":12.719,"serious_mental_illness":0.944,"stroke_tia":1.733}},{"ods":"K83044","name":"PARKLANDS MEDICAL CENTRE","pcn":"U28255","lat":52.288358,"lng":-0.598751,"list":13701,"gp_fte":6.2133333333,"rating":"Good","prev":{"asthma":6.185,"atrial_fibrillation":3.013,"copd":2.253,"coronary_heart_disease":3.103,"dementia":0.925,"depression":14.622,"diabetes":8.48,"hypertension":19.333,"obesity":11.003,"serious_mental_illness":0.813,"stroke_tia":1.909}},{"ods":"K83047","name":"ABBEY MEDICAL PRACTICE","pcn":"U19031","lat":52.298698,"lng":-0.699451,"list":28571,"gp_fte":12.4533333335,"rating":"Good","prev":{"asthma":6.031,"atrial_fibrillation":1.904,"copd":1.809,"coronary_heart_disease":2.704,"dementia":0.811,"depression":14.866,"diabetes":9.191,"hypertension":16.229,"obesity":17.224,"serious_mental_illness":0.961,"stroke_tia":1.688}},{"ods":"K83048","name":"BROOK MEDICAL CENTRE","pcn":"U52261","lat":52.258696,"lng":-0.810015,"list":5678,"gp_fte":null,"rating":"Good","prev":{"asthma":6.113,"atrial_fibrillation":2.121,"copd":2.556,"coronary_heart_disease":3.341,"dementia":0.635,"depression":12.726,"diabetes":9.831,"hypertension":14.765,"obesity":9.017,"serious_mental_illness":0.935,"stroke_tia":1.654}},{"ods":"K83049","name":"BRACKLEY MEDICAL CENTRE","pcn":"U07902","lat":52.038307,"lng":-1.15756,"list":16247,"gp_fte":6.8639999998,"rating":"Good","prev":{"asthma":7.471,"atrial_fibrillation":2.512,"copd":1.576,"coronary_heart_disease":2.978,"dementia":0.837,"depression":13.468,"diabetes":6.382,"hypertension":16.836,"obesity":12.857,"serious_mental_illness":0.732,"stroke_tia":1.669}},{"ods":"K83050","name":"THE CRESCENT MEDICAL CTR.","pcn":"U52261","lat":52.250872,"lng":-0.879952,"list":7143,"gp_fte":1.4,"rating":"Good","prev":{"asthma":3.541,"atrial_fibrillation":1.141,"copd":1.422,"coronary_heart_disease":1.253,"dementia":0.817,"depression":16.707,"diabetes":6.877,"hypertension":12.419,"obesity":8.198,"serious_mental_illness":1.098,"stroke_tia":1.042}},{"ods":"K83051","name":"WEAVERS MEDICAL","pcn":"U09772","lat":52.394995,"lng":-0.733571,"list":29114,"gp_fte":11.8674666666,"rating":"Good","prev":{"asthma":7.159,"atrial_fibrillation":2.0,"copd":1.865,"coronary_heart_disease":2.682,"dementia":0.81,"depression":17.278,"diabetes":7.457,"hypertension":13.78,"obesity":14.973,"serious_mental_illness":0.824,"stroke_tia":1.786}},{"ods":"K83052","name":"THE PARKS MEDICAL PRACTICE","pcn":"U69252","lat":52.164584,"lng":-0.880746,"list":22876,"gp_fte":2.2666666668,"rating":"Good","prev":{"asthma":6.777,"atrial_fibrillation":2.337,"copd":1.622,"coronary_heart_disease":2.703,"dementia":0.564,"depression":13.257,"diabetes":7.137,"hypertension":14.677,"obesity":9.464,"serious_mental_illness":0.582,"stroke_tia":1.693}},{"ods":"K83053","name":"CRICK MEDICAL PRACTICE","pcn":"U96568","lat":52.348508,"lng":-1.134486,"list":6495,"gp_fte":4.0533333334,"rating":"Good","prev":{"asthma":6.918,"atrial_fibrillation":2.989,"copd":1.231,"coronary_heart_disease":2.717,"dementia":0.655,"depression":11.504,"diabetes":7.27,"hypertension":19.434,"obesity":10.703,"serious_mental_illness":0.511,"stroke_tia":1.966}},{"ods":"K83055","name":"WOOTTON MEDICAL CENTRE","pcn":"U36651","lat":52.206598,"lng":-0.874805,"list":7956,"gp_fte":2.2533333334,"rating":null,"prev":{"asthma":5.624,"atrial_fibrillation":2.127,"copd":1.215,"coronary_heart_disease":2.443,"dementia":0.848,"depression":12.394,"diabetes":7.534,"hypertension":15.648,"obesity":12.901,"serious_mental_illness":0.405,"stroke_tia":1.633}},{"ods":"K83056","name":"COUNTY SURGERY","pcn":"U52261","lat":52.250995,"lng":-0.876801,"list":4163,"gp_fte":null,"rating":"Good","prev":{"asthma":4.98,"atrial_fibrillation":1.221,"copd":1.65,"coronary_heart_disease":1.831,"dementia":0.407,"depression":9.87,"diabetes":8.163,"hypertension":13.766,"obesity":8.712,"serious_mental_illness":1.04,"stroke_tia":1.175}},{"ods":"K83059","name":"WOODSEND MEDICAL CENTRE","pcn":"U09772","lat":52.449562,"lng":-0.692849,"list":31155,"gp_fte":11.0266666669,"rating":"Good","prev":{"asthma":6.453,"atrial_fibrillation":2.03,"copd":2.752,"coronary_heart_disease":2.667,"dementia":0.7,"depression":16.322,"diabetes":7.262,"hypertension":15.172,"obesity":18.466,"serious_mental_illness":0.961,"stroke_tia":1.684}},{"ods":"K83064","name":"THE SAXON SPIRES PRACTICE","pcn":"U96568","lat":52.341595,"lng":-0.955552,"list":16322,"gp_fte":9.4200000002,"rating":"Good","prev":{"asthma":7.615,"atrial_fibrillation":3.053,"copd":1.401,"coronary_heart_disease":2.815,"dementia":0.567,"depression":16.306,"diabetes":6.347,"hypertension":19.321,"obesity":11.396,"serious_mental_illness":0.53,"stroke_tia":1.7}},{"ods":"K83065","name":"NENE VALLEY SURGERY","pcn":"U28255","lat":52.401239,"lng":-0.5306,"list":6909,"gp_fte":3.0,"rating":"Requires improvement","prev":{"asthma":7.355,"atrial_fibrillation":3.29,"copd":1.582,"coronary_heart_disease":3.319,"dementia":0.918,"depression":22.112,"diabetes":7.649,"hypertension":18.26,"obesity":20.108,"serious_mental_illness":0.523,"stroke_tia":1.822}},{"ods":"K83066","name":"GREENS NORTON & WEEDON MEDICAL PRACTICE","pcn":"U96568","lat":52.191021,"lng":-1.058695,"list":14624,"gp_fte":9.7120000001,"rating":"Good","prev":{"asthma":8.278,"atrial_fibrillation":3.713,"copd":1.765,"coronary_heart_disease":3.224,"dementia":0.896,"depression":16.698,"diabetes":8.37,"hypertension":22.399,"obesity":11.619,"serious_mental_illness":0.774,"stroke_tia":2.233}},{"ods":"K83068","name":"DENTON VILLAGE SURGERY","pcn":"U36651","lat":52.212575,"lng":-0.78406,"list":6325,"gp_fte":3.82,"rating":"Good","prev":{"asthma":7.77,"atrial_fibrillation":3.649,"copd":1.546,"coronary_heart_disease":4.302,"dementia":0.749,"depression":10.924,"diabetes":7.912,"hypertension":21.511,"obesity":15.183,"serious_mental_illness":0.813,"stroke_tia":2.135}},{"ods":"K83069","name":"MARSHALLS ROAD SURGERY","pcn":"U28255","lat":52.343905,"lng":-0.538646,"list":3217,"gp_fte":1.3333333333,"rating":"Good","prev":{"asthma":11.014,"atrial_fibrillation":2.57,"copd":2.7,"coronary_heart_disease":3.188,"dementia":1.171,"depression":16.687,"diabetes":9.598,"hypertension":21.21,"obesity":20.248,"serious_mental_illness":0.813,"stroke_tia":2.472}},{"ods":"K83070","name":"BUGBROOKE MEDICAL PRACTICE","pcn":"U52261","lat":52.223748,"lng":-0.979259,"list":10725,"gp_fte":4.7733333333,"rating":"Good","prev":{"asthma":7.137,"atrial_fibrillation":2.542,"copd":1.531,"coronary_heart_disease":2.83,"dementia":0.705,"depression":18.181,"diabetes":8.438,"hypertension":18.168,"obesity":15.59,"serious_mental_illness":0.603,"stroke_tia":1.939}},{"ods":"K83076","name":"MAYFIELD SURGERY","pcn":"U40159","lat":52.259426,"lng":-0.837112,"list":8777,"gp_fte":3.92,"rating":"Good","prev":{"asthma":5.773,"atrial_fibrillation":1.247,"copd":1.715,"coronary_heart_disease":2.562,"dementia":0.423,"depression":9.283,"diabetes":10.579,"hypertension":14.97,"obesity":12.411,"serious_mental_illness":0.78,"stroke_tia":1.214}},{"ods":"K83077","name":"GREENVIEW SURGERY","pcn":"U09187","lat":52.260433,"lng":-0.879909,"list":9391,"gp_fte":4.96,"rating":"Requires improvement","prev":{"asthma":7.734,"atrial_fibrillation":2.64,"copd":1.561,"coronary_heart_disease":2.881,"dementia":0.723,"depression":12.926,"diabetes":8.881,"hypertension":16.052,"obesity":11.528,"serious_mental_illness":1.32,"stroke_tia":1.593}},{"ods":"K83080","name":"HIGHAM FERRERS SURGERY","pcn":"U28255","lat":52.304153,"lng":-0.595584,"list":5532,"gp_fte":2.24,"rating":"Good","prev":{"asthma":4.145,"atrial_fibrillation":2.294,"copd":1.831,"coronary_heart_disease":2.507,"dementia":0.942,"depression":19.113,"diabetes":7.997,"hypertension":17.781,"obesity":15.151,"serious_mental_illness":0.551,"stroke_tia":1.654}},{"ods":"K83081","name":"SUMMERLEE MEDICAL CENTRE","pcn":"U19031","lat":52.340623,"lng":-0.648575,"list":1906,"gp_fte":1.4266666667,"rating":"Good","prev":{"asthma":6.22,"atrial_fibrillation":1.426,"copd":2.578,"coronary_heart_disease":2.578,"dementia":0.219,"depression":19.634,"diabetes":9.603,"hypertension":16.237,"obesity":12.034,"serious_mental_illness":0.603,"stroke_tia":1.7}},{"ods":"K83601","name":"EARLS BARTON MEDICAL CENTRE","pcn":"U69252","lat":52.249222,"lng":-0.808405,"list":8286,"gp_fte":1.2666666667,"rating":"Requires improvement","prev":{"asthma":5.971,"atrial_fibrillation":2.183,"copd":1.412,"coronary_heart_disease":2.661,"dementia":0.432,"depression":13.087,"diabetes":7.428,"hypertension":15.721,"obesity":12.841,"serious_mental_illness":0.63,"stroke_tia":1.599}},{"ods":"K83610","name":"DANES CAMP MEDICAL CENTRE","pcn":"U69252","lat":52.222626,"lng":-0.885527,"list":15139,"gp_fte":9.1733333334,"rating":"Good","prev":{"asthma":6.49,"atrial_fibrillation":1.546,"copd":0.839,"coronary_heart_disease":1.942,"dementia":0.434,"depression":13.028,"diabetes":7.762,"hypertension":13.017,"obesity":10.643,"serious_mental_illness":0.368,"stroke_tia":1.027}},{"ods":"K83614","name":"ASPIRO HEALTHCARE STUDFALL MED CENTRE","pcn":"U09772","lat":null,"lng":null,"list":1,"gp_fte":3.2133333334,"rating":null,"prev":{"asthma":5.656,"atrial_fibrillation":2.124,"copd":3.587,"coronary_heart_disease":3.563,"dementia":0.425,"depression":21.658,"diabetes":8.49,"hypertension":17.709,"obesity":20.402,"serious_mental_illness":0.755,"stroke_tia":1.994}},{"ods":"K83616","name":"THE MEADOWS SURGERY","pcn":"U28255","lat":52.3919,"lng":-0.531838,"list":6409,"gp_fte":null,"rating":"Good","prev":{"asthma":6.728,"atrial_fibrillation":2.423,"copd":1.915,"coronary_heart_disease":3.405,"dementia":0.426,"depression":14.073,"diabetes":6.78,"hypertension":16.942,"obesity":16.394,"serious_mental_illness":0.917,"stroke_tia":2.03}},{"ods":"K83618","name":"DR ABBAS","pcn":"U40159","lat":52.260378,"lng":-0.834373,"list":12329,"gp_fte":2.5866666667,"rating":"Good","prev":{"asthma":4.622,"atrial_fibrillation":1.057,"copd":1.018,"coronary_heart_disease":1.606,"dementia":0.334,"depression":12.412,"diabetes":8.381,"hypertension":13.818,"obesity":6.677,"serious_mental_illness":0.588,"stroke_tia":0.906}},{"ods":"K83620","name":"THE BROOK HEALTH CENTRE","pcn":"U07902","lat":52.118419,"lng":-1.002839,"list":9156,"gp_fte":3.3066666667,"rating":"Good","prev":{"asthma":7.255,"atrial_fibrillation":2.86,"copd":1.948,"coronary_heart_disease":2.871,"dementia":0.679,"depression":18.493,"diabetes":7.772,"hypertension":16.405,"obesity":13.318,"serious_mental_illness":0.612,"stroke_tia":1.97}},{"ods":"K83621","name":"MAPLE ACCESS PARTNERSHIP LLP","pcn":"U40159","lat":52.244081,"lng":-0.889157,"list":14600,"gp_fte":3.2533333333,"rating":"Good","prev":{"asthma":3.087,"atrial_fibrillation":0.424,"copd":0.981,"coronary_heart_disease":1.034,"dementia":0.411,"depression":9.68,"diabetes":4.535,"hypertension":6.581,"obesity":6.324,"serious_mental_illness":1.425,"stroke_tia":0.696}},{"ods":"K83622","name":"GREAT OAKLEY MEDICAL CENTRE","pcn":"U21248","lat":52.476626,"lng":-0.709596,"list":15626,"gp_fte":4.0186666667,"rating":"Requires improvement","prev":{"asthma":7.019,"atrial_fibrillation":1.573,"copd":2.065,"coronary_heart_disease":2.784,"dementia":0.311,"depression":15.117,"diabetes":7.098,"hypertension":13.38,"obesity":17.708,"serious_mental_illness":0.829,"stroke_tia":1.528}},{"ods":"Y00399","name":"DR PASQUALI","pcn":"U19031","lat":52.284507,"lng":-0.647379,"list":4047,"gp_fte":1.56,"rating":"Good","prev":{"asthma":7.495,"atrial_fibrillation":2.273,"copd":3.607,"coronary_heart_disease":3.162,"dementia":1.087,"depression":16.058,"diabetes":10.054,"hypertension":18.552,"obesity":10.444,"serious_mental_illness":0.716,"stroke_tia":2.149}},{"ods":"Y06354","name":"ASPIRO HEALTHCARE","pcn":"Unaligned","lat":null,"lng":null,"list":null,"gp_fte":null,"rating":null,"prev":{}},{"ods":"Y08368","name":"PENVALE PARK MEDICAL CENTRE","pcn":"Unaligned","lat":null,"lng":null,"list":null,"gp_fte":null,"rating":"Good","prev":{}}]