[{"ods":"L85001","name":"FRENCH WEIR HEALTH CENTRE","pcn":"U28174","lat":51.026277,"lng":-3.10674,"list":17589,"gp_fte":8.8944000001,"rating":"Good","prev":{"asthma":7.103,"atrial_fibrillation":2.994,"copd":1.96,"coronary_heart_disease":3.221,"dementia":0.693,"depression":15.744,"diabetes":7.36,"hypertension":17.401,"obesity":15.092,"serious_mental_illness":0.739,"stroke_tia":2.136}},{"ods":"L85002","name":"WELLS HEALTH CENTRE","pcn":"U17153","lat":51.213067,"lng":-2.656449,"list":11804,"gp_fte":7.0586666667,"rating":"Good","prev":{"asthma":8.087,"atrial_fibrillation":3.944,"copd":2.035,"coronary_heart_disease":4.701,"dementia":1.581,"depression":16.525,"diabetes":6.792,"hypertension":21.848,"obesity":13.267,"serious_mental_illness":1.009,"stroke_tia":2.893}},{"ods":"L85003","name":"EXMOOR MEDICAL CENTRE","pcn":"U47425","lat":51.067376,"lng":-3.582584,"list":3887,"gp_fte":3.6211752032,"rating":"Outstanding","prev":{"asthma":7.79,"atrial_fibrillation":4.766,"copd":2.485,"coronary_heart_disease":5.304,"dementia":0.564,"depression":12.856,"diabetes":7.367,"hypertension":21.009,"obesity":15.087,"serious_mental_illness":0.743,"stroke_tia":3.356}},{"ods":"L85004","name":"CREWKERNE HEALTH CENTRE, CREWKERNE","pcn":"U60622","lat":50.886432,"lng":-2.791982,"list":12358,"gp_fte":5.5200000001,"rating":"Good","prev":{"asthma":8.582,"atrial_fibrillation":4.174,"copd":2.332,"coronary_heart_disease":5.171,"dementia":1.166,"depression":18.068,"diabetes":9.112,"hypertension":24.682,"obesity":14.868,"serious_mental_illness":0.901,"stroke_tia":2.783}},{"ods":"L85006","name":"CROWN MEDICAL CENTRE","pcn":"U28174","lat":51.031502,"lng":-3.083487,"list":10158,"gp_fte":3.6266666667,"rating":"Good","prev":{"asthma":7.217,"atrial_fibrillation":2.337,"copd":2.029,"coronary_heart_disease":3.443,"dementia":0.99,"depression":20.337,"diabetes":7.31,"hypertension":17.415,"obesity":17.236,"serious_mental_illness":0.914,"stroke_tia":2.125}},{"ods":"L85007","name":"CHURCH STREET SURGERY, MARTOCK","pcn":"U60622","lat":50.966368,"lng":-2.780559,"list":10214,"gp_fte":3.4976,"rating":"Good","prev":{"asthma":7.507,"atrial_fibrillation":4.2,"copd":2.225,"coronary_heart_disease":4.778,"dementia":1.484,"depression":19.044,"diabetes":8.705,"hypertension":22.331,"obesity":13.246,"serious_mental_illness":1.021,"stroke_tia":3.198}},{"ods":"L85008","name":"FROME MEDICAL CENTRE","pcn":"U84175","lat":51.228064,"lng":-2.317712,"list":29150,"gp_fte":18.2666666666,"rating":"Good","prev":{"asthma":7.394,"atrial_fibrillation":2.863,"copd":1.922,"coronary_heart_disease":3.499,"dementia":1.023,"depression":17.555,"diabetes":7.212,"hypertension":18.916,"obesity":14.206,"serious_mental_illness":0.965,"stroke_tia":2.117}},{"ods":"L85009","name":"WEST SOMERSET HEALTHCARE","pcn":"U47425","lat":51.160546,"lng":-3.319631,"list":10690,"gp_fte":5.7600000001,"rating":"Good","prev":{"asthma":7.477,"atrial_fibrillation":4.658,"copd":2.83,"coronary_heart_disease":5.145,"dementia":1.078,"depression":18.05,"diabetes":10.832,"hypertension":24.967,"obesity":18.501,"serious_mental_illness":0.722,"stroke_tia":3.421}},{"ods":"L85010","name":"HIGHBRIDGE MEDICAL CENTRE","pcn":"U00760","lat":null,"lng":null,"list":null,"gp_fte":2.8211752032,"rating":null,"prev":{"asthma":8.451,"atrial_fibrillation":4.21,"copd":3.53,"coronary_heart_disease":5.106,"dementia":1.228,"depression":19.206,"diabetes":10.322,"hypertension":20.305,"obesity":18.356,"serious_mental_illness":1.11,"stroke_tia":2.997}},{"ods":"L85011","name":"CHEDDAR MEDICAL CENTRE","pcn":"U00760","lat":51.272559,"lng":-2.770902,"list":8447,"gp_fte":5.0602666667,"rating":"Good","prev":{"asthma":7.254,"atrial_fibrillation":3.807,"copd":1.855,"coronary_heart_disease":4.309,"dementia":1.041,"depression":16.962,"diabetes":7.857,"hypertension":17.022,"obesity":12.531,"serious_mental_illness":0.778,"stroke_tia":3.076}},{"ods":"L85012","name":"WELLINGTON MEDICAL CENTRE","pcn":"U09275","lat":50.98062,"lng":-3.229752,"list":22546,"gp_fte":12.9946666667,"rating":"Good","prev":{"asthma":7.373,"atrial_fibrillation":3.019,"copd":2.346,"coronary_heart_disease":4.043,"dementia":1.58,"depression":20.447,"diabetes":8.732,"hypertension":18.285,"obesity":15.065,"serious_mental_illness":0.833,"stroke_tia":2.519}},{"ods":"L85013","name":"QUANTOCK MEDICAL CENTRE","pcn":"U81930","lat":51.14911,"lng":-3.145897,"list":4214,"gp_fte":2.1333333334,"rating":"Good","prev":{"asthma":7.577,"atrial_fibrillation":4.285,"copd":3.208,"coronary_heart_disease":4.166,"dementia":0.599,"depression":15.238,"diabetes":9.376,"hypertension":21.594,"obesity":18.029,"serious_mental_illness":0.646,"stroke_tia":2.897}},{"ods":"L85014","name":"TAUNTON VALE HEALTHCARE","pcn":"U25707","lat":51.017733,"lng":-3.079222,"list":13401,"gp_fte":6.3000000001,"rating":"Good","prev":{"asthma":6.288,"atrial_fibrillation":2.121,"copd":2.449,"coronary_heart_disease":2.836,"dementia":0.722,"depression":22.135,"diabetes":8.258,"hypertension":14.573,"obesity":13.909,"serious_mental_illness":1.369,"stroke_tia":2.047}},{"ods":"L85015","name":"PRESTON GROVE MEDICAL CENTRE, YEOVIL","pcn":"U11103","lat":50.948711,"lng":-2.647903,"list":16084,"gp_fte":7.9688,"rating":"Good","prev":{"asthma":7.232,"atrial_fibrillation":2.819,"copd":1.829,"coronary_heart_disease":3.548,"dementia":0.918,"depression":22.066,"diabetes":7.836,"hypertension":16.172,"obesity":12.723,"serious_mental_illness":0.788,"stroke_tia":2.083}},{"ods":"L85016","name":"SYMPHONY NORTH HEALTHCARE","pcn":"U00760","lat":51.237873,"lng":-2.981522,"list":28271,"gp_fte":5.9853333335,"rating":"Good","prev":{"asthma":8.244,"atrial_fibrillation":4.083,"copd":4.016,"coronary_heart_disease":5.663,"dementia":1.208,"depression":16.102,"diabetes":11.257,"hypertension":24.588,"obesity":16.78,"serious_mental_illness":0.958,"stroke_tia":3.591}},{"ods":"L85017","name":"PENN HILL SURGERY, YEOVIL","pcn":"U11103","lat":50.948293,"lng":-2.637537,"list":10378,"gp_fte":4.4866666668,"rating":"Good","prev":{"asthma":7.402,"atrial_fibrillation":3.197,"copd":2.379,"coronary_heart_disease":3.692,"dementia":1.047,"depression":20.068,"diabetes":8.803,"hypertension":17.842,"obesity":14.361,"serious_mental_illness":0.952,"stroke_tia":2.369}},{"ods":"L85018","name":"CANNINGTON HEALTH CENTRE","pcn":"U81930","lat":51.152856,"lng":-3.083193,"list":5119,"gp_fte":2.1600000001,"rating":"Good","prev":{"asthma":8.173,"atrial_fibrillation":3.208,"copd":2.632,"coronary_heart_disease":4.38,"dementia":0.768,"depression":16.829,"diabetes":8.189,"hypertension":20.207,"obesity":12.986,"serious_mental_illness":0.519,"stroke_tia":2.632}},{"ods":"L85019","name":"MINEHEAD MEDICAL CENTRE","pcn":"U47425","lat":51.198583,"lng":-3.473968,"list":11039,"gp_fte":0.2666666667,"rating":"Good","prev":{"asthma":7.332,"atrial_fibrillation":4.279,"copd":2.758,"coronary_heart_disease":4.924,"dementia":1.383,"depression":15.306,"diabetes":8.716,"hypertension":22.298,"obesity":11.244,"serious_mental_illness":1.315,"stroke_tia":3.016}},{"ods":"L85020","name":"BECKINGTON FAMILY PRACTICE","pcn":"U21951","lat":51.257944,"lng":-2.304817,"list":11561,"gp_fte":7.4866666666,"rating":"Good","prev":{"asthma":7.883,"atrial_fibrillation":3.26,"copd":1.538,"coronary_heart_disease":3.522,"dementia":0.795,"depression":15.826,"diabetes":6.58,"hypertension":18.238,"obesity":12.417,"serious_mental_illness":0.926,"stroke_tia":2.403}},{"ods":"L85021","name":"COLLEGE WAY SURGERY","pcn":"U28174","lat":51.003296,"lng":-3.123642,"list":14969,"gp_fte":7.5330666668,"rating":"Good","prev":{"asthma":7.58,"atrial_fibrillation":3.89,"copd":1.993,"coronary_heart_disease":4.012,"dementia":1.163,"depression":16.58,"diabetes":7.811,"hypertension":18.64,"obesity":9.724,"serious_mental_illness":0.619,"stroke_tia":2.747}},{"ods":"L85022","name":"DIAMOND HEALTH GROUP","pcn":"U11103","lat":50.948194,"lng":-2.643488,"list":13390,"gp_fte":5.6160000001,"rating":"Good","prev":{"asthma":6.739,"atrial_fibrillation":2.839,"copd":2.444,"coronary_heart_disease":3.607,"dementia":1.324,"depression":16.981,"diabetes":8.858,"hypertension":19.14,"obesity":18.132,"serious_mental_illness":0.988,"stroke_tia":2.356}},{"ods":"L85023","name":"ST JAMES MEDICAL CENTRE","pcn":"U28174","lat":51.023843,"lng":-3.112279,"list":17630,"gp_fte":6.7333333334,"rating":"Good","prev":{"asthma":6.104,"atrial_fibrillation":2.29,"copd":1.695,"coronary_heart_disease":2.756,"dementia":0.544,"depression":18.688,"diabetes":6.419,"hypertension":12.841,"obesity":13.334,"serious_mental_illness":0.881,"stroke_tia":1.964}},{"ods":"L85024","name":"POLDEN MEDICAL PRACTICE","pcn":"U81930","lat":51.168108,"lng":-2.918862,"list":11145,"gp_fte":6.0266666667,"rating":"Good","prev":{"asthma":7.788,"atrial_fibrillation":4.023,"copd":2.682,"coronary_heart_disease":5.125,"dementia":0.817,"depression":16.962,"diabetes":9.014,"hypertension":18.664,"obesity":13.062,"serious_mental_illness":0.753,"stroke_tia":2.7}},{"ods":"L85025","name":"CRANLEIGH GARDENS MEDICAL CENTRE","pcn":"U81930","lat":51.128872,"lng":-2.985306,"list":14007,"gp_fte":6.5,"rating":"Good","prev":{"asthma":6.89,"atrial_fibrillation":2.026,"copd":2.37,"coronary_heart_disease":2.921,"dementia":0.487,"depression":17.788,"diabetes":8.096,"hypertension":15.953,"obesity":15.134,"serious_mental_illness":0.831,"stroke_tia":1.504}},{"ods":"L85026","name":"HAMDON MEDICAL CENTRE, STOKE-SUB-HAMDON","pcn":"U60622","lat":50.947592,"lng":-2.740736,"list":6012,"gp_fte":1.2533333333,"rating":"Good","prev":{"asthma":6.819,"atrial_fibrillation":3.548,"copd":2.772,"coronary_heart_disease":4.109,"dementia":0.578,"depression":14.977,"diabetes":7.775,"hypertension":18.993,"obesity":15.592,"serious_mental_illness":0.677,"stroke_tia":2.426}},{"ods":"L85027","name":"WINCANTON HEALTH CENTRE","pcn":"U81307","lat":51.049791,"lng":-2.405097,"list":8678,"gp_fte":4.1298666665,"rating":"Good","prev":{"asthma":7.686,"atrial_fibrillation":3.405,"copd":2.483,"coronary_heart_disease":3.838,"dementia":0.649,"depression":18.512,"diabetes":8.916,"hypertension":21.355,"obesity":17.709,"serious_mental_illness":1.128,"stroke_tia":2.244}},{"ods":"L85029","name":"VINE SURGERY PARTNERSHIP","pcn":"U17153","lat":51.121051,"lng":-2.739982,"list":13084,"gp_fte":5.5333333333,"rating":"Good","prev":{"asthma":7.271,"atrial_fibrillation":3.358,"copd":2.308,"coronary_heart_disease":4.059,"dementia":0.883,"depression":16.747,"diabetes":7.803,"hypertension":18.117,"obesity":11.4,"serious_mental_illness":0.777,"stroke_tia":2.498}},{"ods":"L85030","name":"ARIEL HEALTHCARE","pcn":"U10684","lat":50.871742,"lng":-2.953432,"list":18078,"gp_fte":8.3023999999,"rating":"Good","prev":{"asthma":7.859,"atrial_fibrillation":3.729,"copd":2.711,"coronary_heart_disease":4.364,"dementia":0.902,"depression":18.067,"diabetes":9.593,"hypertension":20.549,"obesity":20.745,"serious_mental_illness":1.023,"stroke_tia":2.717}},{"ods":"L85031","name":"MILBORNE PORT SURGERY","pcn":"U81307","lat":50.984044,"lng":-2.436263,"list":7540,"gp_fte":4.6773333334,"rating":"Good","prev":{"asthma":8.035,"atrial_fibrillation":3.66,"copd":2.177,"coronary_heart_disease":4.355,"dementia":0.868,"depression":20.946,"diabetes":8.259,"hypertension":21.159,"obesity":14.823,"serious_mental_illness":0.908,"stroke_tia":2.458}},{"ods":"L85032","name":"BRUTON SURGERY","pcn":"U81307","lat":51.115475,"lng":-2.44014,"list":5028,"gp_fte":1.8933333334,"rating":"Good","prev":{"asthma":7.931,"atrial_fibrillation":3.079,"copd":1.308,"coronary_heart_disease":3.406,"dementia":0.539,"depression":15.942,"diabetes":5.937,"hypertension":15.374,"obesity":8.816,"serious_mental_illness":0.635,"stroke_tia":2.097}},{"ods":"L85033","name":"LANGPORT SURGERY","pcn":"U10684","lat":51.038017,"lng":-2.825135,"list":13948,"gp_fte":6.8000000001,"rating":"Good","prev":{"asthma":7.233,"atrial_fibrillation":4.55,"copd":2.336,"coronary_heart_disease":4.874,"dementia":1.359,"depression":16.386,"diabetes":8.602,"hypertension":22.522,"obesity":16.249,"serious_mental_illness":0.769,"stroke_tia":3.22}},{"ods":"L85034","name":"WELLS CITY PRACTICE","pcn":"U17153","lat":51.212718,"lng":-2.653237,"list":8464,"gp_fte":6.7066666668,"rating":"Good","prev":{"asthma":7.165,"atrial_fibrillation":3.605,"copd":1.726,"coronary_heart_disease":4.03,"dementia":0.733,"depression":14.21,"diabetes":7.165,"hypertension":18.603,"obesity":11.477,"serious_mental_illness":1.525,"stroke_tia":2.647}},{"ods":"L85035","name":"EAST QUAY MEDICAL CENTRE","pcn":"U81930","lat":51.133193,"lng":-2.998164,"list":17375,"gp_fte":10.4633333333,"rating":"Good","prev":{"asthma":6.159,"atrial_fibrillation":2.443,"copd":1.881,"coronary_heart_disease":3.562,"dementia":0.773,"depression":18.173,"diabetes":8.57,"hypertension":18.431,"obesity":12.707,"serious_mental_illness":0.568,"stroke_tia":2.051}},{"ods":"L85036","name":"QUANTOCK VALE SURGERY","pcn":"U28174","lat":51.061462,"lng":-3.19002,"list":6147,"gp_fte":2.88,"rating":"Good","prev":{"asthma":6.103,"atrial_fibrillation":3.444,"copd":1.954,"coronary_heart_disease":3.809,"dementia":1.076,"depression":18.922,"diabetes":7.821,"hypertension":17.884,"obesity":8.219,"serious_mental_illness":0.596,"stroke_tia":2.567}},{"ods":"L85037","name":"NORTH CURRY","pcn":"U25707","lat":51.022708,"lng":-2.954381,"list":4209,"gp_fte":2.88,"rating":"Good","prev":{"asthma":8.304,"atrial_fibrillation":3.61,"copd":2.094,"coronary_heart_disease":3.827,"dementia":0.529,"depression":14.145,"diabetes":6.797,"hypertension":18.797,"obesity":11.894,"serious_mental_illness":0.626,"stroke_tia":2.647}},{"ods":"L85038","name":"LISTER HOUSE PARTNERSHIP","pcn":"U09275","lat":51.038542,"lng":-3.292946,"list":6894,"gp_fte":4.1333333334,"rating":"Good","prev":{"asthma":6.526,"atrial_fibrillation":3.382,"copd":2.123,"coronary_heart_disease":4.128,"dementia":0.717,"depression":14.508,"diabetes":8.209,"hypertension":21.71,"obesity":13.354,"serious_mental_illness":0.952,"stroke_tia":2.796}},{"ods":"L85039","name":"GLASTONBURY SURGERY","pcn":"U17153","lat":51.138262,"lng":-2.718542,"list":13864,"gp_fte":10.0706666666,"rating":"Good","prev":{"asthma":7.201,"atrial_fibrillation":2.993,"copd":1.979,"coronary_heart_disease":3.443,"dementia":0.893,"depression":21.213,"diabetes":7.339,"hypertension":16.765,"obesity":14.05,"serious_mental_illness":1.036,"stroke_tia":2.279}},{"ods":"L85040","name":"MILLBROOK SURGERY, CASTLE CARY","pcn":"U81307","lat":51.089814,"lng":-2.530113,"list":7039,"gp_fte":4.0933333333,"rating":"Good","prev":{"asthma":8.138,"atrial_fibrillation":3.22,"copd":1.752,"coronary_heart_disease":3.462,"dementia":1.296,"depression":17.219,"diabetes":7.083,"hypertension":18.507,"obesity":7.947,"serious_mental_illness":0.798,"stroke_tia":2.536}},{"ods":"L85042","name":"TAUNTON ROAD MEDICAL CENTRE","pcn":"U81930","lat":51.127259,"lng":-2.998712,"list":15514,"gp_fte":10.0266666668,"rating":"Good","prev":{"asthma":7.24,"atrial_fibrillation":2.398,"copd":2.702,"coronary_heart_disease":3.505,"dementia":0.854,"depression":21.841,"diabetes":8.773,"hypertension":15.971,"obesity":13.995,"serious_mental_illness":0.917,"stroke_tia":1.835}},{"ods":"L85043","name":"PARK MEDICAL PRACTICE","pcn":"U21951","lat":51.177696,"lng":-2.530908,"list":10953,"gp_fte":6.0166666666,"rating":"Good","prev":{"asthma":6.547,"atrial_fibrillation":2.984,"copd":1.992,"coronary_heart_disease":3.377,"dementia":0.822,"depression":19.432,"diabetes":7.636,"hypertension":16.868,"obesity":16.58,"serious_mental_illness":0.84,"stroke_tia":1.957}},{"ods":"L85044","name":"QUEEN CAMEL MEDICAL CENTRE","pcn":"U81307","lat":51.032928,"lng":-2.562208,"list":6147,"gp_fte":4.8933333333,"rating":"Good","prev":{"asthma":7.743,"atrial_fibrillation":4.282,"copd":2.272,"coronary_heart_disease":4.592,"dementia":1.405,"depression":14.604,"diabetes":7.787,"hypertension":21.327,"obesity":12.721,"serious_mental_illness":0.539,"stroke_tia":3.367}},{"ods":"L85046","name":"MENDIP COUNTRY PRACTICE","pcn":"U21951","lat":51.237302,"lng":-2.422971,"list":6028,"gp_fte":6.3066666667,"rating":"Good","prev":{"asthma":9.102,"atrial_fibrillation":3.558,"copd":2.534,"coronary_heart_disease":4.548,"dementia":0.822,"depression":19.139,"diabetes":8.541,"hypertension":18.308,"obesity":15.001,"serious_mental_illness":0.806,"stroke_tia":2.249}},{"ods":"L85047","name":"GLASTONBURY HEALTH CENTRE","pcn":"U17153","lat":51.14361,"lng":-2.709721,"list":5931,"gp_fte":2.1533333334,"rating":"Good","prev":{"asthma":7.743,"atrial_fibrillation":2.884,"copd":2.45,"coronary_heart_disease":3.184,"dementia":0.567,"depression":17.987,"diabetes":6.204,"hypertension":14.569,"obesity":9.574,"serious_mental_illness":2.15,"stroke_tia":2.267}},{"ods":"L85051","name":"REDGATE MEDICAL CENTRE","pcn":"U81930","lat":51.12983,"lng":-2.980209,"list":7303,"gp_fte":3.5706666667,"rating":"Good","prev":{"asthma":5.534,"atrial_fibrillation":2.048,"copd":2.758,"coronary_heart_disease":3.55,"dementia":0.819,"depression":15.333,"diabetes":8.369,"hypertension":14.077,"obesity":12.476,"serious_mental_illness":0.614,"stroke_tia":1.775}},{"ods":"L85052","name":"WARWICK HOUSE MEDICAL PRACTICE","pcn":"U25707","lat":51.007421,"lng":-3.079885,"list":7779,"gp_fte":3.1477333333,"rating":"Good","prev":{"asthma":6.124,"atrial_fibrillation":3.651,"copd":2.206,"coronary_heart_disease":4.094,"dementia":1.331,"depression":21.966,"diabetes":8.664,"hypertension":19.711,"obesity":15.336,"serious_mental_illness":1.306,"stroke_tia":2.941}},{"ods":"L85053","name":"GROVE HOUSE SURGERY","pcn":"U21951","lat":51.186739,"lng":-2.547838,"list":6389,"gp_fte":4.3039999999,"rating":"Good","prev":{"asthma":7.621,"atrial_fibrillation":2.852,"copd":2.309,"coronary_heart_disease":4.03,"dementia":0.697,"depression":21.446,"diabetes":7.933,"hypertension":18.304,"obesity":16.197,"serious_mental_illness":0.666,"stroke_tia":2.061}},{"ods":"L85054","name":"SUMMERVALE SURGERY","pcn":"U10684","lat":50.928942,"lng":-2.907106,"list":8986,"gp_fte":4.48,"rating":"Good","prev":{"asthma":7.831,"atrial_fibrillation":4.209,"copd":2.478,"coronary_heart_disease":5.229,"dementia":1.008,"depression":18.405,"diabetes":8.581,"hypertension":21.781,"obesity":16.596,"serious_mental_illness":0.949,"stroke_tia":2.822}},{"ods":"L85055","name":"AXBRIDGE SURGERY","pcn":"U00760","lat":51.256091,"lng":-2.826831,"list":9190,"gp_fte":4.4234666667,"rating":"Good","prev":{"asthma":6.946,"atrial_fibrillation":3.717,"copd":1.639,"coronary_heart_disease":3.882,"dementia":0.561,"depression":10.604,"diabetes":6.938,"hypertension":18.069,"obesity":11.971,"serious_mental_illness":0.572,"stroke_tia":2.463}},{"ods":"L85056","name":"NORTH PETHERTON SURGERY","pcn":"U81930","lat":51.094856,"lng":-3.00366,"list":7317,"gp_fte":3.9755354943,"rating":"Good","prev":{"asthma":6.964,"atrial_fibrillation":2.78,"copd":2.246,"coronary_heart_disease":4.176,"dementia":0.548,"depression":19.015,"diabetes":7.432,"hypertension":15.624,"obesity":13.047,"serious_mental_illness":0.657,"stroke_tia":2.191}},{"ods":"L85061","name":"THE MEADOWS SURGERY","pcn":"U10684","lat":50.935061,"lng":-2.909856,"list":4053,"gp_fte":0.8,"rating":"Good","prev":{"asthma":7.402,"atrial_fibrillation":3.07,"copd":2.32,"coronary_heart_disease":3.281,"dementia":1.031,"depression":22.302,"diabetes":8.156,"hypertension":19.85,"obesity":13.324,"serious_mental_illness":1.008,"stroke_tia":1.945}},{"ods":"L85062","name":"LYNGFORD PARK","pcn":"U25707","lat":51.032432,"lng":-3.091593,"list":6352,"gp_fte":2.9970666667,"rating":"Good","prev":{"asthma":7.635,"atrial_fibrillation":2.386,"copd":3.014,"coronary_heart_disease":3.344,"dementia":0.973,"depression":17.076,"diabetes":8.473,"hypertension":16.248,"obesity":18.7,"serious_mental_illness":1.303,"stroke_tia":2.37}},{"ods":"L85064","name":"OAKLANDS SURGERY","pcn":"U11103","lat":50.952073,"lng":-2.630832,"list":16634,"gp_fte":5.6264000001,"rating":"Good","prev":{"asthma":6.15,"atrial_fibrillation":1.459,"copd":1.72,"coronary_heart_disease":2.053,"dementia":0.387,"depression":20.223,"diabetes":6.475,"hypertension":10.939,"obesity":14.059,"serious_mental_illness":1.116,"stroke_tia":1.296}},{"ods":"L85065","name":"DUNSTER & PORLOCK SURGERIES","pcn":"U47425","lat":51.177088,"lng":-3.496111,"list":8263,"gp_fte":4.592,"rating":"Outstanding","prev":{"asthma":9.159,"atrial_fibrillation":5.16,"copd":2.923,"coronary_heart_disease":5.948,"dementia":1.246,"depression":12.414,"diabetes":8.175,"hypertension":26.004,"obesity":17.333,"serious_mental_illness":0.699,"stroke_tia":4.207}},{"ods":"L85066","name":"BUTTERCROSS HEALTH CENTRE","pcn":"U60622","lat":51.038098,"lng":-2.707627,"list":7838,"gp_fte":3.9625085366,"rating":"Good","prev":{"asthma":7.59,"atrial_fibrillation":3.5,"copd":2.426,"coronary_heart_disease":3.891,"dementia":0.96,"depression":21.048,"diabetes":8.123,"hypertension":19.646,"obesity":14.906,"serious_mental_illness":0.821,"stroke_tia":2.539}},{"ods":"L85601","name":"BRENT AREA MEDICAL CENTRE","pcn":"U00760","lat":51.271103,"lng":-2.946346,"list":3573,"gp_fte":1.9776000001,"rating":"Good","prev":{"asthma":8.732,"atrial_fibrillation":4.158,"copd":1.992,"coronary_heart_disease":4.36,"dementia":0.837,"depression":13.166,"diabetes":10.124,"hypertension":22.437,"obesity":16.899,"serious_mental_illness":0.549,"stroke_tia":3.436}},{"ods":"L85607","name":"SOMERSET BRIDGE MEDICAL CENTRE","pcn":"U81930","lat":51.117722,"lng":-2.997905,"list":5543,"gp_fte":4.32,"rating":"Good","prev":{"asthma":6.262,"atrial_fibrillation":1.59,"copd":1.337,"coronary_heart_disease":2.404,"dementia":0.253,"depression":16.449,"diabetes":6.18,"hypertension":11.061,"obesity":16.255,"serious_mental_illness":0.651,"stroke_tia":1.175}},{"ods":"L85609","name":"CREECH","pcn":"U25707","lat":51.026605,"lng":-3.034231,"list":5358,"gp_fte":2.8853333334,"rating":null,"prev":{"asthma":5.887,"atrial_fibrillation":2.883,"copd":1.565,"coronary_heart_disease":3.685,"dementia":0.687,"depression":15.636,"diabetes":8.203,"hypertension":15.33,"obesity":13.663,"serious_mental_illness":0.439,"stroke_tia":2.386}},{"ods":"L85611","name":"OAKHILL SURGERY","pcn":"U21951","lat":51.234287,"lng":-2.508007,"list":3161,"gp_fte":2.1333333333,"rating":"Good","prev":{"asthma":6.626,"atrial_fibrillation":2.067,"copd":1.908,"coronary_heart_disease":2.83,"dementia":0.7,"depression":15.057,"diabetes":6.067,"hypertension":14.944,"obesity":12.316,"serious_mental_illness":0.7,"stroke_tia":2.226}},{"ods":"L85624","name":"CHURCH VIEW MEDICAL CENTRE","pcn":"U10684","lat":50.918239,"lng":-2.96016,"list":5228,"gp_fte":2.48,"rating":"Good","prev":{"asthma":8.001,"atrial_fibrillation":4.108,"copd":1.348,"coronary_heart_disease":4.472,"dementia":0.984,"depression":19.716,"diabetes":8.398,"hypertension":24.561,"obesity":18.853,"serious_mental_illness":0.513,"stroke_tia":2.739}},{"ods":"Y01163","name":"WEST COKER SURGERY","pcn":"Unaligned","lat":50.925765,"lng":-2.680431,"list":3877,"gp_fte":1.6133333333,"rating":"Good","prev":{"asthma":8.522,"atrial_fibrillation":2.744,"copd":2.27,"coronary_heart_disease":3.966,"dementia":0.673,"depression":11.045,"diabetes":9.123,"hypertension":22.375,"obesity":6.974,"serious_mental_illness":0.649,"stroke_tia":2.345}}]