[{"ods":"D83001","name":"CONSTABLE COUNTRY RURAL MEDICAL PRACTICE","pcn":"U49615","lat":51.988295,"lng":1.045807,"list":11226,"gp_fte":4.0,"rating":"Good","prev":{"asthma":7.944,"atrial_fibrillation":3.031,"copd":1.525,"coronary_heart_disease":4.069,"dementia":0.758,"depression":14.119,"diabetes":7.263,"hypertension":19.118,"obesity":14.465,"serious_mental_illness":0.55,"stroke_tia":2.355}},{"ods":"D83003","name":"WICKHAMBROOK SURGERY","pcn":"U39025","lat":52.169849,"lng":0.549105,"list":5024,"gp_fte":3.2666666667,"rating":"Good","prev":{"asthma":9.156,"atrial_fibrillation":3.606,"copd":2.215,"coronary_heart_disease":4.175,"dementia":0.686,"depression":13.57,"diabetes":7.824,"hypertension":19.345,"obesity":12.786,"serious_mental_illness":0.49,"stroke_tia":2.136}},{"ods":"D83004","name":"FELIXSTOWE ROAD MEDICAL PRACTICE","pcn":"U95792","lat":52.046735,"lng":1.190412,"list":10145,"gp_fte":6.2133333335,"rating":"Good","prev":{"asthma":6.472,"atrial_fibrillation":2.868,"copd":1.629,"coronary_heart_disease":3.541,"dementia":0.458,"depression":8.909,"diabetes":9.816,"hypertension":17.44,"obesity":13.727,"serious_mental_illness":0.771,"stroke_tia":1.931}},{"ods":"D83005","name":"ANGEL HILL SURGERY","pcn":"U98785","lat":52.243723,"lng":0.713921,"list":13822,"gp_fte":6.9866666666,"rating":"Good","prev":{"asthma":8.758,"atrial_fibrillation":3.401,"copd":2.114,"coronary_heart_disease":3.536,"dementia":1.004,"depression":10.399,"diabetes":7.944,"hypertension":18.853,"obesity":9.88,"serious_mental_illness":1.089,"stroke_tia":2.383}},{"ods":"D83006","name":"BILDESTON HEALTH CENTRE","pcn":"U49615","lat":52.111114,"lng":0.910138,"list":7596,"gp_fte":2.2666666667,"rating":"Good","prev":{"asthma":7.298,"atrial_fibrillation":3.554,"copd":1.655,"coronary_heart_disease":4.259,"dementia":0.665,"depression":10.963,"diabetes":6.582,"hypertension":20.724,"obesity":8.584,"serious_mental_illness":0.556,"stroke_tia":2.374}},{"ods":"D83007","name":"IXWORTH SURGERY","pcn":"U23742","lat":52.31239,"lng":0.834957,"list":9575,"gp_fte":4.0533333333,"rating":"Good","prev":{"asthma":8.899,"atrial_fibrillation":2.843,"copd":1.941,"coronary_heart_disease":3.585,"dementia":0.997,"depression":13.053,"diabetes":8.323,"hypertension":16.186,"obesity":10.499,"serious_mental_illness":0.594,"stroke_tia":2.143}},{"ods":"D83008","name":"BURLINGTON PRIMARY CARE","pcn":"U40593","lat":52.057899,"lng":1.139446,"list":16072,"gp_fte":4.5554666667,"rating":"Good","prev":{"asthma":6.06,"atrial_fibrillation":1.944,"copd":1.571,"coronary_heart_disease":2.383,"dementia":0.527,"depression":11.418,"diabetes":7.927,"hypertension":14.248,"obesity":11.844,"serious_mental_illness":1.251,"stroke_tia":1.594}},{"ods":"D83012","name":"UNITY HEALTHCARE","pcn":"U52763","lat":52.092488,"lng":0.560696,"list":27985,"gp_fte":8.3133333334,"rating":"Good","prev":{"asthma":8.061,"atrial_fibrillation":2.991,"copd":2.292,"coronary_heart_disease":3.681,"dementia":0.952,"depression":15.147,"diabetes":9.315,"hypertension":21.259,"obesity":15.606,"serious_mental_illness":0.74,"stroke_tia":2.198}},{"ods":"D83013","name":"THE GUILDHALL AND BARROW SURGERY","pcn":"U98785","lat":52.246139,"lng":0.681287,"list":13735,"gp_fte":8.9733333332,"rating":"Good","prev":{"asthma":8.445,"atrial_fibrillation":3.431,"copd":2.374,"coronary_heart_disease":3.675,"dementia":1.227,"depression":10.149,"diabetes":8.699,"hypertension":18.996,"obesity":12.995,"serious_mental_illness":1.006,"stroke_tia":2.411}},{"ods":"D83015","name":"HOWARD HOUSE SURGERY","pcn":"U52997","lat":51.968588,"lng":1.336791,"list":8276,"gp_fte":5.28,"rating":"Good","prev":{"asthma":8.727,"atrial_fibrillation":4.176,"copd":2.902,"coronary_heart_disease":4.989,"dementia":1.71,"depression":12.568,"diabetes":9.987,"hypertension":24.853,"obesity":14.499,"serious_mental_illness":1.156,"stroke_tia":3.008}},{"ods":"D83017","name":"NEEDHAM MARKET COUNTRY PRACTICE","pcn":"U49615","lat":52.137974,"lng":1.065061,"list":13807,"gp_fte":6.7466666667,"rating":"Good","prev":{"asthma":7.46,"atrial_fibrillation":3.243,"copd":1.849,"coronary_heart_disease":3.596,"dementia":1.054,"depression":15.276,"diabetes":7.768,"hypertension":18.697,"obesity":11.218,"serious_mental_illness":0.809,"stroke_tia":2.585}},{"ods":"D83018","name":"MARKET CROSS SURGERY","pcn":"U89162","lat":52.353492,"lng":0.498272,"list":12918,"gp_fte":7.952,"rating":"Outstanding","prev":{"asthma":7.765,"atrial_fibrillation":2.876,"copd":2.915,"coronary_heart_disease":3.689,"dementia":0.836,"depression":16.081,"diabetes":9.656,"hypertension":17.515,"obesity":17.707,"serious_mental_illness":0.883,"stroke_tia":1.97}},{"ods":"D83019","name":"MENDLESHAM MEDICAL GROUP","pcn":"U52997","lat":52.250945,"lng":1.048768,"list":7925,"gp_fte":4.7333333333,"rating":"Good","prev":{"asthma":8.47,"atrial_fibrillation":3.794,"copd":2.095,"coronary_heart_disease":3.883,"dementia":0.549,"depression":10.376,"diabetes":7.944,"hypertension":18.574,"obesity":12.652,"serious_mental_illness":0.588,"stroke_tia":2.542}},{"ods":"D83020","name":"THE HOLBROOK AND SHOTLEY PRACTICE","pcn":"U49615","lat":51.979226,"lng":1.197391,"list":8034,"gp_fte":3.6000000001,"rating":"Good","prev":{"asthma":6.341,"atrial_fibrillation":3.799,"copd":1.287,"coronary_heart_disease":4.176,"dementia":1.432,"depression":11.256,"diabetes":7.798,"hypertension":18.269,"obesity":11.466,"serious_mental_illness":0.753,"stroke_tia":2.61}},{"ods":"D83021","name":"HAVERHILL FAMILY PRACTICE","pcn":"U52763","lat":52.087108,"lng":0.437105,"list":20468,"gp_fte":5.0666666667,"rating":"Good","prev":{"asthma":6.128,"atrial_fibrillation":2.24,"copd":2.407,"coronary_heart_disease":3.029,"dementia":0.678,"depression":14.251,"diabetes":8.674,"hypertension":14.742,"obesity":18.286,"serious_mental_illness":0.824,"stroke_tia":1.644}},{"ods":"D83024","name":"IVRY STREET MEDICAL PRACTICE","pcn":"U26878","lat":52.068275,"lng":1.150464,"list":13921,"gp_fte":6.992,"rating":"Good","prev":{"asthma":6.65,"atrial_fibrillation":2.293,"copd":1.143,"coronary_heart_disease":2.981,"dementia":0.651,"depression":9.539,"diabetes":6.918,"hypertension":14.752,"obesity":12.861,"serious_mental_illness":0.861,"stroke_tia":1.867}},{"ods":"D83026","name":"FRAMLINGHAM SURGERY","pcn":"U10033","lat":52.229305,"lng":1.328239,"list":9020,"gp_fte":3.5493333333,"rating":"Good","prev":{"asthma":7.683,"atrial_fibrillation":3.971,"copd":1.507,"coronary_heart_disease":4.186,"dementia":1.464,"depression":8.327,"diabetes":7.362,"hypertension":18.424,"obesity":9.982,"serious_mental_illness":0.764,"stroke_tia":2.701}},{"ods":"D83027","name":"ORCHARD HOUSE SURGERY","pcn":"U89162","lat":52.250528,"lng":0.41158,"list":11684,"gp_fte":6.5251752031,"rating":"Outstanding","prev":{"asthma":6.165,"atrial_fibrillation":2.448,"copd":1.649,"coronary_heart_disease":2.574,"dementia":0.723,"depression":10.995,"diabetes":5.681,"hypertension":13.795,"obesity":7.87,"serious_mental_illness":0.74,"stroke_tia":1.8}},{"ods":"D83028","name":"LEISTON SURGERY","pcn":"U10033","lat":52.212773,"lng":1.554323,"list":9297,"gp_fte":4.56,"rating":"Good","prev":{"asthma":8.233,"atrial_fibrillation":4.236,"copd":2.081,"coronary_heart_disease":4.31,"dementia":1.419,"depression":12.68,"diabetes":8.727,"hypertension":20.624,"obesity":13.488,"serious_mental_illness":1.377,"stroke_tia":2.765}},{"ods":"D83029","name":"THE ROOKERY MEDICAL CENTRE","pcn":"U89162","lat":52.24906,"lng":0.410618,"list":13879,"gp_fte":9.96,"rating":"Good","prev":{"asthma":6.899,"atrial_fibrillation":2.45,"copd":2.302,"coronary_heart_disease":2.647,"dementia":0.711,"depression":11.616,"diabetes":7.087,"hypertension":14.522,"obesity":10.635,"serious_mental_illness":0.901,"stroke_tia":1.872}},{"ods":"D83033","name":"BOTESDALE HEALTH CENTRE","pcn":"U23742","lat":52.344504,"lng":1.013426,"list":10130,"gp_fte":5.6426666667,"rating":"Good","prev":{"asthma":9.056,"atrial_fibrillation":3.966,"copd":2.018,"coronary_heart_disease":4.086,"dementia":0.679,"depression":13.556,"diabetes":7.779,"hypertension":21.551,"obesity":15.768,"serious_mental_illness":0.819,"stroke_tia":2.318}},{"ods":"D83037","name":"HADLEIGH HEALTH CENTRE","pcn":"U49615","lat":52.042238,"lng":0.945959,"list":16310,"gp_fte":7.7599999999,"rating":"Good","prev":{"asthma":9.849,"atrial_fibrillation":3.7,"copd":1.77,"coronary_heart_disease":4.081,"dementia":1.321,"depression":13.213,"diabetes":7.824,"hypertension":18.941,"obesity":13.763,"serious_mental_illness":0.799,"stroke_tia":2.587}},{"ods":"D83038","name":"MOUNT FARM SURGERY","pcn":"U98785","lat":52.243946,"lng":0.738617,"list":16177,"gp_fte":9.2,"rating":"Good","prev":{"asthma":7.543,"atrial_fibrillation":2.913,"copd":1.706,"coronary_heart_disease":3.169,"dementia":1.088,"depression":15.087,"diabetes":6.918,"hypertension":17.258,"obesity":11.857,"serious_mental_illness":0.856,"stroke_tia":2.057}},{"ods":"D83040","name":"VICTORIA SURGERY","pcn":"U98785","lat":52.250259,"lng":0.701775,"list":11209,"gp_fte":6.3999999999,"rating":"Good","prev":{"asthma":8.054,"atrial_fibrillation":2.935,"copd":1.936,"coronary_heart_disease":3.399,"dementia":1.106,"depression":10.704,"diabetes":7.709,"hypertension":16.818,"obesity":12.717,"serious_mental_illness":1.044,"stroke_tia":2.115}},{"ods":"D83041","name":"DEBENHAM GROUP PRACTICE","pcn":"U52997","lat":52.177891,"lng":1.197047,"list":10066,"gp_fte":5.1866666667,"rating":"Good","prev":{"asthma":9.202,"atrial_fibrillation":3.12,"copd":1.346,"coronary_heart_disease":3.619,"dementia":0.54,"depression":12.121,"diabetes":6.936,"hypertension":18.21,"obesity":15.457,"serious_mental_illness":0.744,"stroke_tia":2.518}},{"ods":"D83043","name":"EYE HEALTH CENTRE","pcn":"U52997","lat":52.314477,"lng":1.156483,"list":6313,"gp_fte":3.3200000001,"rating":"Good","prev":{"asthma":8.547,"atrial_fibrillation":3.664,"copd":1.832,"coronary_heart_disease":3.776,"dementia":1.398,"depression":9.21,"diabetes":7.884,"hypertension":17.242,"obesity":10.885,"serious_mental_illness":0.771,"stroke_tia":2.716}},{"ods":"D83044","name":"STOWHEALTH","pcn":"U52997","lat":52.191213,"lng":0.990554,"list":23688,"gp_fte":6.6426666666,"rating":"Good","prev":{"asthma":8.584,"atrial_fibrillation":2.559,"copd":1.758,"coronary_heart_disease":3.102,"dementia":0.952,"depression":16.265,"diabetes":7.81,"hypertension":20.302,"obesity":14.923,"serious_mental_illness":0.879,"stroke_tia":1.913}},{"ods":"D83045","name":"LAKENHEATH SURGERY","pcn":"U89162","lat":52.421333,"lng":0.514951,"list":5530,"gp_fte":2.5333333333,"rating":"Good","prev":{"asthma":7.535,"atrial_fibrillation":3.385,"copd":2.643,"coronary_heart_disease":3.114,"dementia":0.507,"depression":9.84,"diabetes":9.496,"hypertension":18.248,"obesity":20.643,"serious_mental_illness":0.507,"stroke_tia":2.299}},{"ods":"D83046","name":"TWO RIVERS MEDICAL CENTRE","pcn":"U95792","lat":52.058827,"lng":1.190694,"list":29544,"gp_fte":9.7545085366,"rating":"Requires improvement","prev":{"asthma":7.132,"atrial_fibrillation":2.661,"copd":1.374,"coronary_heart_disease":3.164,"dementia":0.845,"depression":15.868,"diabetes":6.955,"hypertension":15.03,"obesity":13.508,"serious_mental_illness":0.882,"stroke_tia":1.857}},{"ods":"D83048","name":"GROVE MEDICAL CENTRE","pcn":"U40593","lat":51.973811,"lng":1.337524,"list":17875,"gp_fte":2.3866666667,"rating":"Good","prev":{"asthma":8.264,"atrial_fibrillation":3.582,"copd":2.715,"coronary_heart_disease":5.315,"dementia":0.959,"depression":15.385,"diabetes":8.957,"hypertension":20.784,"obesity":18.127,"serious_mental_illness":1.01,"stroke_tia":2.698}},{"ods":"D83049","name":"LITTLE ST JOHN STREET SURGERY","pcn":"U64705","lat":52.099556,"lng":1.315734,"list":6855,"gp_fte":3.7333333333,"rating":"Outstanding","prev":{"asthma":8.476,"atrial_fibrillation":4.419,"copd":1.71,"coronary_heart_disease":4.593,"dementia":1.362,"depression":13.128,"diabetes":7.203,"hypertension":21.037,"obesity":13.689,"serious_mental_illness":1.579,"stroke_tia":3.361}},{"ods":"D83050","name":"CARDINAL MEDICAL PRACTICE","pcn":"U90095","lat":52.073653,"lng":1.129932,"list":28269,"gp_fte":9.4133333334,"rating":"Good","prev":{"asthma":7.324,"atrial_fibrillation":2.305,"copd":1.802,"coronary_heart_disease":3.413,"dementia":0.792,"depression":18.648,"diabetes":8.709,"hypertension":17.62,"obesity":16.979,"serious_mental_illness":1.031,"stroke_tia":2.041}},{"ods":"D83051","name":"THE DERBY ROAD PRACTICE","pcn":"U52997","lat":52.045718,"lng":1.149771,"list":19574,"gp_fte":5.6666666667,"rating":"Good","prev":{"asthma":7.408,"atrial_fibrillation":1.93,"copd":1.593,"coronary_heart_disease":2.954,"dementia":0.631,"depression":15.407,"diabetes":7.577,"hypertension":14.626,"obesity":14.75,"serious_mental_illness":0.988,"stroke_tia":1.764}},{"ods":"D83053","name":"SAXMUNDHAM HEALTH CENTRE","pcn":"U10033","lat":52.218697,"lng":1.498604,"list":9355,"gp_fte":5.46,"rating":"Good","prev":{"asthma":7.549,"atrial_fibrillation":3.767,"copd":1.942,"coronary_heart_disease":4.382,"dementia":1.04,"depression":15.912,"diabetes":7.953,"hypertension":22.154,"obesity":18.01,"serious_mental_illness":1.21,"stroke_tia":2.981}},{"ods":"D83054","name":"THE PENINSULA PRACTICE","pcn":"U64705","lat":52.121832,"lng":1.494446,"list":6903,"gp_fte":4.4400000001,"rating":"Outstanding","prev":{"asthma":8.162,"atrial_fibrillation":4.832,"copd":2.172,"coronary_heart_disease":5.542,"dementia":1.611,"depression":12.055,"diabetes":7.279,"hypertension":22.565,"obesity":15.188,"serious_mental_illness":1.005,"stroke_tia":3.31}},{"ods":"D83055","name":"WOOLPIT HEALTH CENTRE","pcn":"U23742","lat":52.232701,"lng":0.892693,"list":16097,"gp_fte":9.9333333335,"rating":"Good","prev":{"asthma":9.053,"atrial_fibrillation":3.174,"copd":2.306,"coronary_heart_disease":3.599,"dementia":0.556,"depression":15.599,"diabetes":8.835,"hypertension":19.531,"obesity":13.329,"serious_mental_illness":0.675,"stroke_tia":2.312}},{"ods":"D83056","name":"HAWTHORN DRIVE SURGERY","pcn":"U40593","lat":52.047877,"lng":1.122457,"list":11029,"gp_fte":4.1866666667,"rating":"Good","prev":{"asthma":7.9,"atrial_fibrillation":1.913,"copd":2.153,"coronary_heart_disease":2.994,"dementia":1.312,"depression":19.846,"diabetes":8.526,"hypertension":14.46,"obesity":14.24,"serious_mental_illness":1.414,"stroke_tia":2.097}},{"ods":"D83057","name":"FRAMFIELD HOUSE SURGERY","pcn":"U64705","lat":52.092569,"lng":1.305604,"list":14598,"gp_fte":7.9600000002,"rating":"Good","prev":{"asthma":7.501,"atrial_fibrillation":3.707,"copd":1.317,"coronary_heart_disease":3.735,"dementia":0.962,"depression":12.686,"diabetes":6.766,"hypertension":19.525,"obesity":14.889,"serious_mental_illness":0.983,"stroke_tia":2.529}},{"ods":"D83059","name":"BARRACK LANE MEDICAL CENTRE","pcn":"U26878","lat":52.054513,"lng":1.139724,"list":21620,"gp_fte":5.6602666666,"rating":"Good","prev":{"asthma":5.71,"atrial_fibrillation":1.325,"copd":1.446,"coronary_heart_disease":2.328,"dementia":0.48,"depression":18.603,"diabetes":7.206,"hypertension":13.421,"obesity":13.424,"serious_mental_illness":1.059,"stroke_tia":1.591}},{"ods":"D83060","name":"HARDWICKE HOUSE GROUP PRACTICE","pcn":"U10430","lat":52.038245,"lng":0.731028,"list":24128,"gp_fte":8.8466666667,"rating":"Good","prev":{"asthma":8.413,"atrial_fibrillation":2.973,"copd":2.14,"coronary_heart_disease":3.394,"dementia":0.977,"depression":20.488,"diabetes":7.973,"hypertension":17.308,"obesity":12.36,"serious_mental_illness":1.01,"stroke_tia":2.173}},{"ods":"D83061","name":"WICKHAM MARKET MEDICAL CENTRE","pcn":"U64705","lat":52.147515,"lng":1.378936,"list":9970,"gp_fte":3.4666666667,"rating":"Good","prev":{"asthma":7.636,"atrial_fibrillation":3.728,"copd":1.447,"coronary_heart_disease":3.637,"dementia":1.447,"depression":12.465,"diabetes":7.38,"hypertension":18.145,"obesity":16.624,"serious_mental_illness":0.764,"stroke_tia":2.622}},{"ods":"D83062","name":"FOREST SURGERY","pcn":"U89162","lat":52.449521,"lng":0.632941,"list":7546,"gp_fte":3.8933333334,"rating":"Good","prev":{"asthma":8.159,"atrial_fibrillation":3.6,"copd":4.65,"coronary_heart_disease":5.115,"dementia":1.249,"depression":16.781,"diabetes":11.837,"hypertension":21.921,"obesity":18.552,"serious_mental_illness":0.81,"stroke_tia":3.003}},{"ods":"D83064","name":"GLEMSFORD SURGERY","pcn":"U39025","lat":null,"lng":null,"list":1,"gp_fte":2.1333333334,"rating":null,"prev":{"asthma":9.173,"atrial_fibrillation":3.337,"copd":3.144,"coronary_heart_disease":4.214,"dementia":0.984,"depression":16.227,"diabetes":8.903,"hypertension":21.412,"obesity":16.331,"serious_mental_illness":0.877,"stroke_tia":1.818}},{"ods":"D83067","name":"OAKFIELD SURGERY","pcn":"U89162","lat":52.245076,"lng":0.416001,"list":8515,"gp_fte":3.4533333334,"rating":"Good","prev":{"asthma":7.116,"atrial_fibrillation":2.18,"copd":1.722,"coronary_heart_disease":2.601,"dementia":0.756,"depression":14.93,"diabetes":6.412,"hypertension":14.739,"obesity":12.177,"serious_mental_illness":0.656,"stroke_tia":1.622}},{"ods":"D83069","name":"FRESSINGFIELD MEDICAL CENTRE","pcn":"U52997","lat":52.327946,"lng":1.294491,"list":6394,"gp_fte":3.3696,"rating":"Good","prev":{"asthma":7.778,"atrial_fibrillation":3.467,"copd":1.928,"coronary_heart_disease":3.7,"dementia":0.653,"depression":10.686,"diabetes":6.052,"hypertension":18.128,"obesity":13.734,"serious_mental_illness":0.777,"stroke_tia":2.379}},{"ods":"D83070","name":"STANTON SURGERY","pcn":"U23742","lat":52.348377,"lng":0.906537,"list":5139,"gp_fte":2.3466666667,"rating":"Good","prev":{"asthma":9.245,"atrial_fibrillation":4.058,"copd":2.865,"coronary_heart_disease":3.808,"dementia":0.673,"depression":13.118,"diabetes":10.258,"hypertension":24.231,"obesity":16.536,"serious_mental_illness":0.865,"stroke_tia":2.385}},{"ods":"D83073","name":"DR SOLWAY AND DR ROY PRACTICE","pcn":"U27258","lat":52.055724,"lng":1.163508,"list":5686,"gp_fte":3.0666666666,"rating":"Good","prev":{"asthma":5.701,"atrial_fibrillation":1.388,"copd":1.639,"coronary_heart_disease":2.442,"dementia":0.853,"depression":8.45,"diabetes":7.249,"hypertension":13.483,"obesity":8.513,"serious_mental_illness":1.054,"stroke_tia":1.556}},{"ods":"D83074","name":"ORCHARD MEDICAL PRACTICE","pcn":"U27258","lat":52.05574,"lng":1.163822,"list":14082,"gp_fte":7.8,"rating":"Good","prev":{"asthma":5.627,"atrial_fibrillation":1.928,"copd":1.546,"coronary_heart_disease":2.184,"dementia":0.707,"depression":12.525,"diabetes":6.155,"hypertension":12.211,"obesity":10.895,"serious_mental_illness":1.061,"stroke_tia":1.449}},{"ods":"D83075","name":"SIAM SURGERY","pcn":"U10430","lat":52.049621,"lng":0.741956,"list":13382,"gp_fte":3.9600000001,"rating":"Good","prev":{"asthma":7.627,"atrial_fibrillation":2.792,"copd":2.399,"coronary_heart_disease":3.107,"dementia":0.826,"depression":17.7,"diabetes":8.557,"hypertension":16.361,"obesity":13.56,"serious_mental_illness":1.062,"stroke_tia":1.731}},{"ods":"D83076","name":"CLARE GUILDHALL SURGERY","pcn":"U39025","lat":52.076149,"lng":0.559263,"list":5673,"gp_fte":1.8,"rating":"Good","prev":{"asthma":7.608,"atrial_fibrillation":3.807,"copd":1.802,"coronary_heart_disease":4.432,"dementia":0.533,"depression":11.311,"diabetes":8.515,"hypertension":20.927,"obesity":13.086,"serious_mental_illness":0.809,"stroke_tia":3.089}},{"ods":"D83078","name":"THE REYNARD SURGERY","pcn":"U89162","lat":52.328132,"lng":0.495649,"list":10198,"gp_fte":2.9066666666,"rating":"Good","prev":{"asthma":7.288,"atrial_fibrillation":1.585,"copd":1.664,"coronary_heart_disease":2.215,"dementia":0.315,"depression":9.759,"diabetes":7.694,"hypertension":12.938,"obesity":12.775,"serious_mental_illness":0.62,"stroke_tia":1.349}},{"ods":"D83079","name":"COMBS FORD SURGERY","pcn":"U52997","lat":52.184392,"lng":0.991838,"list":9250,"gp_fte":2.9666666666,"rating":"Good","prev":{"asthma":8.28,"atrial_fibrillation":2.606,"copd":1.933,"coronary_heart_disease":3.525,"dementia":1.196,"depression":11.66,"diabetes":8.023,"hypertension":18.778,"obesity":15.457,"serious_mental_illness":1.186,"stroke_tia":2.414}},{"ods":"D83080","name":"MARTLESHAM SURGERY","pcn":"U90095","lat":52.059865,"lng":1.265338,"list":5984,"gp_fte":2.0666666667,"rating":"Good","prev":{"asthma":7.152,"atrial_fibrillation":3.267,"copd":1.236,"coronary_heart_disease":3.487,"dementia":0.626,"depression":13.452,"diabetes":7.251,"hypertension":18.47,"obesity":14.174,"serious_mental_illness":0.796,"stroke_tia":2.015}},{"ods":"D83081","name":"HAVEN HEALTH","pcn":"U52997","lat":51.970106,"lng":1.326782,"list":8299,"gp_fte":2.9466666667,"rating":"Good","prev":{"asthma":8.16,"atrial_fibrillation":2.774,"copd":2.469,"coronary_heart_disease":3.938,"dementia":1.622,"depression":18.664,"diabetes":9.982,"hypertension":19.56,"obesity":20.991,"serious_mental_illness":1.293,"stroke_tia":2.492}},{"ods":"D83084","name":"EMBRACE MEDICAL CENTRE","pcn":"U90095","lat":52.060132,"lng":1.235977,"list":6502,"gp_fte":1.64,"rating":"Good","prev":{"asthma":5.862,"atrial_fibrillation":2.887,"copd":1.121,"coronary_heart_disease":4.115,"dementia":0.891,"depression":12.989,"diabetes":8.163,"hypertension":17.534,"obesity":10.85,"serious_mental_illness":0.676,"stroke_tia":2.303}},{"ods":"D83610","name":"SWAN SURGERY","pcn":"U98785","lat":52.248825,"lng":0.711621,"list":12756,"gp_fte":7.3933333332,"rating":"Good","prev":{"asthma":7.623,"atrial_fibrillation":2.559,"copd":2.131,"coronary_heart_disease":2.972,"dementia":0.926,"depression":18.125,"diabetes":6.621,"hypertension":16.608,"obesity":11.962,"serious_mental_illness":1.33,"stroke_tia":1.883}},{"ods":"F81012","name":"WEST MERSEA SURGERY","pcn":"U72457","lat":51.785877,"lng":0.920032,"list":7079,"gp_fte":5.6460564192,"rating":null,"prev":{"asthma":7.098,"atrial_fibrillation":4.838,"copd":1.894,"coronary_heart_disease":4.484,"dementia":1.172,"depression":14.473,"diabetes":8.247,"hypertension":25.157,"obesity":15.708,"serious_mental_illness":0.654,"stroke_tia":3.175}},{"ods":"F81017","name":"WALTON MEDICAL CENTRE","pcn":"U72457","lat":51.850616,"lng":1.252447,"list":8278,"gp_fte":2.6533333333,"rating":null,"prev":{"asthma":8.168,"atrial_fibrillation":4.623,"copd":3.606,"coronary_heart_disease":5.591,"dementia":1.973,"depression":14.635,"diabetes":11.686,"hypertension":26.274,"obesity":20.822,"serious_mental_illness":1.017,"stroke_tia":3.703}},{"ods":"F81019","name":"MAYFLOWER MEDICAL CENTRE","pcn":"U52468","lat":51.933251,"lng":1.250915,"list":17973,"gp_fte":5.4933333333,"rating":"Not Rated","prev":{"asthma":7.317,"atrial_fibrillation":2.951,"copd":2.617,"coronary_heart_disease":3.727,"dementia":1.201,"depression":21.798,"diabetes":10.113,"hypertension":18.567,"obesity":20.088,"serious_mental_illness":1.155,"stroke_tia":2.43}},{"ods":"F81021","name":"GREAT BENTLEY SURGERY","pcn":"U52468","lat":51.847388,"lng":1.084278,"list":12062,"gp_fte":6.0,"rating":"Good","prev":{"asthma":8.227,"atrial_fibrillation":3.596,"copd":2.489,"coronary_heart_disease":4.428,"dementia":0.935,"depression":18.249,"diabetes":9.805,"hypertension":21.093,"obesity":18.321,"serious_mental_illness":0.798,"stroke_tia":2.403}},{"ods":"F81026","name":"CARADOC SURGERY","pcn":"U03379","lat":51.840915,"lng":1.240339,"list":8895,"gp_fte":4.3233333333,"rating":"Good","prev":{"asthma":8.323,"atrial_fibrillation":5.121,"copd":2.205,"coronary_heart_disease":5.704,"dementia":2.088,"depression":9.626,"diabetes":10.193,"hypertension":25.72,"obesity":14.227,"serious_mental_illness":1.143,"stroke_tia":3.488}},{"ods":"F81028","name":"WIVENHOE SURGERY","pcn":"U72457","lat":51.86292,"lng":0.965428,"list":9157,"gp_fte":2.2666666666,"rating":null,"prev":{"asthma":6.864,"atrial_fibrillation":2.716,"copd":0.986,"coronary_heart_disease":2.957,"dementia":0.92,"depression":14.721,"diabetes":5.507,"hypertension":15.813,"obesity":11.78,"serious_mental_illness":0.81,"stroke_tia":1.741}},{"ods":"F81037","name":"EAST LYNNE MEDICAL CENTRE","pcn":"U42142","lat":51.798308,"lng":1.143785,"list":8761,"gp_fte":1.0666666666,"rating":"Good","prev":{"asthma":10.006,"atrial_fibrillation":2.808,"copd":3.333,"coronary_heart_disease":4.067,"dementia":1.212,"depression":23.06,"diabetes":10.633,"hypertension":20.368,"obesity":18.062,"serious_mental_illness":2.051,"stroke_tia":2.598}},{"ods":"F81042","name":"COLCHESTER MEDICAL PRACTICE","pcn":"U66344","lat":51.884603,"lng":0.905085,"list":43088,"gp_fte":13.0666666669,"rating":"Good","prev":{"asthma":5.594,"atrial_fibrillation":2.003,"copd":1.628,"coronary_heart_disease":2.461,"dementia":0.702,"depression":17.573,"diabetes":6.977,"hypertension":13.832,"obesity":14.928,"serious_mental_illness":1.15,"stroke_tia":1.402}},{"ods":"F81044","name":"THE ARDLEIGH SURGERY","pcn":"U72457","lat":51.933667,"lng":1.007601,"list":7311,"gp_fte":3.68,"rating":null,"prev":{"asthma":8.019,"atrial_fibrillation":3.036,"copd":2.257,"coronary_heart_disease":3.076,"dementia":1.169,"depression":16.597,"diabetes":7.155,"hypertension":15.852,"obesity":12.912,"serious_mental_illness":0.685,"stroke_tia":2.445}},{"ods":"F81052","name":"ST. JAMES SURGERY","pcn":"U52468","lat":51.797588,"lng":1.132902,"list":15765,"gp_fte":7.2000000002,"rating":"Good","prev":{"asthma":8.933,"atrial_fibrillation":4.48,"copd":3.063,"coronary_heart_disease":4.794,"dementia":1.587,"depression":20.937,"diabetes":11.733,"hypertension":25.802,"obesity":21.071,"serious_mental_illness":1.154,"stroke_tia":3.135}},{"ods":"F81067","name":"AMBROSE AVENUE GROUP PRACTICE","pcn":"U51488","lat":51.880673,"lng":0.844513,"list":13937,"gp_fte":3.88,"rating":"Good","prev":{"asthma":8.463,"atrial_fibrillation":2.817,"copd":1.89,"coronary_heart_disease":3.294,"dementia":1.04,"depression":11.835,"diabetes":7.648,"hypertension":16.571,"obesity":12.693,"serious_mental_illness":0.759,"stroke_tia":2.206}},{"ods":"F81069","name":"WINSTREE MEDICAL PRACTICE","pcn":"U46417","lat":51.860616,"lng":0.847121,"list":8843,"gp_fte":2.6133333334,"rating":"Good","prev":{"asthma":6.662,"atrial_fibrillation":2.273,"copd":1.413,"coronary_heart_disease":2.556,"dementia":0.577,"depression":12.116,"diabetes":7.053,"hypertension":15.029,"obesity":12.544,"serious_mental_illness":0.848,"stroke_tia":1.272}},{"ods":"F81091","name":"EAST HILL SURGERY","pcn":"U51488","lat":51.889483,"lng":0.904884,"list":9378,"gp_fte":4.4,"rating":"Good","prev":{"asthma":5.996,"atrial_fibrillation":2.174,"copd":1.91,"coronary_heart_disease":2.469,"dementia":0.696,"depression":16.383,"diabetes":6.963,"hypertension":14.667,"obesity":13.511,"serious_mental_illness":1.224,"stroke_tia":1.709}},{"ods":"F81095","name":"ABBEY FIELD MEDICAL CENTRE","pcn":"U51488","lat":51.878044,"lng":0.916867,"list":21977,"gp_fte":7.64,"rating":"Good","prev":{"asthma":7.165,"atrial_fibrillation":1.681,"copd":2.302,"coronary_heart_disease":2.315,"dementia":0.616,"depression":19.734,"diabetes":7.902,"hypertension":11.809,"obesity":17.704,"serious_mental_illness":1.585,"stroke_tia":1.388}},{"ods":"F81115","name":"CREFFIELD MEDICAL GROUP","pcn":"U31390","lat":51.901799,"lng":0.874727,"list":27115,"gp_fte":14.6933333333,"rating":"Good","prev":{"asthma":6.466,"atrial_fibrillation":3.128,"copd":1.602,"coronary_heart_disease":3.542,"dementia":1.217,"depression":12.989,"diabetes":7.162,"hypertension":16.587,"obesity":14.559,"serious_mental_illness":1.033,"stroke_tia":1.951}},{"ods":"F81116","name":"COLNE MEDICAL CENTRE","pcn":"U72457","lat":51.821411,"lng":1.021131,"list":10888,"gp_fte":5.5866666667,"rating":null,"prev":{"asthma":7.314,"atrial_fibrillation":4.187,"copd":2.218,"coronary_heart_disease":4.325,"dementia":1.518,"depression":18.488,"diabetes":9.468,"hypertension":21.673,"obesity":15.651,"serious_mental_illness":0.81,"stroke_tia":3.239}},{"ods":"F81133","name":"TIPTREE MEDICAL CENTRE","pcn":"U72457","lat":51.810426,"lng":0.75326,"list":12269,"gp_fte":5.3253333332,"rating":null,"prev":{"asthma":8.398,"atrial_fibrillation":3.209,"copd":1.798,"coronary_heart_disease":3.176,"dementia":0.668,"depression":11.146,"diabetes":8.68,"hypertension":19.543,"obesity":12.87,"serious_mental_illness":0.874,"stroke_tia":2.128}},{"ods":"F81141","name":"ROWHEDGE SURGERY","pcn":"U72457","lat":51.870075,"lng":0.917494,"list":15127,"gp_fte":7.08,"rating":null,"prev":{"asthma":3.369,"atrial_fibrillation":0.899,"copd":0.486,"coronary_heart_disease":1.078,"dementia":0.573,"depression":5.673,"diabetes":1.856,"hypertension":5.197,"obesity":6.472,"serious_mental_illness":0.462,"stroke_tia":0.659}},{"ods":"F81156","name":"RANWORTH SURGERY","pcn":"U03379","lat":51.799994,"lng":1.142662,"list":9308,"gp_fte":3.2,"rating":"Good","prev":{"asthma":9.88,"atrial_fibrillation":2.972,"copd":3.026,"coronary_heart_disease":3.582,"dementia":1.957,"depression":10.855,"diabetes":10.793,"hypertension":17.919,"obesity":16.405,"serious_mental_illness":1.272,"stroke_tia":2.673}},{"ods":"F81212","name":"OLD ROAD SURGERY","pcn":"U42142","lat":51.799687,"lng":1.126815,"list":9679,"gp_fte":2.4533333333,"rating":"Good","prev":{"asthma":8.193,"atrial_fibrillation":2.473,"copd":4.076,"coronary_heart_disease":4.046,"dementia":1.061,"depression":20.462,"diabetes":11.129,"hypertension":17.334,"obesity":16.038,"serious_mental_illness":2.423,"stroke_tia":2.433}},{"ods":"F81213","name":"THORPE SURGERY","pcn":"U42142","lat":51.849971,"lng":1.188953,"list":7604,"gp_fte":2.64,"rating":"Good","prev":{"asthma":8.028,"atrial_fibrillation":3.309,"copd":2.766,"coronary_heart_disease":4.129,"dementia":1.271,"depression":12.462,"diabetes":8.835,"hypertension":21.069,"obesity":21.241,"serious_mental_illness":0.86,"stroke_tia":2.515}},{"ods":"F81221","name":"FRONKS RD FAMILY SURGERY","pcn":"U42142","lat":51.932506,"lng":1.251641,"list":5077,"gp_fte":1.0,"rating":"Good","prev":{"asthma":8.685,"atrial_fibrillation":1.736,"copd":2.368,"coronary_heart_disease":2.841,"dementia":0.868,"depression":16.438,"diabetes":8.118,"hypertension":16.081,"obesity":11.865,"serious_mental_illness":0.75,"stroke_tia":1.638}},{"ods":"F81606","name":"HAREWOOD SURGERY","pcn":"U42142","lat":51.911505,"lng":1.188106,"list":2921,"gp_fte":1.2933333334,"rating":"Good","prev":{"asthma":9.841,"atrial_fibrillation":3.52,"copd":3.382,"coronary_heart_disease":3.761,"dementia":1.035,"depression":14.943,"diabetes":8.578,"hypertension":19.669,"obesity":21.132,"serious_mental_illness":0.518,"stroke_tia":2.657}},{"ods":"F81633","name":"LAWFORD SURGERY","pcn":"U46417","lat":51.936456,"lng":1.062123,"list":5297,"gp_fte":1.48,"rating":"Good","prev":{"asthma":7.048,"atrial_fibrillation":2.585,"copd":1.282,"coronary_heart_disease":2.73,"dementia":0.517,"depression":16.515,"diabetes":7.345,"hypertension":13.668,"obesity":10.812,"serious_mental_illness":0.662,"stroke_tia":1.654}},{"ods":"F81636","name":"MILL ROAD SURGERY","pcn":"U46417","lat":51.918121,"lng":0.89505,"list":18338,"gp_fte":6.9133333334,"rating":"Good","prev":{"asthma":6.438,"atrial_fibrillation":1.501,"copd":0.96,"coronary_heart_disease":1.771,"dementia":0.502,"depression":12.476,"diabetes":6.315,"hypertension":11.736,"obesity":13.452,"serious_mental_illness":0.817,"stroke_tia":1.054}},{"ods":"F81679","name":"HIGHWOODS SURGERY","pcn":"U46417","lat":51.909893,"lng":0.917841,"list":7670,"gp_fte":2.0,"rating":"Good","prev":{"asthma":6.632,"atrial_fibrillation":1.572,"copd":1.457,"coronary_heart_disease":2.3,"dementia":2.019,"depression":9.701,"diabetes":7.479,"hypertension":13.251,"obesity":12.167,"serious_mental_illness":1.444,"stroke_tia":1.814}},{"ods":"F81681","name":"CLACTON COMMUNITY PRACTICES","pcn":"U03379","lat":51.798466,"lng":1.146582,"list":15837,"gp_fte":5.7766666667,"rating":"Requires improvement","prev":{"asthma":10.309,"atrial_fibrillation":4.22,"copd":5.224,"coronary_heart_disease":6.284,"dementia":1.461,"depression":7.594,"diabetes":14.129,"hypertension":28.333,"obesity":19.748,"serious_mental_illness":1.135,"stroke_tia":3.631}},{"ods":"F81716","name":"TOLLGATE HEALTH CENTRE","pcn":"U51488","lat":51.883436,"lng":0.827139,"list":10136,"gp_fte":1.4933333333,"rating":null,"prev":{"asthma":6.525,"atrial_fibrillation":1.518,"copd":1.204,"coronary_heart_disease":1.968,"dementia":0.685,"depression":14.558,"diabetes":6.628,"hypertension":11.74,"obesity":10.121,"serious_mental_illness":0.911,"stroke_tia":1.381}},{"ods":"F81741","name":"NORTH CLACTON MEDICAL PRACTICE","pcn":"U42142","lat":51.809476,"lng":1.148198,"list":11032,"gp_fte":3.3466666667,"rating":"Good","prev":{"asthma":8.765,"atrial_fibrillation":3.489,"copd":3.873,"coronary_heart_disease":5.293,"dementia":1.374,"depression":15.856,"diabetes":13.049,"hypertension":24.265,"obesity":18.764,"serious_mental_illness":1.2,"stroke_tia":2.848}},{"ods":"F81746","name":"BLUEBELL SURGERY","pcn":"U46417","lat":51.910194,"lng":0.913709,"list":3644,"gp_fte":1.12,"rating":null,"prev":{"asthma":6.78,"atrial_fibrillation":0.808,"copd":1.157,"coronary_heart_disease":1.48,"dementia":0.054,"depression":18.589,"diabetes":6.144,"hypertension":10.04,"obesity":10.36,"serious_mental_illness":1.265,"stroke_tia":0.485}},{"ods":"F81757","name":"THE RIVERSIDE HEALTH CTR","pcn":"U72457","lat":51.938936,"lng":1.071017,"list":6549,"gp_fte":2.8586666667,"rating":null,"prev":{"asthma":7.575,"atrial_fibrillation":2.548,"copd":1.326,"coronary_heart_disease":2.996,"dementia":1.028,"depression":12.406,"diabetes":7.082,"hypertension":18.45,"obesity":12.828,"serious_mental_illness":0.805,"stroke_tia":2.221}},{"ods":"Y00774","name":"BRANDON MEDICAL PRACTICE","pcn":"U89162","lat":52.445953,"lng":0.629342,"list":5073,"gp_fte":2.1866666667,"rating":"Good","prev":{"asthma":8.4,"atrial_fibrillation":2.918,"copd":3.092,"coronary_heart_disease":3.865,"dementia":0.831,"depression":18.56,"diabetes":10.63,"hypertension":17.472,"obesity":10.711,"serious_mental_illness":1.16,"stroke_tia":2.145}},{"ods":"Y01794","name":"RAVENSWOOD MEDICAL PRACTICE","pcn":"U27258","lat":52.040352,"lng":1.194299,"list":14820,"gp_fte":7.3866666668,"rating":"Good","prev":{"asthma":6.985,"atrial_fibrillation":2.348,"copd":2.101,"coronary_heart_disease":3.378,"dementia":0.984,"depression":17.34,"diabetes":9.488,"hypertension":16.958,"obesity":20.733,"serious_mental_illness":1.017,"stroke_tia":2.101}},{"ods":"Y02646","name":"TURNER ROAD SURGERY","pcn":"U31390","lat":51.899361,"lng":0.898473,"list":10513,"gp_fte":5.1333333334,"rating":"Good","prev":{"asthma":5.226,"atrial_fibrillation":0.607,"copd":0.807,"coronary_heart_disease":1.319,"dementia":0.171,"depression":13.352,"diabetes":6.147,"hypertension":8.151,"obesity":14.411,"serious_mental_illness":0.807,"stroke_tia":0.683}},{"ods":"Y06499","name":"ESSEX UNIVERSITY PARTNERSHIP NHS TRUST","pcn":"","lat":52.283298,"lng":1.048458,"list":272,"gp_fte":null,"rating":null,"prev":{}}]