[{"ods":"M81001","name":"ST STEPHEN'S MEDICAL PARTNERSHIP","pcn":"U96198","lat":52.303715,"lng":-1.925876,"list":17645,"gp_fte":10.7333333333,"rating":"Good","prev":{"asthma":7.517,"atrial_fibrillation":2.198,"copd":2.35,"coronary_heart_disease":2.872,"dementia":0.453,"depression":22.185,"diabetes":9.358,"hypertension":16.397,"obesity":15.954,"serious_mental_illness":0.816,"stroke_tia":2.073}},{"ods":"M81002","name":"ELGAR HOUSE","pcn":"U96198","lat":52.299937,"lng":-1.932671,"list":14333,"gp_fte":6.8160000002,"rating":"Good","prev":{"asthma":6.141,"atrial_fibrillation":2.431,"copd":1.982,"coronary_heart_disease":3.032,"dementia":0.463,"depression":17.3,"diabetes":8.111,"hypertension":16.408,"obesity":15.246,"serious_mental_illness":0.767,"stroke_tia":1.519}},{"ods":"M81004","name":"RIVERSIDE SURGERY","pcn":"U21359","lat":52.091898,"lng":-1.932699,"list":15746,"gp_fte":8.3200000002,"rating":"Good","prev":{"asthma":6.585,"atrial_fibrillation":3.008,"copd":1.475,"coronary_heart_disease":3.397,"dementia":0.671,"depression":12.16,"diabetes":8.882,"hypertension":19.51,"obesity":20.52,"serious_mental_illness":0.702,"stroke_tia":2.127}},{"ods":"M81005","name":"NORTHUMBERLAND HOUSE SURGERY","pcn":"U86948","lat":52.378213,"lng":-2.259988,"list":13942,"gp_fte":7.6666666668,"rating":"Good","prev":{"asthma":8.463,"atrial_fibrillation":2.551,"copd":2.739,"coronary_heart_disease":3.485,"dementia":0.594,"depression":22.751,"diabetes":9.547,"hypertension":16.665,"obesity":21.573,"serious_mental_illness":0.812,"stroke_tia":2.42}},{"ods":"M81006","name":"SEVERN VALLEY MEDICAL PRACTICE","pcn":"U32349","lat":52.194747,"lng":-2.219253,"list":21995,"gp_fte":9.3066666667,"rating":"Requires improvement","prev":{"asthma":6.109,"atrial_fibrillation":2.161,"copd":1.512,"coronary_heart_disease":2.27,"dementia":0.562,"depression":15.072,"diabetes":6.866,"hypertension":14.722,"obesity":13.568,"serious_mental_illness":0.758,"stroke_tia":1.644}},{"ods":"M81007","name":"BREDON HILL SURGERY","pcn":"U21359","lat":52.03298,"lng":-2.079814,"list":5626,"gp_fte":3.6709333333,"rating":"Good","prev":{"asthma":7.364,"atrial_fibrillation":4.09,"copd":1.771,"coronary_heart_disease":4.32,"dementia":0.549,"depression":13.037,"diabetes":7.43,"hypertension":23.336,"obesity":11.151,"serious_mental_illness":0.62,"stroke_tia":2.603}},{"ods":"M81008","name":"SPRING GARDENS GROUP MEDICAL PRACTICE","pcn":"U32349","lat":52.194083,"lng":-2.208543,"list":20176,"gp_fte":10.3333333331,"rating":"Good","prev":{"asthma":5.785,"atrial_fibrillation":2.082,"copd":1.858,"coronary_heart_disease":2.47,"dementia":0.621,"depression":17.963,"diabetes":7.643,"hypertension":15.245,"obesity":15.072,"serious_mental_illness":1.207,"stroke_tia":1.918}},{"ods":"M81009","name":"GOLDEN VALLEY PRACTICE","pcn":"U98974","lat":51.995821,"lng":-2.912676,"list":5714,"gp_fte":3.6133333334,"rating":"Good","prev":{"asthma":7.218,"atrial_fibrillation":3.027,"copd":2.343,"coronary_heart_disease":3.146,"dementia":0.906,"depression":10.68,"diabetes":7.485,"hypertension":19.374,"obesity":13.809,"serious_mental_illness":0.769,"stroke_tia":2.308}},{"ods":"M81010","name":"KIDDERMINSTER MEDICAL CENTRE","pcn":"U78694","lat":52.384538,"lng":-2.246103,"list":14685,"gp_fte":8.3258666669,"rating":"Good","prev":{"asthma":7.896,"atrial_fibrillation":2.502,"copd":2.144,"coronary_heart_disease":3.113,"dementia":0.68,"depression":25.832,"diabetes":8.719,"hypertension":18.122,"obesity":17.207,"serious_mental_illness":0.777,"stroke_tia":2.261}},{"ods":"M81011","name":"OMBERSLEY MEDICAL CENTRE","pcn":"U62975","lat":52.274398,"lng":-2.239024,"list":7445,"gp_fte":4.1074666667,"rating":"Good","prev":{"asthma":7.826,"atrial_fibrillation":3.557,"copd":2.2,"coronary_heart_disease":3.999,"dementia":0.486,"depression":15.248,"diabetes":6.763,"hypertension":22.74,"obesity":11.509,"serious_mental_illness":0.528,"stroke_tia":2.657}},{"ods":"M81012","name":"LEDBURY HEALTH PARTNERSHIP","pcn":"U12199","lat":52.038546,"lng":-2.436121,"list":13735,"gp_fte":9.0533333335,"rating":"Good","prev":{"asthma":7.638,"atrial_fibrillation":3.8,"copd":2.197,"coronary_heart_disease":3.934,"dementia":1.217,"depression":15.175,"diabetes":7.595,"hypertension":19.366,"obesity":17.428,"serious_mental_illness":0.75,"stroke_tia":2.895}},{"ods":"M81015","name":"STANMORE HOUSE SURGERY","pcn":"U86948","lat":52.387441,"lng":-2.234765,"list":9611,"gp_fte":5.7733333332,"rating":"Outstanding","prev":{"asthma":9.334,"atrial_fibrillation":3.32,"copd":2.114,"coronary_heart_disease":3.258,"dementia":1.753,"depression":20.27,"diabetes":9.323,"hypertension":20.157,"obesity":17.875,"serious_mental_illness":0.918,"stroke_tia":3.248}},{"ods":"M81016","name":"RYELAND SURGERY","pcn":"U38064","lat":52.20674,"lng":-2.732585,"list":19410,"gp_fte":11.5504000003,"rating":"Good","prev":{"asthma":6.977,"atrial_fibrillation":3.44,"copd":2.857,"coronary_heart_disease":3.982,"dementia":1.021,"depression":12.543,"diabetes":8.361,"hypertension":19.093,"obesity":15.769,"serious_mental_illness":0.805,"stroke_tia":2.759}},{"ods":"M81017","name":"ELBURY MOOR MEDICAL CENTRE","pcn":"U32349","lat":52.203322,"lng":-2.196164,"list":12377,"gp_fte":5.8666666667,"rating":"Good","prev":{"asthma":5.902,"atrial_fibrillation":1.97,"copd":2.479,"coronary_heart_disease":2.398,"dementia":0.735,"depression":18.927,"diabetes":8.278,"hypertension":13.501,"obesity":14.111,"serious_mental_illness":0.921,"stroke_tia":1.558}},{"ods":"M81018","name":"WEOBLEY & STAUNTON ON WYE SURGERIES","pcn":"U38064","lat":52.13085,"lng":-2.920208,"list":6549,"gp_fte":2.8533333334,"rating":"Good","prev":{"asthma":6.763,"atrial_fibrillation":3.994,"copd":2.88,"coronary_heart_disease":4.49,"dementia":0.821,"depression":10.251,"diabetes":7.61,"hypertension":20.359,"obesity":13.271,"serious_mental_illness":0.557,"stroke_tia":3.143}},{"ods":"M81019","name":"WINYATES HEALTH CENTRE","pcn":"U10834","lat":52.299584,"lng":-1.908728,"list":16892,"gp_fte":8.3866666667,"rating":"Good","prev":{"asthma":7.136,"atrial_fibrillation":2.227,"copd":3.049,"coronary_heart_disease":3.695,"dementia":0.423,"depression":24.107,"diabetes":9.847,"hypertension":17.08,"obesity":19.218,"serious_mental_illness":0.628,"stroke_tia":2.124}},{"ods":"M81020","name":"THE DOW SURGERY","pcn":"U96198","lat":52.301292,"lng":-1.936366,"list":11931,"gp_fte":5.44,"rating":"Good","prev":{"asthma":7.39,"atrial_fibrillation":2.03,"copd":1.939,"coronary_heart_disease":3.004,"dementia":0.586,"depression":14.316,"diabetes":9.039,"hypertension":16.0,"obesity":14.169,"serious_mental_illness":1.048,"stroke_tia":1.749}},{"ods":"M81021","name":"NEW ROAD SURGERY BROMSGROVE","pcn":"U84529","lat":52.329638,"lng":-2.052752,"list":13136,"gp_fte":8.7066666667,"rating":"Good","prev":{"asthma":7.06,"atrial_fibrillation":2.554,"copd":1.146,"coronary_heart_disease":2.9,"dementia":0.846,"depression":14.954,"diabetes":6.306,"hypertension":17.806,"obesity":14.592,"serious_mental_illness":0.546,"stroke_tia":2.084}},{"ods":"M81022","name":"HARESFIELD HOUSE SURGERY","pcn":"U32349","lat":52.176165,"lng":-2.20011,"list":18281,"gp_fte":7.4325333334,"rating":"Good","prev":{"asthma":6.593,"atrial_fibrillation":2.372,"copd":1.172,"coronary_heart_disease":2.719,"dementia":0.677,"depression":14.812,"diabetes":7.82,"hypertension":17.173,"obesity":18.985,"serious_mental_illness":0.892,"stroke_tia":1.591}},{"ods":"M81024","name":"MUCH BIRCH SURGERY","pcn":"U98974","lat":51.962387,"lng":-2.718305,"list":5138,"gp_fte":3.8533333333,"rating":"Good","prev":{"asthma":8.127,"atrial_fibrillation":3.672,"copd":1.903,"coronary_heart_disease":3.268,"dementia":1.019,"depression":12.77,"diabetes":7.318,"hypertension":19.858,"obesity":14.906,"serious_mental_illness":0.577,"stroke_tia":2.73}},{"ods":"M81025","name":"NEW ROAD SURGERY","pcn":"U84529","lat":52.388459,"lng":-2.016152,"list":5082,"gp_fte":2.7066666667,"rating":"Requires improvement","prev":{"asthma":9.11,"atrial_fibrillation":2.855,"copd":1.923,"coronary_heart_disease":3.904,"dementia":0.563,"depression":16.329,"diabetes":7.548,"hypertension":16.955,"obesity":11.228,"serious_mental_illness":0.35,"stroke_tia":2.292}},{"ods":"M81026","name":"HEREFORD MEDICAL GROUP","pcn":"U65562","lat":52.064632,"lng":-2.722513,"list":46851,"gp_fte":19.9090666666,"rating":"Good","prev":{"asthma":6.693,"atrial_fibrillation":2.259,"copd":2.509,"coronary_heart_disease":3.109,"dementia":1.005,"depression":14.211,"diabetes":7.497,"hypertension":17.402,"obesity":13.84,"serious_mental_illness":1.104,"stroke_tia":2.164}},{"ods":"M81027","name":"HAGLEY SURGERY","pcn":"U78694","lat":52.42083,"lng":-2.141706,"list":9927,"gp_fte":4.4282666666,"rating":"Good","prev":{"asthma":7.095,"atrial_fibrillation":3.122,"copd":0.91,"coronary_heart_disease":3.37,"dementia":1.044,"depression":14.168,"diabetes":5.758,"hypertension":16.934,"obesity":11.426,"serious_mental_illness":0.445,"stroke_tia":2.285}},{"ods":"M81029","name":"NEW BARN CLOSE SURGERY","pcn":"U21359","lat":52.04952,"lng":-1.876137,"list":8062,"gp_fte":6.1973333333,"rating":"Good","prev":{"asthma":7.088,"atrial_fibrillation":4.158,"copd":2.198,"coronary_heart_disease":4.37,"dementia":0.724,"depression":10.704,"diabetes":8.517,"hypertension":23.673,"obesity":14.687,"serious_mental_illness":0.562,"stroke_tia":3.022}},{"ods":"M81032","name":"CANTILUPE SURGERY","pcn":"U50083","lat":52.057958,"lng":-2.695147,"list":12544,"gp_fte":5.3066666667,"rating":"Good","prev":{"asthma":7.208,"atrial_fibrillation":3.605,"copd":2.759,"coronary_heart_disease":3.842,"dementia":1.059,"depression":13.854,"diabetes":7.579,"hypertension":19.883,"obesity":15.73,"serious_mental_illness":1.186,"stroke_tia":2.735}},{"ods":"M81033","name":"GREAT WITLEY SURGERY","pcn":"U62975","lat":52.276224,"lng":-2.35977,"list":7466,"gp_fte":4.9866666667,"rating":"Outstanding","prev":{"asthma":6.755,"atrial_fibrillation":3.462,"copd":1.643,"coronary_heart_disease":3.381,"dementia":0.404,"depression":11.429,"diabetes":5.8,"hypertension":17.659,"obesity":11.958,"serious_mental_illness":0.431,"stroke_tia":2.532}},{"ods":"M81034","name":"SALTERS MEDICAL PRACTICE","pcn":"U62975","lat":52.264695,"lng":-2.151459,"list":8802,"gp_fte":5.56,"rating":"Good","prev":{"asthma":6.454,"atrial_fibrillation":3.289,"copd":2.402,"coronary_heart_disease":3.562,"dementia":0.728,"depression":16.061,"diabetes":9.191,"hypertension":19.429,"obesity":12.273,"serious_mental_illness":0.706,"stroke_tia":2.936}},{"ods":"M81035","name":"ST MARTIN'S GATE SURGERY","pcn":"U32349","lat":52.184325,"lng":-2.198583,"list":14304,"gp_fte":5.0666666666,"rating":"Good","prev":{"asthma":6.436,"atrial_fibrillation":2.045,"copd":1.558,"coronary_heart_disease":2.588,"dementia":0.712,"depression":12.429,"diabetes":8.446,"hypertension":13.777,"obesity":13.423,"serious_mental_illness":0.776,"stroke_tia":1.734}},{"ods":"M81037","name":"THORNELOE LODGE SURGERY","pcn":"U32349","lat":52.204848,"lng":-2.215043,"list":11723,"gp_fte":6.1968,"rating":"Requires improvement","prev":{"asthma":6.587,"atrial_fibrillation":2.75,"copd":2.004,"coronary_heart_disease":2.792,"dementia":0.604,"depression":12.542,"diabetes":7.888,"hypertension":16.158,"obesity":10.463,"serious_mental_illness":1.057,"stroke_tia":1.987}},{"ods":"M81038","name":"UPTON SURGERY","pcn":"U66005","lat":52.066658,"lng":-2.238157,"list":12361,"gp_fte":7.8933333334,"rating":"Outstanding","prev":{"asthma":7.422,"atrial_fibrillation":4.174,"copd":2.108,"coronary_heart_disease":4.044,"dementia":1.18,"depression":12.043,"diabetes":8.515,"hypertension":26.935,"obesity":17.038,"serious_mental_illness":0.781,"stroke_tia":3.678}},{"ods":"M81039","name":"WHITEACRES MEDICAL CENTRE","pcn":"U97695","lat":52.118342,"lng":-2.311651,"list":12022,"gp_fte":8.5599999999,"rating":"Good","prev":{"asthma":7.956,"atrial_fibrillation":3.781,"copd":2.242,"coronary_heart_disease":4.057,"dementia":0.979,"depression":19.614,"diabetes":7.686,"hypertension":21.537,"obesity":12.55,"serious_mental_illness":0.962,"stroke_tia":2.869}},{"ods":"M81040","name":"STOURPORT MEDICAL CENTRE","pcn":"U78694","lat":52.339556,"lng":-2.278084,"list":21738,"gp_fte":10.6362666666,"rating":"Good","prev":{"asthma":8.521,"atrial_fibrillation":3.752,"copd":2.362,"coronary_heart_disease":4.134,"dementia":1.077,"depression":20.547,"diabetes":9.916,"hypertension":24.29,"obesity":20.508,"serious_mental_illness":0.755,"stroke_tia":3.6}},{"ods":"M81041","name":"HILLVIEW MEDICAL CENTRE","pcn":"U96198","lat":52.299714,"lng":-1.950172,"list":11232,"gp_fte":6.1199999999,"rating":"Good","prev":{"asthma":6.843,"atrial_fibrillation":2.054,"copd":2.116,"coronary_heart_disease":2.986,"dementia":0.969,"depression":8.778,"diabetes":8.204,"hypertension":16.42,"obesity":13.412,"serious_mental_illness":0.744,"stroke_tia":1.955}},{"ods":"M81042","name":"TENBURY SURGERY","pcn":"U38064","lat":52.31175,"lng":-2.574885,"list":9747,"gp_fte":4.7520000001,"rating":"Good","prev":{"asthma":7.022,"atrial_fibrillation":3.869,"copd":2.428,"coronary_heart_disease":4.136,"dementia":1.101,"depression":13.704,"diabetes":8.325,"hypertension":22.317,"obesity":15.171,"serious_mental_illness":0.556,"stroke_tia":2.685}},{"ods":"M81043","name":"THE MORTIMER MEDICAL PRAC","pcn":"U38064","lat":52.287792,"lng":-2.834478,"list":8918,"gp_fte":3.4825085365,"rating":"Good","prev":{"asthma":8.701,"atrial_fibrillation":4.361,"copd":2.54,"coronary_heart_disease":4.17,"dementia":0.776,"depression":12.43,"diabetes":7.761,"hypertension":20.962,"obesity":11.21,"serious_mental_illness":0.517,"stroke_tia":3.282}},{"ods":"M81044","name":"ALTON STREET SURGERY","pcn":"U98974","lat":51.912176,"lng":-2.583348,"list":11664,"gp_fte":7.2888000001,"rating":"Outstanding","prev":{"asthma":7.11,"atrial_fibrillation":3.294,"copd":2.772,"coronary_heart_disease":3.371,"dementia":1.129,"depression":16.463,"diabetes":7.818,"hypertension":20.313,"obesity":12.062,"serious_mental_illness":0.933,"stroke_tia":2.516}},{"ods":"M81045","name":"KNIGHTWICK SURGERY","pcn":"U62975","lat":52.200608,"lng":-2.377266,"list":5078,"gp_fte":1.8666666667,"rating":"Good","prev":{"asthma":9.3,"atrial_fibrillation":3.754,"copd":1.946,"coronary_heart_disease":3.913,"dementia":0.516,"depression":10.331,"diabetes":6.609,"hypertension":22.046,"obesity":13.475,"serious_mental_illness":0.437,"stroke_tia":3.317}},{"ods":"M81046","name":"ABBOTTSWOOD MEDICAL CENTRE","pcn":"U66005","lat":52.118032,"lng":-2.077942,"list":12055,"gp_fte":6.2866666667,"rating":"Good","prev":{"asthma":7.959,"atrial_fibrillation":3.992,"copd":2.134,"coronary_heart_disease":3.909,"dementia":1.209,"depression":14.59,"diabetes":7.53,"hypertension":21.329,"obesity":16.098,"serious_mental_illness":0.55,"stroke_tia":2.859}},{"ods":"M81047","name":"SPA MEDICAL PRACTICE","pcn":"U62975","lat":52.265091,"lng":-2.153469,"list":10777,"gp_fte":4.2568,"rating":"Good","prev":{"asthma":7.512,"atrial_fibrillation":2.799,"copd":2.393,"coronary_heart_disease":3.289,"dementia":0.527,"depression":17.502,"diabetes":8.878,"hypertension":18.533,"obesity":18.06,"serious_mental_illness":0.573,"stroke_tia":2.208}},{"ods":"M81048","name":"NUNWELL SURGERY","pcn":"U12199","lat":52.182087,"lng":-2.519959,"list":9645,"gp_fte":6.5600000001,"rating":"Good","prev":{"asthma":7.241,"atrial_fibrillation":3.855,"copd":3.186,"coronary_heart_disease":4.502,"dementia":1.222,"depression":13.512,"diabetes":9.149,"hypertension":22.595,"obesity":20.768,"serious_mental_illness":0.888,"stroke_tia":2.904}},{"ods":"M81049","name":"BARBOURNE HEALTH CENTRE","pcn":"U32349","lat":52.209382,"lng":-2.213234,"list":11434,"gp_fte":1.4373333333,"rating":"Good","prev":{"asthma":7.353,"atrial_fibrillation":3.048,"copd":2.451,"coronary_heart_disease":2.546,"dementia":0.927,"depression":16.972,"diabetes":7.41,"hypertension":16.775,"obesity":13.196,"serious_mental_illness":0.961,"stroke_tia":2.139}},{"ods":"M81054","name":"KINGTON MEDICAL PRACTICE","pcn":"U38064","lat":52.195657,"lng":-3.00505,"list":7159,"gp_fte":3.9733333334,"rating":"Good","prev":{"asthma":6.421,"atrial_fibrillation":4.264,"copd":2.548,"coronary_heart_disease":4.183,"dementia":1.894,"depression":11.735,"diabetes":8.481,"hypertension":20.954,"obesity":14.488,"serious_mental_illness":0.654,"stroke_tia":3.038}},{"ods":"M81055","name":"CORNHILL SURGERY","pcn":"U84529","lat":52.391862,"lng":-2.018008,"list":5818,"gp_fte":2.8533333332,"rating":"Good","prev":{"asthma":8.419,"atrial_fibrillation":1.945,"copd":2.379,"coronary_heart_disease":3.282,"dementia":0.504,"depression":28.543,"diabetes":8.806,"hypertension":19.83,"obesity":15.928,"serious_mental_illness":0.781,"stroke_tia":1.823}},{"ods":"M81056","name":"THE CHURCH STREET PRACTICE","pcn":"U78694","lat":52.385531,"lng":-2.250991,"list":12319,"gp_fte":7.6000000002,"rating":"Good","prev":{"asthma":8.915,"atrial_fibrillation":3.069,"copd":2.65,"coronary_heart_disease":3.433,"dementia":0.997,"depression":24.246,"diabetes":9.928,"hypertension":21.911,"obesity":18.561,"serious_mental_illness":0.989,"stroke_tia":2.484}},{"ods":"M81057","name":"BEWDLEY MEDICAL CENTRE","pcn":"U78694","lat":52.380085,"lng":-2.330275,"list":15251,"gp_fte":7.3733333333,"rating":"Good","prev":{"asthma":8.651,"atrial_fibrillation":4.301,"copd":2.157,"coronary_heart_disease":4.853,"dementia":0.855,"depression":19.556,"diabetes":9.275,"hypertension":25.804,"obesity":17.855,"serious_mental_illness":0.809,"stroke_tia":3.439}},{"ods":"M81058","name":"MERSTOW GREEN MEDICAL PRACTICE","pcn":"U21359","lat":52.094806,"lng":-1.935631,"list":10166,"gp_fte":6.3466666665,"rating":"Good","prev":{"asthma":8.143,"atrial_fibrillation":3.447,"copd":2.705,"coronary_heart_disease":3.867,"dementia":0.967,"depression":16.488,"diabetes":10.451,"hypertension":21.004,"obesity":17.159,"serious_mental_illness":0.654,"stroke_tia":2.324}},{"ods":"M81061","name":"PENDEEN SURGERY","pcn":"U98974","lat":51.908608,"lng":-2.58754,"list":8777,"gp_fte":4.1781333332,"rating":"Outstanding","prev":{"asthma":6.803,"atrial_fibrillation":3.411,"copd":2.383,"coronary_heart_disease":3.907,"dementia":0.768,"depression":13.701,"diabetes":7.255,"hypertension":18.679,"obesity":14.044,"serious_mental_illness":0.723,"stroke_tia":2.857}},{"ods":"M81063","name":"ST JOHNS HOUSE SURGERY","pcn":"U32349","lat":52.19012,"lng":-2.254497,"list":14058,"gp_fte":4.4266666667,"rating":"Requires improvement","prev":{"asthma":7.695,"atrial_fibrillation":2.711,"copd":1.79,"coronary_heart_disease":3.131,"dementia":0.993,"depression":17.537,"diabetes":7.04,"hypertension":16.446,"obesity":17.132,"serious_mental_illness":0.971,"stroke_tia":2.022}},{"ods":"M81064","name":"HOLLYWOOD MEDICAL CENTRE","pcn":"U10834","lat":52.391136,"lng":-1.878367,"list":8333,"gp_fte":4.6666666667,"rating":"Good","prev":{"asthma":6.535,"atrial_fibrillation":3.39,"copd":2.24,"coronary_heart_disease":3.923,"dementia":0.654,"depression":13.551,"diabetes":7.519,"hypertension":19.14,"obesity":12.111,"serious_mental_illness":0.557,"stroke_tia":2.458}},{"ods":"M81066","name":"WARGRAVE HOUSE SURGERY","pcn":"U50083","lat":52.063261,"lng":-2.71223,"list":8258,"gp_fte":3.1093333335,"rating":"Good","prev":{"asthma":6.173,"atrial_fibrillation":2.653,"copd":2.461,"coronary_heart_disease":3.782,"dementia":1.261,"depression":16.259,"diabetes":7.939,"hypertension":18.511,"obesity":14.637,"serious_mental_illness":1.261,"stroke_tia":2.569}},{"ods":"M81067","name":"THE SURGERY KINGSTONE","pcn":"U98974","lat":52.017029,"lng":-2.824245,"list":5709,"gp_fte":4.3018666666,"rating":"Good","prev":{"asthma":6.862,"atrial_fibrillation":3.145,"copd":2.156,"coronary_heart_disease":3.199,"dementia":0.701,"depression":12.051,"diabetes":7.985,"hypertension":17.538,"obesity":19.747,"serious_mental_illness":0.503,"stroke_tia":2.803}},{"ods":"M81068","name":"AYLMER LODGE COOKLEY PARTNERSHIP","pcn":"U86948","lat":52.392869,"lng":-2.250856,"list":15763,"gp_fte":7.6933333335,"rating":"Good","prev":{"asthma":7.641,"atrial_fibrillation":3.041,"copd":2.532,"coronary_heart_disease":3.473,"dementia":0.889,"depression":19.01,"diabetes":9.276,"hypertension":20.472,"obesity":14.854,"serious_mental_illness":0.838,"stroke_tia":2.59}},{"ods":"M81069","name":"DAVENAL HOUSE SURGERY PARTNERSHIP","pcn":"U84529","lat":52.327919,"lng":-2.060169,"list":9550,"gp_fte":8.1893333336,"rating":"Good","prev":{"asthma":6.813,"atrial_fibrillation":3.251,"copd":2.157,"coronary_heart_disease":3.488,"dementia":2.013,"depression":18.938,"diabetes":8.0,"hypertension":18.877,"obesity":16.137,"serious_mental_illness":0.888,"stroke_tia":2.756}},{"ods":"M81070","name":"CHURCHFIELDS SURGERY","pcn":"U84529","lat":52.338268,"lng":-2.060243,"list":11607,"gp_fte":9.6266666665,"rating":"Good","prev":{"asthma":7.676,"atrial_fibrillation":2.757,"copd":2.029,"coronary_heart_disease":3.562,"dementia":0.719,"depression":19.21,"diabetes":8.685,"hypertension":16.741,"obesity":14.731,"serious_mental_illness":0.942,"stroke_tia":2.423}},{"ods":"M81072","name":"ALBANY HOUSE SURGERY","pcn":"U32349","lat":52.200434,"lng":-2.215227,"list":6928,"gp_fte":4.8933333334,"rating":"Good","prev":{"asthma":5.784,"atrial_fibrillation":2.237,"copd":1.588,"coronary_heart_disease":3.045,"dementia":0.375,"depression":16.982,"diabetes":6.852,"hypertension":16.092,"obesity":12.494,"serious_mental_illness":0.851,"stroke_tia":1.573}},{"ods":"M81074","name":"PERSHORE MEDICAL PRACTICE","pcn":"U66005","lat":52.127021,"lng":-2.081088,"list":11042,"gp_fte":5.3,"rating":"Good","prev":{"asthma":8.096,"atrial_fibrillation":4.06,"copd":2.695,"coronary_heart_disease":3.923,"dementia":0.999,"depression":15.453,"diabetes":8.163,"hypertension":20.466,"obesity":15.76,"serious_mental_illness":0.807,"stroke_tia":2.685}},{"ods":"M81075","name":"MALVERN HEALTH CENTRE","pcn":"U97695","lat":52.120037,"lng":-2.315274,"list":12827,"gp_fte":8.1066666668,"rating":"Good","prev":{"asthma":7.168,"atrial_fibrillation":3.274,"copd":2.324,"coronary_heart_disease":3.567,"dementia":1.428,"depression":16.524,"diabetes":8.844,"hypertension":19.804,"obesity":17.064,"serious_mental_illness":0.919,"stroke_tia":2.918}},{"ods":"M81076","name":"COLWALL SURGERY","pcn":"U12199","lat":52.090634,"lng":-2.379326,"list":3095,"gp_fte":1.4666666667,"rating":"Good","prev":{"asthma":7.703,"atrial_fibrillation":4.019,"copd":1.588,"coronary_heart_disease":3.501,"dementia":1.264,"depression":10.816,"diabetes":5.956,"hypertension":22.788,"obesity":13.01,"serious_mental_illness":0.972,"stroke_tia":3.015}},{"ods":"M81077","name":"THE RIDGEWAY SURGERY","pcn":"U10834","lat":52.255994,"lng":-1.952393,"list":4897,"gp_fte":2.16,"rating":"Good","prev":{"asthma":6.275,"atrial_fibrillation":3.351,"copd":2.227,"coronary_heart_disease":4.163,"dementia":0.583,"depression":13.613,"diabetes":7.291,"hypertension":22.877,"obesity":12.01,"serious_mental_illness":0.604,"stroke_tia":2.706}},{"ods":"M81078","name":"BARNT GREEN SURGERY","pcn":"U84529","lat":52.362063,"lng":-2.000171,"list":6645,"gp_fte":3.3066666667,"rating":"Good","prev":{"asthma":5.978,"atrial_fibrillation":3.204,"copd":1.602,"coronary_heart_disease":3.323,"dementia":1.108,"depression":14.847,"diabetes":5.284,"hypertension":17.231,"obesity":9.043,"serious_mental_illness":0.644,"stroke_tia":2.605}},{"ods":"M81081","name":"ST SAVIOURS SURGERY","pcn":"U97695","lat":52.136053,"lng":-2.311153,"list":5712,"gp_fte":2.88,"rating":"Good","prev":{"asthma":7.268,"atrial_fibrillation":3.626,"copd":1.795,"coronary_heart_disease":3.608,"dementia":1.306,"depression":17.665,"diabetes":8.378,"hypertension":23.554,"obesity":17.469,"serious_mental_illness":0.979,"stroke_tia":3.046}},{"ods":"M81082","name":"ST. JOHNS SURGERY","pcn":"U84529","lat":52.330904,"lng":-2.064831,"list":15656,"gp_fte":8.9714666667,"rating":"Good","prev":{"asthma":7.314,"atrial_fibrillation":2.414,"copd":1.542,"coronary_heart_disease":2.746,"dementia":0.573,"depression":19.391,"diabetes":7.777,"hypertension":14.543,"obesity":17.843,"serious_mental_illness":0.637,"stroke_tia":2.019}},{"ods":"M81083","name":"HOLLYOAKS MEDICAL CENTRE","pcn":"U10834","lat":52.379772,"lng":-1.869547,"list":5091,"gp_fte":3.0346666666,"rating":"Good","prev":{"asthma":6.642,"atrial_fibrillation":3.439,"copd":2.015,"coronary_heart_disease":3.5,"dementia":2.625,"depression":12.09,"diabetes":8.347,"hypertension":19.678,"obesity":11.945,"serious_mental_illness":0.651,"stroke_tia":2.869}},{"ods":"M81084","name":"CATSHILL VILLAGE SURGERY","pcn":"U84529","lat":52.360775,"lng":-2.053852,"list":5829,"gp_fte":3.7866666668,"rating":"Good","prev":{"asthma":5.433,"atrial_fibrillation":2.875,"copd":1.718,"coronary_heart_disease":2.717,"dementia":0.368,"depression":15.352,"diabetes":8.017,"hypertension":17.812,"obesity":13.276,"serious_mental_illness":0.649,"stroke_tia":2.384}},{"ods":"M81090","name":"CHADDESLEY SURGERY","pcn":"U62975","lat":52.351386,"lng":-2.174916,"list":3427,"gp_fte":2.0533333334,"rating":"Good","prev":{"asthma":6.732,"atrial_fibrillation":4.591,"copd":1.607,"coronary_heart_disease":3.357,"dementia":0.803,"depression":7.875,"diabetes":6.859,"hypertension":21.119,"obesity":11.863,"serious_mental_illness":0.43,"stroke_tia":2.037}},{"ods":"M81091","name":"CORBETT MEDICAL PRACTICE","pcn":"U62975","lat":52.258631,"lng":-2.151058,"list":14173,"gp_fte":7.7938666666,"rating":"Outstanding","prev":{"asthma":7.058,"atrial_fibrillation":3.05,"copd":1.852,"coronary_heart_disease":3.416,"dementia":1.289,"depression":13.328,"diabetes":7.401,"hypertension":19.122,"obesity":14.228,"serious_mental_illness":0.613,"stroke_tia":2.338}},{"ods":"M81092","name":"THE BRIDGE SURGERY","pcn":"U96198","lat":52.292848,"lng":-1.942171,"list":5604,"gp_fte":2.1333333334,"rating":"Good","prev":{"asthma":6.232,"atrial_fibrillation":2.13,"copd":1.65,"coronary_heart_disease":3.567,"dementia":1.331,"depression":12.514,"diabetes":7.51,"hypertension":15.226,"obesity":13.3,"serious_mental_illness":0.887,"stroke_tia":2.005}},{"ods":"M81093","name":"BELMONT MEDICAL CENTRE","pcn":"U50083","lat":52.043614,"lng":-2.730457,"list":10795,"gp_fte":5.6266666667,"rating":"Good","prev":{"asthma":6.554,"atrial_fibrillation":1.932,"copd":2.643,"coronary_heart_disease":2.653,"dementia":0.923,"depression":18.254,"diabetes":8.432,"hypertension":16.242,"obesity":18.884,"serious_mental_illness":0.875,"stroke_tia":2.268}},{"ods":"M81094","name":"ABBEY MEDICAL PRACTICE","pcn":"U21359","lat":52.093499,"lng":-1.935496,"list":9504,"gp_fte":5.2202666667,"rating":"Good","prev":{"asthma":7.469,"atrial_fibrillation":2.405,"copd":2.002,"coronary_heart_disease":2.725,"dementia":1.094,"depression":13.067,"diabetes":8.518,"hypertension":17.215,"obesity":16.867,"serious_mental_illness":0.63,"stroke_tia":1.868}},{"ods":"M81600","name":"CRADLEY SURGERY","pcn":"U12199","lat":52.125659,"lng":-2.407012,"list":3981,"gp_fte":4.0,"rating":"Good","prev":{"asthma":10.289,"atrial_fibrillation":3.886,"copd":2.933,"coronary_heart_disease":3.434,"dementia":0.877,"depression":14.493,"diabetes":6.309,"hypertension":23.991,"obesity":20.954,"serious_mental_illness":0.752,"stroke_tia":2.682}},{"ods":"M81604","name":"FOWNHOPE MEDICAL CENTRE","pcn":"U98974","lat":52.036534,"lng":-2.600854,"list":6705,"gp_fte":4.2266666667,"rating":"Outstanding","prev":{"asthma":7.495,"atrial_fibrillation":3.485,"copd":1.861,"coronary_heart_disease":3.677,"dementia":0.665,"depression":14.485,"diabetes":6.761,"hypertension":20.127,"obesity":14.77,"serious_mental_illness":0.679,"stroke_tia":3.145}},{"ods":"M81605","name":"THE GLEBELAND SURGERY","pcn":"U84529","lat":52.398675,"lng":-2.100772,"list":5584,"gp_fte":3.0933333334,"rating":"Good","prev":{"asthma":7.225,"atrial_fibrillation":3.088,"copd":1.355,"coronary_heart_disease":3.034,"dementia":1.336,"depression":15.602,"diabetes":5.413,"hypertension":15.532,"obesity":9.547,"serious_mental_illness":0.65,"stroke_tia":2.185}},{"ods":"M81608","name":"WOLVERLEY SURGERY","pcn":"U86948","lat":52.41273,"lng":-2.259799,"list":4127,"gp_fte":3.0266666667,"rating":"Good","prev":{"asthma":9.581,"atrial_fibrillation":3.28,"copd":2.822,"coronary_heart_disease":3.966,"dementia":0.636,"depression":17.52,"diabetes":9.143,"hypertension":20.315,"obesity":17.977,"serious_mental_illness":0.509,"stroke_tia":2.771}},{"ods":"M81616","name":"CRABBS CROSS MEDICAL CENTRE","pcn":"U10834","lat":52.289739,"lng":-1.936796,"list":3397,"gp_fte":1.8666666667,"rating":"Not Rated","prev":{"asthma":4.37,"atrial_fibrillation":2.282,"copd":1.501,"coronary_heart_disease":2.552,"dementia":0.811,"depression":12.253,"diabetes":8.625,"hypertension":17.442,"obesity":13.709,"serious_mental_illness":0.961,"stroke_tia":1.411}},{"ods":"M81617","name":"CRABBS CROSS SURGERY","pcn":"U10834","lat":52.288146,"lng":-1.938432,"list":5370,"gp_fte":2.1439999999,"rating":"Good","prev":{"asthma":7.611,"atrial_fibrillation":2.16,"copd":2.342,"coronary_heart_disease":3.159,"dementia":0.418,"depression":22.743,"diabetes":7.43,"hypertension":15.45,"obesity":12.638,"serious_mental_illness":0.654,"stroke_tia":1.834}},{"ods":"M81627","name":"DEMONTFORT MEDICAL CENTRE","pcn":"U21359","lat":52.092577,"lng":-1.929436,"list":8434,"gp_fte":3.08,"rating":"Good","prev":{"asthma":6.571,"atrial_fibrillation":2.024,"copd":1.765,"coronary_heart_disease":2.212,"dementia":0.671,"depression":11.403,"diabetes":6.494,"hypertension":13.968,"obesity":11.301,"serious_mental_illness":0.741,"stroke_tia":1.683}},{"ods":"M81629","name":"NEW COURT SURGERY","pcn":"U97695","lat":52.109436,"lng":-2.312522,"list":10040,"gp_fte":5.9666666667,"rating":"Good","prev":{"asthma":5.91,"atrial_fibrillation":2.623,"copd":1.735,"coronary_heart_disease":2.808,"dementia":0.965,"depression":14.621,"diabetes":7.111,"hypertension":16.126,"obesity":12.711,"serious_mental_illness":0.77,"stroke_tia":2.116}},{"ods":"Y03602","name":"GREY GABLE SURGERY","pcn":"U21359","lat":52.205187,"lng":-2.002133,"list":6219,"gp_fte":3.2880000001,"rating":"Good","prev":{"asthma":7.89,"atrial_fibrillation":3.038,"copd":1.502,"coronary_heart_disease":3.005,"dementia":0.991,"depression":13.854,"diabetes":6.908,"hypertension":20.571,"obesity":14.072,"serious_mental_illness":0.561,"stroke_tia":2.724}}]