[{"ods":"E84002","name":"FORTY WILLOWS SURGERY","pcn":"U11559","lat":51.567741,"lng":-0.277398,"list":7264,"gp_fte":2.56,"rating":"Good","prev":{"asthma":4.89,"atrial_fibrillation":1.55,"copd":0.708,"coronary_heart_disease":2.231,"dementia":1.203,"depression":12.218,"diabetes":9.91,"hypertension":14.751,"obesity":14.181,"serious_mental_illness":1.884,"stroke_tia":1.817}},{"ods":"E84003","name":"PREMIER MEDICAL CENTRE","pcn":"U78157","lat":51.562458,"lng":-0.300644,"list":14510,"gp_fte":3.7146666666,"rating":"Good","prev":{"asthma":4.172,"atrial_fibrillation":0.412,"copd":0.338,"coronary_heart_disease":1.944,"dementia":0.277,"depression":6.258,"diabetes":8.824,"hypertension":11.213,"obesity":14.637,"serious_mental_illness":0.648,"stroke_tia":0.918}},{"ods":"E84004","name":"THE CIRCLE PRACTICE","pcn":"U60450","lat":51.603003,"lng":-0.325112,"list":7391,"gp_fte":3.4133333334,"rating":"Good","prev":{"asthma":6.835,"atrial_fibrillation":1.585,"copd":0.98,"coronary_heart_disease":2.835,"dementia":0.67,"depression":6.484,"diabetes":12.111,"hypertension":15.685,"obesity":13.86,"serious_mental_illness":1.057,"stroke_tia":1.727}},{"ods":"E84005","name":"KINGS ROAD SURGERY","pcn":"U10339","lat":51.574656,"lng":-0.380863,"list":7303,"gp_fte":2.9199999999,"rating":"Good","prev":{"asthma":2.75,"atrial_fibrillation":1.557,"copd":1.332,"coronary_heart_disease":2.85,"dementia":0.317,"depression":6.802,"diabetes":10.153,"hypertension":14.077,"obesity":15.317,"serious_mental_illness":0.91,"stroke_tia":1.095}},{"ods":"E84006","name":"THE LAW MEDICAL GROUP PRACTICE","pcn":"U61025","lat":51.544485,"lng":-0.25578,"list":16593,"gp_fte":4.3312000001,"rating":"Good","prev":{"asthma":5.545,"atrial_fibrillation":1.533,"copd":1.427,"coronary_heart_disease":2.66,"dementia":0.855,"depression":11.021,"diabetes":11.311,"hypertension":15.545,"obesity":15.952,"serious_mental_illness":1.439,"stroke_tia":2.223}},{"ods":"E84007","name":"UXENDON CRESCENT SURGERY","pcn":"U57586","lat":51.573478,"lng":-0.295957,"list":5875,"gp_fte":1.0666666667,"rating":"Good","prev":{"asthma":4.685,"atrial_fibrillation":1.687,"copd":0.972,"coronary_heart_disease":4.091,"dementia":0.665,"depression":7.722,"diabetes":11.505,"hypertension":16.67,"obesity":13.577,"serious_mental_illness":1.244,"stroke_tia":1.619}},{"ods":"E84008","name":"SIMPSON HOUSE MEDICAL CENTRE","pcn":"U84846","lat":51.563125,"lng":-0.371943,"list":10346,"gp_fte":3.4133333333,"rating":"Good","prev":{"asthma":5.979,"atrial_fibrillation":1.965,"copd":1.03,"coronary_heart_disease":3.563,"dementia":0.703,"depression":13.826,"diabetes":13.041,"hypertension":19.203,"obesity":16.402,"serious_mental_illness":1.252,"stroke_tia":1.907}},{"ods":"E84009","name":"ENDERLEY ROAD MEDICAL CENTRE","pcn":"U84846","lat":51.602212,"lng":-0.340866,"list":11972,"gp_fte":6.9066666667,"rating":"Good","prev":{"asthma":6.094,"atrial_fibrillation":1.897,"copd":1.782,"coronary_heart_disease":3.326,"dementia":1.265,"depression":13.237,"diabetes":11.303,"hypertension":15.294,"obesity":16.595,"serious_mental_illness":1.273,"stroke_tia":2.193}},{"ods":"E84011","name":"ST ANDREWS MEDICAL CENTRE","pcn":"U77170","lat":51.547908,"lng":-0.245168,"list":1671,"gp_fte":null,"rating":"Good","prev":{"asthma":6.367,"atrial_fibrillation":1.361,"copd":2.189,"coronary_heart_disease":2.722,"dementia":1.006,"depression":11.536,"diabetes":12.021,"hypertension":20.355,"obesity":20.614,"serious_mental_illness":2.663,"stroke_tia":2.13}},{"ods":"E84012","name":"MAPESBURY MEDICAL GROUP","pcn":"U25131","lat":51.554809,"lng":-0.216405,"list":8187,"gp_fte":3.8666666666,"rating":"Good","prev":{"asthma":4.937,"atrial_fibrillation":1.258,"copd":1.149,"coronary_heart_disease":2.335,"dementia":0.399,"depression":12.244,"diabetes":7.132,"hypertension":13.608,"obesity":11.846,"serious_mental_illness":1.246,"stroke_tia":1.331}},{"ods":"E84013","name":"CHURCH END MEDICAL CENTRE","pcn":"U11559","lat":51.548905,"lng":-0.253313,"list":8395,"gp_fte":3.8533333333,"rating":"Good","prev":{"asthma":6.669,"atrial_fibrillation":1.003,"copd":1.782,"coronary_heart_disease":1.912,"dementia":0.425,"depression":14.273,"diabetes":11.458,"hypertension":15.386,"obesity":22.577,"serious_mental_illness":2.254,"stroke_tia":1.416}},{"ods":"E84014","name":"BACON LANE SURGERY","pcn":"U51050","lat":51.608012,"lng":-0.284511,"list":10197,"gp_fte":2.6,"rating":"Good","prev":{"asthma":4.206,"atrial_fibrillation":1.752,"copd":0.902,"coronary_heart_disease":2.705,"dementia":0.547,"depression":6.897,"diabetes":9.98,"hypertension":12.794,"obesity":14.728,"serious_mental_illness":0.912,"stroke_tia":1.438}},{"ods":"E84015","name":"WILLOW TREE FAMILY DOCTORS","pcn":"U33065","lat":51.586181,"lng":-0.267753,"list":14616,"gp_fte":5.16,"rating":"Requires improvement","prev":{"asthma":6.291,"atrial_fibrillation":1.589,"copd":1.569,"coronary_heart_disease":2.474,"dementia":0.456,"depression":11.74,"diabetes":9.944,"hypertension":15.392,"obesity":16.185,"serious_mental_illness":1.048,"stroke_tia":1.419}},{"ods":"E84017","name":"SUDBURY & ALPERTON MEDICAL CENTRE","pcn":"U78157","lat":51.549637,"lng":-0.306697,"list":7579,"gp_fte":4.1333333334,"rating":"Good","prev":{"asthma":4.848,"atrial_fibrillation":1.151,"copd":0.601,"coronary_heart_disease":3.133,"dementia":0.678,"depression":7.142,"diabetes":14.055,"hypertension":16.562,"obesity":16.287,"serious_mental_illness":1.01,"stroke_tia":1.202}},{"ods":"E84018","name":"STREATFIELD HEALTH CENTRE","pcn":"U89806","lat":51.593535,"lng":-0.311736,"list":7816,"gp_fte":5.2133333334,"rating":"Requires improvement","prev":{"asthma":5.296,"atrial_fibrillation":1.505,"copd":0.599,"coronary_heart_disease":3.098,"dementia":0.778,"depression":3.825,"diabetes":14.226,"hypertension":14.841,"obesity":14.408,"serious_mental_illness":0.676,"stroke_tia":1.67}},{"ods":"E84020","name":"JAI MEDICAL CENTRE (BRENT)","pcn":"U57586","lat":51.580248,"lng":-0.252873,"list":6311,"gp_fte":1.9733333334,"rating":"Good","prev":{"asthma":4.874,"atrial_fibrillation":1.145,"copd":1.222,"coronary_heart_disease":3.218,"dementia":0.588,"depression":7.837,"diabetes":12.157,"hypertension":16.615,"obesity":21.063,"serious_mental_illness":1.3,"stroke_tia":1.547}},{"ods":"E84021","name":"THE WILLESDEN MEDICAL CENTRE","pcn":"U77170","lat":51.55132,"lng":-0.237419,"list":17061,"gp_fte":4.6933333333,"rating":"Good","prev":{"asthma":3.855,"atrial_fibrillation":0.76,"copd":0.56,"coronary_heart_disease":1.675,"dementia":0.268,"depression":8.408,"diabetes":8.174,"hypertension":13.532,"obesity":16.839,"serious_mental_illness":1.333,"stroke_tia":0.828}},{"ods":"E84022","name":"ROXBOURNE MEDICAL CENTRE","pcn":"U84846","lat":51.572766,"lng":-0.361073,"list":6985,"gp_fte":2.9333333333,"rating":"Good","prev":{"asthma":6.605,"atrial_fibrillation":1.322,"copd":1.102,"coronary_heart_disease":2.961,"dementia":1.57,"depression":14.5,"diabetes":11.154,"hypertension":18.234,"obesity":16.695,"serious_mental_illness":2.589,"stroke_tia":1.873}},{"ods":"E84024","name":"THE PINN MEDICAL CENTRE","pcn":"U84846","lat":51.593547,"lng":-0.382826,"list":21809,"gp_fte":13.3066666664,"rating":"Outstanding","prev":{"asthma":5.56,"atrial_fibrillation":2.334,"copd":0.72,"coronary_heart_disease":3.035,"dementia":0.884,"depression":9.648,"diabetes":8.963,"hypertension":15.588,"obesity":12.418,"serious_mental_illness":1.004,"stroke_tia":1.825}},{"ods":"E84025","name":"THE LONSDALE MEDICAL CENTRE","pcn":"U61025","lat":51.540463,"lng":-0.217541,"list":19619,"gp_fte":7.4277922761,"rating":"Good","prev":{"asthma":5.34,"atrial_fibrillation":1.344,"copd":1.058,"coronary_heart_disease":1.593,"dementia":0.353,"depression":16.88,"diabetes":5.597,"hypertension":12.02,"obesity":7.638,"serious_mental_illness":1.624,"stroke_tia":1.349}},{"ods":"E84028","name":"THE STONEBRIDGE PRACTICE","pcn":"U11559","lat":51.545224,"lng":-0.260325,"list":6142,"gp_fte":3.4533333333,"rating":"Good","prev":{"asthma":5.27,"atrial_fibrillation":0.969,"copd":0.937,"coronary_heart_disease":2.065,"dementia":0.445,"depression":10.898,"diabetes":11.601,"hypertension":17.731,"obesity":18.45,"serious_mental_illness":1.557,"stroke_tia":1.716}},{"ods":"E84030","name":"PRESTON HILL SURGERY","pcn":"U33065","lat":51.580072,"lng":-0.295281,"list":4448,"gp_fte":1.3333333333,"rating":"Good","prev":{"asthma":4.56,"atrial_fibrillation":0.863,"copd":0.752,"coronary_heart_disease":2.832,"dementia":0.376,"depression":5.037,"diabetes":12.468,"hypertension":13.1,"obesity":18.526,"serious_mental_illness":1.328,"stroke_tia":1.173}},{"ods":"E84031","name":"BRENTFIELD MEDICAL CENTRE","pcn":"U11559","lat":51.550686,"lng":-0.263013,"list":9465,"gp_fte":4.3733333333,"rating":"Good","prev":{"asthma":5.87,"atrial_fibrillation":1.152,"copd":0.775,"coronary_heart_disease":1.812,"dementia":0.388,"depression":11.972,"diabetes":12.011,"hypertension":13.985,"obesity":22.413,"serious_mental_illness":1.728,"stroke_tia":1.666}},{"ods":"E84032","name":"ELLIS PRACTICE","pcn":"U89375","lat":51.566914,"lng":-0.281459,"list":6377,"gp_fte":3.04,"rating":"Good","prev":{"asthma":6.292,"atrial_fibrillation":1.128,"copd":1.35,"coronary_heart_disease":2.562,"dementia":0.821,"depression":14.04,"diabetes":10.157,"hypertension":14.353,"obesity":22.405,"serious_mental_illness":2.353,"stroke_tia":2.13}},{"ods":"E84033","name":"CHALKHILL FAMILY PRACTICE","pcn":"U89375","lat":51.564863,"lng":-0.278515,"list":6729,"gp_fte":2.9466666667,"rating":"Good","prev":{"asthma":5.567,"atrial_fibrillation":0.838,"copd":0.951,"coronary_heart_disease":2.016,"dementia":0.753,"depression":12.689,"diabetes":8.71,"hypertension":10.578,"obesity":20.626,"serious_mental_illness":1.107,"stroke_tia":1.079}},{"ods":"E84036","name":"GLADSTONE MEDICAL CENTRE","pcn":"U77170","lat":51.563003,"lng":-0.254193,"list":8938,"gp_fte":3.5733333333,"rating":"Good","prev":{"asthma":5.758,"atrial_fibrillation":1.221,"copd":0.968,"coronary_heart_disease":2.115,"dementia":0.463,"depression":16.797,"diabetes":10.904,"hypertension":14.31,"obesity":20.777,"serious_mental_illness":2.241,"stroke_tia":1.473}},{"ods":"E84039","name":"HONEYPOT MEDICAL CENTRE","pcn":"U51050","lat":51.596204,"lng":-0.301967,"list":18791,"gp_fte":4.9599999999,"rating":"Good","prev":{"asthma":4.759,"atrial_fibrillation":1.113,"copd":0.696,"coronary_heart_disease":2.823,"dementia":0.795,"depression":8.701,"diabetes":12.067,"hypertension":13.608,"obesity":16.799,"serious_mental_illness":0.948,"stroke_tia":1.277}},{"ods":"E84040","name":"THE PINNER ROAD SURGERY","pcn":"U10339","lat":51.588731,"lng":-0.353349,"list":4493,"gp_fte":2.2800000001,"rating":"Good","prev":{"asthma":3.684,"atrial_fibrillation":0.938,"copd":0.305,"coronary_heart_disease":2.291,"dementia":0.371,"depression":7.625,"diabetes":10.207,"hypertension":11.933,"obesity":16.286,"serious_mental_illness":1.483,"stroke_tia":1.113}},{"ods":"E84042","name":"KILBURN PARK MEDICAL CENTRE","pcn":"U25131","lat":51.536189,"lng":-0.202739,"list":6916,"gp_fte":3.5274666666,"rating":null,"prev":{"asthma":5.572,"atrial_fibrillation":1.012,"copd":1.217,"coronary_heart_disease":1.819,"dementia":0.675,"depression":13.979,"diabetes":8.483,"hypertension":13.464,"obesity":14.957,"serious_mental_illness":1.789,"stroke_tia":1.687}},{"ods":"E84044","name":"THE NORTHWICK SURGERY","pcn":"U89806","lat":51.583541,"lng":-0.333205,"list":11351,"gp_fte":4.1333333333,"rating":"Good","prev":{"asthma":4.605,"atrial_fibrillation":1.464,"copd":0.926,"coronary_heart_disease":2.126,"dementia":0.723,"depression":10.268,"diabetes":8.727,"hypertension":12.331,"obesity":11.052,"serious_mental_illness":1.455,"stroke_tia":1.341}},{"ods":"E84048","name":"THE FRYENT WAY SURGERY","pcn":"U57586","lat":51.58547,"lng":-0.285862,"list":7666,"gp_fte":3.1733333334,"rating":"Good","prev":{"asthma":4.188,"atrial_fibrillation":1.248,"copd":0.854,"coronary_heart_disease":3.626,"dementia":0.696,"depression":8.297,"diabetes":13.735,"hypertension":16.999,"obesity":19.349,"serious_mental_illness":0.985,"stroke_tia":2.049}},{"ods":"E84049","name":"BRAMPTON HEALTH CENTRE","pcn":"U57586","lat":51.585505,"lng":-0.281947,"list":7454,"gp_fte":1.8399999999,"rating":"Good","prev":{"asthma":4.071,"atrial_fibrillation":0.584,"copd":0.475,"coronary_heart_disease":2.036,"dementia":0.529,"depression":12.477,"diabetes":7.976,"hypertension":8.97,"obesity":15.341,"serious_mental_illness":0.977,"stroke_tia":1.018}},{"ods":"E84051","name":"STANLEY CORNER MEDICAL CENTRE","pcn":"U78157","lat":51.545035,"lng":-0.296177,"list":6355,"gp_fte":2.68,"rating":"Good","prev":{"asthma":5.352,"atrial_fibrillation":0.965,"copd":0.701,"coronary_heart_disease":2.46,"dementia":0.561,"depression":8.864,"diabetes":13.547,"hypertension":15.852,"obesity":21.169,"serious_mental_illness":0.919,"stroke_tia":1.324}},{"ods":"E84053","name":"HATCH END MEDICAL CENTRE","pcn":"U89806","lat":51.606702,"lng":-0.377755,"list":3171,"gp_fte":2.1333333334,"rating":"Good","prev":{"asthma":6.277,"atrial_fibrillation":2.041,"copd":0.871,"coronary_heart_disease":4.293,"dementia":0.51,"depression":4.993,"diabetes":11.936,"hypertension":17.592,"obesity":11.889,"serious_mental_illness":0.63,"stroke_tia":1.441}},{"ods":"E84057","name":"THE STANMORE MEDICAL CENTRE","pcn":"U60450","lat":51.610977,"lng":-0.314477,"list":12454,"gp_fte":null,"rating":"Good","prev":{"asthma":4.962,"atrial_fibrillation":1.952,"copd":0.828,"coronary_heart_disease":3.42,"dementia":1.242,"depression":8.01,"diabetes":10.416,"hypertension":15.726,"obesity":12.425,"serious_mental_illness":1.109,"stroke_tia":1.64}},{"ods":"E84058","name":"GP DIRECT","pcn":"U89806","lat":51.575896,"lng":-0.35511,"list":26560,"gp_fte":14.7968589429,"rating":"Good","prev":{"asthma":6.012,"atrial_fibrillation":0.809,"copd":0.691,"coronary_heart_disease":2.038,"dementia":0.342,"depression":13.436,"diabetes":10.186,"hypertension":11.528,"obesity":18.657,"serious_mental_illness":1.006,"stroke_tia":1.066}},{"ods":"E84059","name":"THE ALLENDALE ROAD SURGERY","pcn":"U33609","lat":51.551856,"lng":-0.327696,"list":4691,"gp_fte":0.8399999999,"rating":"Good","prev":{"asthma":3.834,"atrial_fibrillation":1.357,"copd":0.752,"coronary_heart_disease":2.505,"dementia":0.376,"depression":7.812,"diabetes":10.664,"hypertension":15.804,"obesity":13.432,"serious_mental_illness":1.211,"stroke_tia":1.712}},{"ods":"E84061","name":"ELLIOTT HALL MEDICAL CTR.","pcn":"U89806","lat":51.60779,"lng":-0.368172,"list":11389,"gp_fte":8.7200000001,"rating":"Outstanding","prev":{"asthma":7.093,"atrial_fibrillation":2.759,"copd":0.782,"coronary_heart_disease":3.839,"dementia":1.046,"depression":8.319,"diabetes":10.608,"hypertension":17.703,"obesity":12.78,"serious_mental_illness":0.65,"stroke_tia":2.047}},{"ods":"E84062","name":"THE SHAFTESBURY MEDICAL CENTRE","pcn":"U10339","lat":51.574063,"lng":-0.352222,"list":5553,"gp_fte":3.0533333333,"rating":"Good","prev":{"asthma":5.235,"atrial_fibrillation":1.35,"copd":1.134,"coronary_heart_disease":2.304,"dementia":0.828,"depression":11.309,"diabetes":11.064,"hypertension":14.291,"obesity":17.63,"serious_mental_illness":1.764,"stroke_tia":1.566}},{"ods":"E84063","name":"LANCELOT MEDICAL CENTRE","pcn":"U78157","lat":51.556565,"lng":-0.301828,"list":9089,"gp_fte":2.0,"rating":"Good","prev":{"asthma":2.063,"atrial_fibrillation":0.38,"copd":0.265,"coronary_heart_disease":1.45,"dementia":0.138,"depression":4.076,"diabetes":8.345,"hypertension":8.933,"obesity":12.57,"serious_mental_illness":0.483,"stroke_tia":0.691}},{"ods":"E84066","name":"GP PATHFINDER CLINICS","pcn":"U78157","lat":51.577073,"lng":-0.224471,"list":119538,"gp_fte":4.2666666667,"rating":"Good","prev":{"asthma":0.673,"atrial_fibrillation":0.128,"copd":0.085,"coronary_heart_disease":0.318,"dementia":0.055,"depression":3.284,"diabetes":1.702,"hypertension":2.182,"obesity":4.937,"serious_mental_illness":0.272,"stroke_tia":0.162}},{"ods":"E84067","name":"CHURCH LANE SURGERY","pcn":"U33065","lat":51.576695,"lng":-0.283599,"list":9445,"gp_fte":3.0133333334,"rating":"Good","prev":{"asthma":5.268,"atrial_fibrillation":0.661,"copd":0.25,"coronary_heart_disease":2.162,"dementia":0.12,"depression":4.547,"diabetes":14.984,"hypertension":13.904,"obesity":17.486,"serious_mental_illness":0.721,"stroke_tia":0.871}},{"ods":"E84068","name":"THE RIDGEWAY SURGERY","pcn":"U84846","lat":51.581912,"lng":-0.367998,"list":14839,"gp_fte":6.2133333334,"rating":"Good","prev":{"asthma":5.988,"atrial_fibrillation":1.662,"copd":0.811,"coronary_heart_disease":2.919,"dementia":0.632,"depression":8.259,"diabetes":11.806,"hypertension":15.837,"obesity":18.067,"serious_mental_illness":1.011,"stroke_tia":1.682}},{"ods":"E84069","name":"BELMONT HEALTH CENTRE","pcn":"U60450","lat":51.601753,"lng":-0.327704,"list":19234,"gp_fte":5.36,"rating":"Requires improvement","prev":{"asthma":5.25,"atrial_fibrillation":1.277,"copd":0.853,"coronary_heart_disease":2.639,"dementia":0.742,"depression":10.55,"diabetes":11.129,"hypertension":13.635,"obesity":18.019,"serious_mental_illness":1.245,"stroke_tia":1.224}},{"ods":"E84070","name":"PINNER VIEW MEDICAL CENTRE","pcn":"U10339","lat":51.588958,"lng":-0.349367,"list":5859,"gp_fte":1.0666666667,"rating":"Good","prev":{"asthma":4.966,"atrial_fibrillation":1.396,"copd":0.371,"coronary_heart_disease":2.616,"dementia":0.831,"depression":11.141,"diabetes":10.352,"hypertension":13.311,"obesity":14.502,"serious_mental_illness":0.955,"stroke_tia":1.379}},{"ods":"E84074","name":"FREUCHEN MEDICAL CENTRE","pcn":"U11559","lat":51.544173,"lng":-0.253535,"list":12478,"gp_fte":3.5333333333,"rating":"Good","prev":{"asthma":3.879,"atrial_fibrillation":0.624,"copd":0.76,"coronary_heart_disease":1.257,"dementia":0.224,"depression":8.932,"diabetes":9.821,"hypertension":11.959,"obesity":16.507,"serious_mental_illness":1.601,"stroke_tia":0.937}},{"ods":"E84075","name":"MOLLISON WAY SURGERY","pcn":"U51050","lat":51.59889,"lng":-0.284567,"list":11753,"gp_fte":1.8666666667,"rating":"Good","prev":{"asthma":2.633,"atrial_fibrillation":0.417,"copd":0.3,"coronary_heart_disease":1.3,"dementia":0.15,"depression":5.146,"diabetes":7.635,"hypertension":8.351,"obesity":11.528,"serious_mental_illness":0.383,"stroke_tia":0.525}},{"ods":"E84076","name":"OXGATE GARDENS SURGERY","pcn":"U11559","lat":51.566163,"lng":-0.237244,"list":6379,"gp_fte":4.0533333334,"rating":"Good","prev":{"asthma":5.953,"atrial_fibrillation":0.379,"copd":1.182,"coronary_heart_disease":2.243,"dementia":0.47,"depression":7.222,"diabetes":9.401,"hypertension":12.625,"obesity":16.768,"serious_mental_illness":1.349,"stroke_tia":1.303}},{"ods":"E84078","name":"KINGSBURY HEALTH AND WELLBEING","pcn":"U57586","lat":51.590722,"lng":-0.276587,"list":5357,"gp_fte":2.16,"rating":"Good","prev":{"asthma":4.428,"atrial_fibrillation":1.35,"copd":1.149,"coronary_heart_disease":4.091,"dementia":0.705,"depression":8.107,"diabetes":16.667,"hypertension":20.939,"obesity":22.278,"serious_mental_illness":1.048,"stroke_tia":1.471}},{"ods":"E84080","name":"STAVERTON SURGERY","pcn":"U25131","lat":51.544363,"lng":-0.22758,"list":8103,"gp_fte":3.6866666667,"rating":"Good","prev":{"asthma":4.237,"atrial_fibrillation":1.49,"copd":1.15,"coronary_heart_disease":1.866,"dementia":0.763,"depression":9.857,"diabetes":6.648,"hypertension":11.547,"obesity":11.803,"serious_mental_illness":1.572,"stroke_tia":1.232}},{"ods":"E84083","name":"LANFRANC MEDICAL CENTRE","pcn":"U33065","lat":51.561394,"lng":-0.331142,"list":5923,"gp_fte":3.0400000001,"rating":"Good","prev":{"asthma":4.754,"atrial_fibrillation":1.521,"copd":0.702,"coronary_heart_disease":4.112,"dementia":0.485,"depression":8.386,"diabetes":14.674,"hypertension":18.285,"obesity":13.72,"serious_mental_illness":0.869,"stroke_tia":1.705}},{"ods":"E84086","name":"WALM LANE SURGERY","pcn":"U11559","lat":51.55378,"lng":-0.226006,"list":6573,"gp_fte":2.7909333334,"rating":"Good","prev":{"asthma":3.214,"atrial_fibrillation":1.221,"copd":0.617,"coronary_heart_disease":1.608,"dementia":0.302,"depression":7.965,"diabetes":5.457,"hypertension":10.023,"obesity":11.235,"serious_mental_illness":1.163,"stroke_tia":1.163}},{"ods":"E84601","name":"KENTON BRIDGE MEDICAL CENTRE DR GOLDEN","pcn":"U84846","lat":51.58479,"lng":-0.315128,"list":7640,"gp_fte":1.0666666667,"rating":"Good","prev":{"asthma":4.182,"atrial_fibrillation":1.021,"copd":0.787,"coronary_heart_disease":2.386,"dementia":0.504,"depression":8.299,"diabetes":8.315,"hypertension":12.568,"obesity":15.469,"serious_mental_illness":1.217,"stroke_tia":1.131}},{"ods":"E84617","name":"THE CIVIC MEDICAL CENTRE","pcn":"U60450","lat":51.590129,"lng":-0.335886,"list":7572,"gp_fte":2.3866666667,"rating":"Good","prev":{"asthma":2.535,"atrial_fibrillation":0.596,"copd":0.319,"coronary_heart_disease":1.649,"dementia":0.166,"depression":5.683,"diabetes":8.198,"hypertension":8.452,"obesity":9.529,"serious_mental_illness":0.734,"stroke_tia":0.831}},{"ods":"E84620","name":"PRESTON ROAD SURGERY","pcn":"U89375","lat":51.570318,"lng":-0.303854,"list":6130,"gp_fte":2.0,"rating":"Good","prev":{"asthma":5.327,"atrial_fibrillation":0.738,"copd":0.231,"coronary_heart_disease":2.706,"dementia":0.231,"depression":7.162,"diabetes":15.074,"hypertension":12.702,"obesity":17.124,"serious_mental_illness":0.892,"stroke_tia":0.753}},{"ods":"E84626","name":"THE SUNFLOWER MEDICAL CENTRE","pcn":"U33065","lat":51.555532,"lng":-0.304464,"list":4812,"gp_fte":2.0,"rating":"Good","prev":{"asthma":3.587,"atrial_fibrillation":0.617,"copd":0.596,"coronary_heart_disease":2.509,"dementia":0.452,"depression":5.396,"diabetes":12.512,"hypertension":13.428,"obesity":14.977,"serious_mental_illness":1.152,"stroke_tia":1.069}},{"ods":"E84635","name":"THE SURGERY","pcn":"U33065","lat":51.553149,"lng":-0.286781,"list":5371,"gp_fte":2.3866666666,"rating":"Good","prev":{"asthma":4.703,"atrial_fibrillation":0.6,"copd":0.476,"coronary_heart_disease":1.976,"dementia":0.37,"depression":4.57,"diabetes":16.057,"hypertension":14.959,"obesity":20.541,"serious_mental_illness":0.829,"stroke_tia":1.147}},{"ods":"E84637","name":"HILLTOP MEDICAL PRACTICE","pcn":"U11559","lat":51.544385,"lng":-0.263397,"list":4926,"gp_fte":1.0,"rating":"Good","prev":{"asthma":4.591,"atrial_fibrillation":0.478,"copd":0.837,"coronary_heart_disease":1.435,"dementia":0.199,"depression":12.542,"diabetes":9.712,"hypertension":9.868,"obesity":17.746,"serious_mental_illness":1.196,"stroke_tia":0.778}},{"ods":"E84638","name":"ALPERTON MEDICAL CENTRE","pcn":"U78157","lat":51.544188,"lng":-0.294688,"list":6309,"gp_fte":1.0,"rating":"Good","prev":{"asthma":3.203,"atrial_fibrillation":0.623,"copd":0.351,"coronary_heart_disease":2.221,"dementia":0.479,"depression":3.442,"diabetes":14.222,"hypertension":12.67,"obesity":16.914,"serious_mental_illness":0.559,"stroke_tia":1.182}},{"ods":"E84645","name":"PARK ROYAL MEDICAL PRACTICE","pcn":"U11559","lat":51.537918,"lng":-0.271196,"list":8830,"gp_fte":2.6666666667,"rating":"Good","prev":{"asthma":3.411,"atrial_fibrillation":0.705,"copd":0.717,"coronary_heart_disease":1.547,"dementia":0.523,"depression":8.686,"diabetes":10.119,"hypertension":12.17,"obesity":18.078,"serious_mental_illness":1.354,"stroke_tia":1.297}},{"ods":"E84646","name":"THE STREATFIELD MEDICAL CENTRE","pcn":"U60450","lat":51.596252,"lng":-0.300904,"list":7389,"gp_fte":1.7333333334,"rating":"Good","prev":{"asthma":2.633,"atrial_fibrillation":0.445,"copd":0.275,"coronary_heart_disease":1.595,"dementia":0.222,"depression":4.71,"diabetes":7.021,"hypertension":7.637,"obesity":11.537,"serious_mental_illness":0.288,"stroke_tia":0.484}},{"ods":"E84647","name":"KENTON CLINIC","pcn":"U10339","lat":51.588732,"lng":-0.300519,"list":5033,"gp_fte":0.9466666667,"rating":"Good","prev":{"asthma":3.769,"atrial_fibrillation":1.146,"copd":0.389,"coronary_heart_disease":2.574,"dementia":0.433,"depression":4.112,"diabetes":11.953,"hypertension":13.798,"obesity":18.201,"serious_mental_illness":0.606,"stroke_tia":1.125}},{"ods":"E84653","name":"ZAIN MEDICAL CENTRE","pcn":"U10339","lat":51.595612,"lng":-0.318048,"list":7092,"gp_fte":1.64,"rating":"Good","prev":{"asthma":4.248,"atrial_fibrillation":0.645,"copd":0.724,"coronary_heart_disease":2.552,"dementia":1.171,"depression":6.878,"diabetes":11.124,"hypertension":10.63,"obesity":13.199,"serious_mental_illness":1.355,"stroke_tia":1.118}},{"ods":"E84656","name":"ROUNDWOOD PARK MEDICAL CENTRE","pcn":"U11559","lat":51.546216,"lng":-0.242867,"list":5905,"gp_fte":3.4666666667,"rating":"Good","prev":{"asthma":5.257,"atrial_fibrillation":0.995,"copd":0.746,"coronary_heart_disease":2.073,"dementia":0.514,"depression":14.025,"diabetes":10.476,"hypertension":12.852,"obesity":16.334,"serious_mental_illness":1.161,"stroke_tia":1.095}},{"ods":"E84658","name":"ASPRI MEDICAL CENTRE","pcn":"U60450","lat":51.605032,"lng":-0.339486,"list":5305,"gp_fte":2.7066666666,"rating":"Good","prev":{"asthma":4.111,"atrial_fibrillation":1.256,"copd":0.704,"coronary_heart_disease":2.492,"dementia":0.4,"depression":8.206,"diabetes":12.852,"hypertension":15.734,"obesity":17.153,"serious_mental_illness":1.104,"stroke_tia":1.522}},{"ods":"E84663","name":"KENTON BRIDGE MEDICAL CENTRE - DR RAJA","pcn":"U84846","lat":51.584583,"lng":-0.317277,"list":7947,"gp_fte":2.0666666667,"rating":"Good","prev":{"asthma":4.745,"atrial_fibrillation":1.164,"copd":0.721,"coronary_heart_disease":2.948,"dementia":0.531,"depression":7.412,"diabetes":8.527,"hypertension":12.438,"obesity":16.909,"serious_mental_illness":0.62,"stroke_tia":1.43}},{"ods":"E84665","name":"NEASDEN MEDICAL CENTRE","pcn":"U57586","lat":51.556228,"lng":-0.254366,"list":8745,"gp_fte":1.2266666667,"rating":"Requires improvement","prev":{"asthma":3.755,"atrial_fibrillation":1.109,"copd":1.001,"coronary_heart_disease":2.347,"dementia":0.334,"depression":7.903,"diabetes":11.061,"hypertension":15.364,"obesity":19.791,"serious_mental_illness":0.915,"stroke_tia":1.389}},{"ods":"E84674","name":"CHICHELE ROAD SURGERY","pcn":"U25131","lat":51.560506,"lng":-0.225501,"list":5022,"gp_fte":1.3866666667,"rating":"Good","prev":{"asthma":3.232,"atrial_fibrillation":0.913,"copd":1.476,"coronary_heart_disease":2.078,"dementia":0.272,"depression":8.027,"diabetes":7.375,"hypertension":11.828,"obesity":9.966,"serious_mental_illness":1.69,"stroke_tia":0.952}},{"ods":"E84676","name":"HEADSTONE LANE MEDICAL CENTRE","pcn":"U10339","lat":51.59433,"lng":-0.35567,"list":3890,"gp_fte":0.8266666667,"rating":"Good","prev":{"asthma":5.146,"atrial_fibrillation":1.158,"copd":0.669,"coronary_heart_disease":2.497,"dementia":0.309,"depression":7.303,"diabetes":16.274,"hypertension":15.264,"obesity":21.032,"serious_mental_illness":0.952,"stroke_tia":1.184}},{"ods":"E84678","name":"PRESTON MEDICAL CENTRE","pcn":"U33065","lat":51.571191,"lng":-0.301815,"list":4596,"gp_fte":2.56,"rating":"Good","prev":{"asthma":3.358,"atrial_fibrillation":0.873,"copd":0.234,"coronary_heart_disease":2.788,"dementia":0.255,"depression":3.508,"diabetes":12.5,"hypertension":15.006,"obesity":13.799,"serious_mental_illness":0.681,"stroke_tia":1.171}},{"ods":"E84680","name":"HEADSTONE ROAD SURGERY","pcn":"U10339","lat":51.584928,"lng":-0.339935,"list":5187,"gp_fte":1.0666666666,"rating":"Good","prev":{"asthma":4.101,"atrial_fibrillation":0.545,"copd":0.618,"coronary_heart_disease":1.762,"dementia":0.436,"depression":7.245,"diabetes":8.753,"hypertension":10.045,"obesity":15.37,"serious_mental_illness":0.545,"stroke_tia":1.054}},{"ods":"E84684","name":"THE TUDOR HOUSE MEDICAL CENTRE","pcn":"U89375","lat":51.567328,"lng":-0.266608,"list":4960,"gp_fte":2.4,"rating":"Good","prev":{"asthma":4.649,"atrial_fibrillation":0.909,"copd":0.829,"coronary_heart_disease":2.203,"dementia":0.182,"depression":10.983,"diabetes":10.86,"hypertension":12.429,"obesity":18.03,"serious_mental_illness":1.091,"stroke_tia":1.172}},{"ods":"E84685","name":"SUDBURY SURGERY","pcn":"U89375","lat":51.561095,"lng":-0.31546,"list":7781,"gp_fte":1.6666666667,"rating":"Good","prev":{"asthma":4.238,"atrial_fibrillation":1.502,"copd":0.606,"coronary_heart_disease":2.713,"dementia":0.782,"depression":5.186,"diabetes":12.229,"hypertension":15.358,"obesity":16.606,"serious_mental_illness":1.514,"stroke_tia":1.552}},{"ods":"E84693","name":"ST. PETER'S MEDICAL CENTRE","pcn":"U89806","lat":51.579873,"lng":-0.348405,"list":10199,"gp_fte":3.056,"rating":"Good","prev":{"asthma":6.509,"atrial_fibrillation":1.128,"copd":0.65,"coronary_heart_disease":1.605,"dementia":0.315,"depression":11.694,"diabetes":6.719,"hypertension":9.896,"obesity":13.196,"serious_mental_illness":1.107,"stroke_tia":0.975}},{"ods":"E84699","name":"KINGS EDGE MEDICAL CENTRE","pcn":"U57586","lat":51.594503,"lng":-0.276676,"list":3950,"gp_fte":0.64,"rating":"Good","prev":{"asthma":3.774,"atrial_fibrillation":0.745,"copd":1.018,"coronary_heart_disease":2.185,"dementia":0.521,"depression":6.052,"diabetes":13.03,"hypertension":16.013,"obesity":19.495,"serious_mental_illness":0.993,"stroke_tia":0.993}},{"ods":"E84701","name":"PEARL MEDICAL PRACTICE","pcn":"U33065","lat":51.554278,"lng":-0.30596,"list":4986,"gp_fte":1.6,"rating":"Good","prev":{"asthma":2.777,"atrial_fibrillation":0.544,"copd":0.427,"coronary_heart_disease":1.456,"dementia":0.252,"depression":6.542,"diabetes":11.05,"hypertension":12.697,"obesity":14.853,"serious_mental_illness":0.777,"stroke_tia":0.854}},{"ods":"E84702","name":"WILLESDEN GREEN SURGERY","pcn":"U61025","lat":51.556546,"lng":-0.228676,"list":14783,"gp_fte":4.48,"rating":"Good","prev":{"asthma":4.182,"atrial_fibrillation":0.689,"copd":0.553,"coronary_heart_disease":1.591,"dementia":0.129,"depression":22.408,"diabetes":6.536,"hypertension":7.516,"obesity":13.454,"serious_mental_illness":1.053,"stroke_tia":0.697}},{"ods":"E84704","name":"ST. GEORGES MEDICAL CENTRE","pcn":"U77170","lat":51.561915,"lng":-0.252574,"list":2556,"gp_fte":1.0933333333,"rating":"Good","prev":{"asthma":7.459,"atrial_fibrillation":1.383,"copd":1.058,"coronary_heart_disease":3.133,"dementia":0.448,"depression":11.306,"diabetes":12.57,"hypertension":23.515,"obesity":18.844,"serious_mental_illness":1.383,"stroke_tia":1.79}},{"ods":"E84709","name":"WEMBLEY PARK MEDICAL CENTRE","pcn":"U33065","lat":51.561546,"lng":-0.287186,"list":25787,"gp_fte":7.2533333332,"rating":null,"prev":{"asthma":3.514,"atrial_fibrillation":0.664,"copd":0.417,"coronary_heart_disease":1.259,"dementia":0.195,"depression":6.847,"diabetes":5.091,"hypertension":7.148,"obesity":19.463,"serious_mental_illness":0.829,"stroke_tia":0.738}},{"ods":"E85001","name":"THORNBURY ROAD CENTRE FOR HEALTH","pcn":"U56341","lat":51.47832,"lng":-0.34416,"list":9183,"gp_fte":4.7498666667,"rating":"Good","prev":{"asthma":4.928,"atrial_fibrillation":1.442,"copd":0.961,"coronary_heart_disease":2.571,"dementia":0.782,"depression":6.911,"diabetes":8.449,"hypertension":13.045,"obesity":16.614,"serious_mental_illness":1.587,"stroke_tia":1.598}},{"ods":"E85003","name":"NORTH END MEDICAL CENTRE","pcn":"U18398","lat":51.493584,"lng":-0.214957,"list":18169,"gp_fte":9.5866666668,"rating":"Good","prev":{"asthma":4.5,"atrial_fibrillation":0.871,"copd":1.108,"coronary_heart_disease":1.694,"dementia":0.348,"depression":11.734,"diabetes":5.317,"hypertension":10.527,"obesity":7.095,"serious_mental_illness":1.91,"stroke_tia":0.997}},{"ods":"E85004","name":"ALBANY PRACTICE","pcn":"U56341","lat":51.486754,"lng":-0.312152,"list":7364,"gp_fte":2.3199999999,"rating":"Good","prev":{"asthma":5.273,"atrial_fibrillation":1.469,"copd":1.864,"coronary_heart_disease":2.735,"dementia":0.844,"depression":10.914,"diabetes":7.327,"hypertension":11.918,"obesity":10.829,"serious_mental_illness":1.565,"stroke_tia":1.755}},{"ods":"E85005","name":"THE WESTWAY SURGERY","pcn":"U73163","lat":51.517587,"lng":-0.253848,"list":5142,"gp_fte":1.3333333334,"rating":"Good","prev":{"asthma":3.912,"atrial_fibrillation":1.194,"copd":1.04,"coronary_heart_disease":1.888,"dementia":0.231,"depression":5.34,"diabetes":7.26,"hypertension":10.67,"obesity":8.368,"serious_mental_illness":1.618,"stroke_tia":0.982}},{"ods":"E85006","name":"WATERSIDE MEDICAL CENTRE","pcn":"U79587","lat":51.502855,"lng":-0.372593,"list":5037,"gp_fte":1.3333333333,"rating":"Good","prev":{"asthma":6.725,"atrial_fibrillation":0.839,"copd":0.479,"coronary_heart_disease":2.716,"dementia":0.26,"depression":6.603,"diabetes":12.393,"hypertension":11.744,"obesity":18.32,"serious_mental_illness":1.578,"stroke_tia":1.258}},{"ods":"E85007","name":"ST. MARGARETS PRACTICE","pcn":"U56341","lat":51.462433,"lng":-0.33688,"list":12812,"gp_fte":5.4266666667,"rating":"Good","prev":{"asthma":6.06,"atrial_fibrillation":1.703,"copd":1.524,"coronary_heart_disease":2.17,"dementia":0.785,"depression":10.807,"diabetes":6.886,"hypertension":11.998,"obesity":9.43,"serious_mental_illness":1.19,"stroke_tia":1.439}},{"ods":"E85008","name":"NORTH FULHAM SURGERY","pcn":"U55717","lat":51.48583,"lng":-0.209868,"list":6289,"gp_fte":3.9946666667,"rating":"Good","prev":{"asthma":5.801,"atrial_fibrillation":1.841,"copd":1.765,"coronary_heart_disease":2.526,"dementia":0.624,"depression":12.715,"diabetes":6.806,"hypertension":13.012,"obesity":8.16,"serious_mental_illness":2.054,"stroke_tia":1.918}},{"ods":"E85012","name":"KS MEDICAL CENTRE","pcn":"U53562","lat":51.516496,"lng":-0.371837,"list":5179,"gp_fte":1.6,"rating":"Good","prev":{"asthma":7.013,"atrial_fibrillation":1.708,"copd":1.351,"coronary_heart_disease":5.105,"dementia":0.751,"depression":6.492,"diabetes":15.602,"hypertension":18.187,"obesity":12.914,"serious_mental_illness":1.52,"stroke_tia":1.989}},{"ods":"E85013","name":"WESTSEVEN GP","pcn":"U45703","lat":51.510793,"lng":-0.338259,"list":5864,"gp_fte":1.5466666667,"rating":"Good","prev":{"asthma":5.122,"atrial_fibrillation":1.252,"copd":1.302,"coronary_heart_disease":1.903,"dementia":0.267,"depression":7.494,"diabetes":5.708,"hypertension":10.032,"obesity":11.314,"serious_mental_illness":1.252,"stroke_tia":0.901}},{"ods":"E85014","name":"NORTHFIELDS SURGERY","pcn":"U16083","lat":51.503957,"lng":-0.320029,"list":8286,"gp_fte":3.3866666667,"rating":"Good","prev":{"asthma":4.989,"atrial_fibrillation":1.653,"copd":0.685,"coronary_heart_disease":2.185,"dementia":0.602,"depression":6.018,"diabetes":5.049,"hypertension":13.085,"obesity":5.723,"serious_mental_illness":0.886,"stroke_tia":1.334}},{"ods":"E85015","name":"HOUNSLOW MEDICAL CENTRE","pcn":"U24740","lat":51.472035,"lng":-0.38354,"list":9590,"gp_fte":2.0,"rating":"Good","prev":{"asthma":3.872,"atrial_fibrillation":0.799,"copd":0.487,"coronary_heart_disease":3.35,"dementia":0.425,"depression":4.993,"diabetes":13.697,"hypertension":14.757,"obesity":16.492,"serious_mental_illness":0.923,"stroke_tia":1.338}},{"ods":"E85016","name":"RICHFORD GATE MEDICAL CENTRE","pcn":"U18398","lat":51.504081,"lng":-0.233875,"list":12094,"gp_fte":8.5626666667,"rating":"Good","prev":{"asthma":5.207,"atrial_fibrillation":1.305,"copd":1.349,"coronary_heart_disease":1.919,"dementia":0.631,"depression":12.162,"diabetes":5.472,"hypertension":11.472,"obesity":8.6,"serious_mental_illness":1.504,"stroke_tia":1.625}},{"ods":"E85019","name":"CROWN STREET SURGERY","pcn":"U81324","lat":51.51055,"lng":-0.275649,"list":10802,"gp_fte":2.7200000001,"rating":"Good","prev":{"asthma":5.036,"atrial_fibrillation":1.643,"copd":1.368,"coronary_heart_disease":2.195,"dementia":0.471,"depression":8.696,"diabetes":7.431,"hypertension":12.918,"obesity":12.607,"serious_mental_illness":1.862,"stroke_tia":1.735}},{"ods":"E85020","name":"BROOK GREEN MEDICAL CENTRE","pcn":"U18398","lat":51.498458,"lng":-0.229652,"list":15579,"gp_fte":11.6266666666,"rating":"Good","prev":{"asthma":4.051,"atrial_fibrillation":1.271,"copd":1.107,"coronary_heart_disease":1.524,"dementia":0.715,"depression":9.576,"diabetes":4.596,"hypertension":9.765,"obesity":7.431,"serious_mental_illness":1.499,"stroke_tia":1.347}},{"ods":"E85021","name":"YEADING MEDICAL CENTRE","pcn":"U87298","lat":51.535868,"lng":-0.398076,"list":6928,"gp_fte":2.24,"rating":"Good","prev":{"asthma":5.108,"atrial_fibrillation":1.153,"copd":1.066,"coronary_heart_disease":1.628,"dementia":0.317,"depression":8.592,"diabetes":9.893,"hypertension":14.611,"obesity":16.099,"serious_mental_illness":0.994,"stroke_tia":0.836}},{"ods":"E85023","name":"CHEPSTOW GARDENS MEDICAL CENTRE","pcn":"U53562","lat":51.519657,"lng":-0.37765,"list":3197,"gp_fte":0.7466666667,"rating":"Good","prev":{"asthma":7.122,"atrial_fibrillation":1.873,"copd":1.498,"coronary_heart_disease":4.767,"dementia":0.749,"depression":10.313,"diabetes":13.81,"hypertension":18.965,"obesity":20.95,"serious_mental_illness":1.6,"stroke_tia":2.588}},{"ods":"E85024","name":"CARLTON SURGERY","pcn":"U98004","lat":51.451752,"lng":-0.409382,"list":5274,"gp_fte":2.24,"rating":"Requires improvement","prev":{"asthma":6.118,"atrial_fibrillation":2.186,"copd":1.958,"coronary_heart_disease":2.889,"dementia":0.456,"depression":12.261,"diabetes":11.103,"hypertension":15.434,"obesity":16.683,"serious_mental_illness":0.627,"stroke_tia":1.616}},{"ods":"E85025","name":"CASSIDY ROAD MEDICAL CENTRE","pcn":"U62360","lat":51.482664,"lng":-0.208792,"list":11278,"gp_fte":2.0133333333,"rating":"Good","prev":{"asthma":3.733,"atrial_fibrillation":0.647,"copd":0.84,"coronary_heart_disease":1.059,"dementia":0.185,"depression":6.714,"diabetes":3.056,"hypertension":5.984,"obesity":5.211,"serious_mental_illness":1.009,"stroke_tia":0.588}},{"ods":"E85026","name":"GORDON HOUSE SURGERY","pcn":"U95154","lat":51.51282,"lng":-0.316285,"list":15356,"gp_fte":3.9466666666,"rating":"Good","prev":{"asthma":4.727,"atrial_fibrillation":1.553,"copd":1.001,"coronary_heart_disease":2.158,"dementia":0.481,"depression":8.592,"diabetes":5.073,"hypertension":11.017,"obesity":9.087,"serious_mental_illness":1.475,"stroke_tia":1.124}},{"ods":"E85028","name":"HILLCREST SURGERY","pcn":"U81324","lat":51.513288,"lng":-0.282373,"list":8546,"gp_fte":5.7066666665,"rating":null,"prev":{"asthma":4.258,"atrial_fibrillation":1.475,"copd":0.765,"coronary_heart_disease":2.087,"dementia":0.35,"depression":6.697,"diabetes":5.319,"hypertension":10.163,"obesity":7.844,"serious_mental_illness":1.136,"stroke_tia":0.962}},{"ods":"E85029","name":"THE MEDICAL CENTRE, DR JEFFERIES & PARTN","pcn":"U19803","lat":51.48433,"lng":-0.217118,"list":14571,"gp_fte":5.6066666666,"rating":"Good","prev":{"asthma":5.81,"atrial_fibrillation":1.139,"copd":1.729,"coronary_heart_disease":1.825,"dementia":0.35,"depression":14.488,"diabetes":4.657,"hypertension":14.093,"obesity":12.801,"serious_mental_illness":1.962,"stroke_tia":1.173}},{"ods":"E85030","name":"CHISWICK HEALTH PRACTICE","pcn":"U42276","lat":51.493357,"lng":-0.264896,"list":7155,"gp_fte":5.5376,"rating":"Good","prev":{"asthma":4.366,"atrial_fibrillation":1.398,"copd":1.205,"coronary_heart_disease":1.904,"dementia":0.833,"depression":8.242,"diabetes":4.371,"hypertension":10.961,"obesity":8.207,"serious_mental_illness":1.115,"stroke_tia":1.398}},{"ods":"E85032","name":"ASHCHURCH SURGERY","pcn":"U55717","lat":51.506104,"lng":-0.245875,"list":4509,"gp_fte":2.2,"rating":"Good","prev":{"asthma":4.63,"atrial_fibrillation":1.764,"copd":1.481,"coronary_heart_disease":2.156,"dementia":0.653,"depression":8.804,"diabetes":7.351,"hypertension":12.936,"obesity":11.049,"serious_mental_illness":1.699,"stroke_tia":1.873}},{"ods":"E85033","name":"HAMMERSMITH SURGERY","pcn":"U55717","lat":51.492956,"lng":-0.230411,"list":10994,"gp_fte":4.5520000001,"rating":"Good","prev":{"asthma":4.051,"atrial_fibrillation":1.376,"copd":1.247,"coronary_heart_disease":1.479,"dementia":0.542,"depression":6.568,"diabetes":4.735,"hypertension":10.971,"obesity":6.214,"serious_mental_illness":1.427,"stroke_tia":1.238}},{"ods":"E85034","name":"GROSVENOR HOUSE SURGERY","pcn":"U16083","lat":51.513218,"lng":-0.332001,"list":5158,"gp_fte":1.28,"rating":"Requires improvement","prev":{"asthma":6.213,"atrial_fibrillation":2.189,"copd":1.368,"coronary_heart_disease":2.918,"dementia":0.711,"depression":7.572,"diabetes":11.614,"hypertension":17.272,"obesity":13.097,"serious_mental_illness":2.736,"stroke_tia":1.733}},{"ods":"E85035","name":"MOUNT MEDICAL CENTRE","pcn":"U98004","lat":51.444963,"lng":-0.393554,"list":7316,"gp_fte":1.2533333333,"rating":"Good","prev":{"asthma":3.64,"atrial_fibrillation":1.217,"copd":1.742,"coronary_heart_disease":2.489,"dementia":0.387,"depression":10.342,"diabetes":9.773,"hypertension":12.362,"obesity":14.972,"serious_mental_illness":0.913,"stroke_tia":1.217}},{"ods":"E85038","name":"PALACE SURGERY","pcn":"U62360","lat":51.478833,"lng":-0.220386,"list":5488,"gp_fte":1.9466666667,"rating":"Good","prev":{"asthma":4.032,"atrial_fibrillation":1.44,"copd":0.81,"coronary_heart_disease":1.458,"dementia":0.414,"depression":6.262,"diabetes":4.489,"hypertension":9.687,"obesity":5.917,"serious_mental_illness":0.972,"stroke_tia":1.098}},{"ods":"E85040","name":"WEST4 GPS","pcn":"U42276","lat":51.492886,"lng":-0.267528,"list":7796,"gp_fte":5.7439999999,"rating":"Good","prev":{"asthma":5.038,"atrial_fibrillation":2.52,"copd":1.241,"coronary_heart_disease":2.634,"dementia":0.608,"depression":7.131,"diabetes":5.658,"hypertension":13.284,"obesity":8.337,"serious_mental_illness":0.962,"stroke_tia":1.811}},{"ods":"E85041","name":"HANWELL HEALTH CENTRE (NAISH)","pcn":"U45703","lat":51.513942,"lng":-0.341176,"list":6217,"gp_fte":1.52,"rating":"Requires improvement","prev":{"asthma":5.53,"atrial_fibrillation":1.295,"copd":0.853,"coronary_heart_disease":2.416,"dementia":0.316,"depression":8.391,"diabetes":6.703,"hypertension":11.132,"obesity":8.431,"serious_mental_illness":1.168,"stroke_tia":0.947}},{"ods":"E85042","name":"THE NEW SURGERY","pcn":"U73163","lat":51.507468,"lng":-0.237993,"list":7850,"gp_fte":3.1626666667,"rating":"Good","prev":{"asthma":4.816,"atrial_fibrillation":1.132,"copd":1.24,"coronary_heart_disease":1.806,"dementia":0.189,"depression":11.3,"diabetes":5.276,"hypertension":8.895,"obesity":10.41,"serious_mental_illness":1.536,"stroke_tia":1.038}},{"ods":"E85045","name":"TWICKENHAM PARK MEDICAL CENTRE","pcn":"U98004","lat":51.438556,"lng":-0.380949,"list":3253,"gp_fte":0.6666666666,"rating":"Good","prev":{"asthma":6.524,"atrial_fibrillation":2.821,"copd":2.197,"coronary_heart_disease":3.474,"dementia":0.92,"depression":10.579,"diabetes":9.347,"hypertension":16.627,"obesity":11.731,"serious_mental_illness":1.247,"stroke_tia":2.138}},{"ods":"E85046","name":"EASTMEAD AVENUE SURGERY","pcn":"U45703","lat":51.532986,"lng":-0.363218,"list":6006,"gp_fte":3.3866666666,"rating":"Good","prev":{"asthma":6.222,"atrial_fibrillation":1.647,"copd":1.223,"coronary_heart_disease":3.506,"dementia":0.44,"depression":9.007,"diabetes":10.016,"hypertension":14.74,"obesity":19.844,"serious_mental_illness":1.044,"stroke_tia":1.467}},{"ods":"E85048","name":"DR CANISIUS & DR HASAN, PARKVIEW CFH&W","pcn":"U73163","lat":51.513966,"lng":-0.242568,"list":7359,"gp_fte":2.28,"rating":"Good","prev":{"asthma":5.7,"atrial_fibrillation":0.716,"copd":1.163,"coronary_heart_disease":1.56,"dementia":0.332,"depression":11.733,"diabetes":6.768,"hypertension":10.84,"obesity":11.701,"serious_mental_illness":1.214,"stroke_tia":1.189}},{"ods":"E85049","name":"BELMONT MEDICAL CENTRE","pcn":"U79587","lat":51.501854,"lng":-0.389626,"list":8441,"gp_fte":2.3333333334,"rating":"Good","prev":{"asthma":4.733,"atrial_fibrillation":0.707,"copd":0.441,"coronary_heart_disease":2.958,"dementia":0.278,"depression":7.022,"diabetes":14.249,"hypertension":14.475,"obesity":17.895,"serious_mental_illness":0.928,"stroke_tia":0.916}},{"ods":"E85050","name":"GREENFORD ROAD MED.CTR.","pcn":"U33609","lat":51.539938,"lng":-0.348936,"list":7637,"gp_fte":3.92,"rating":"Good","prev":{"asthma":4.939,"atrial_fibrillation":1.146,"copd":0.981,"coronary_heart_disease":2.954,"dementia":0.293,"depression":10.03,"diabetes":9.676,"hypertension":14.568,"obesity":13.274,"serious_mental_illness":1.413,"stroke_tia":1.286}},{"ods":"E85051","name":"GREENFORD AVENUE FHP","pcn":"U45703","lat":51.5213,"lng":-0.339822,"list":4765,"gp_fte":1.1066666667,"rating":"Good","prev":{"asthma":6.367,"atrial_fibrillation":2.015,"copd":2.439,"coronary_heart_disease":2.801,"dementia":1.028,"depression":6.328,"diabetes":10.968,"hypertension":18.017,"obesity":17.593,"serious_mental_illness":1.391,"stroke_tia":1.532}},{"ods":"E85052","name":"CRANFORD MEDICAL CENTRE","pcn":"U80710","lat":51.480666,"lng":-0.409996,"list":7293,"gp_fte":1.0133333333,"rating":"Good","prev":{"asthma":4.48,"atrial_fibrillation":0.791,"copd":0.912,"coronary_heart_disease":2.763,"dementia":0.429,"depression":6.478,"diabetes":13.349,"hypertension":13.155,"obesity":15.722,"serious_mental_illness":0.925,"stroke_tia":1.18}},{"ods":"E85053","name":"THE MEDICAL CENTRE","pcn":"U33609","lat":51.553227,"lng":-0.3727,"list":3376,"gp_fte":1.0,"rating":"Good","prev":{"asthma":7.158,"atrial_fibrillation":1.332,"copd":1.805,"coronary_heart_disease":3.048,"dementia":0.474,"depression":8.72,"diabetes":10.109,"hypertension":14.975,"obesity":11.132,"serious_mental_illness":1.213,"stroke_tia":1.539}},{"ods":"E85054","name":"HILLVIEW SURGERY","pcn":"U33609","lat":51.539897,"lng":-0.317437,"list":11569,"gp_fte":6.9989333334,"rating":"Good","prev":{"asthma":5.363,"atrial_fibrillation":1.573,"copd":0.773,"coronary_heart_disease":2.698,"dementia":0.396,"depression":6.385,"diabetes":9.658,"hypertension":14.176,"obesity":12.802,"serious_mental_illness":1.011,"stroke_tia":1.107}},{"ods":"E85055","name":"THE BUSH DOCTORS","pcn":"U18398","lat":51.506133,"lng":-0.22831,"list":10835,"gp_fte":8.9666666667,"rating":"Good","prev":{"asthma":4.283,"atrial_fibrillation":1.363,"copd":1.826,"coronary_heart_disease":1.951,"dementia":0.383,"depression":13.011,"diabetes":6.51,"hypertension":12.621,"obesity":9.489,"serious_mental_illness":2.218,"stroke_tia":1.523}},{"ods":"E85056","name":"ST DAVIDS PRACTICE","pcn":"U98004","lat":51.442847,"lng":-0.417065,"list":7133,"gp_fte":2.7733333334,"rating":"Good","prev":{"asthma":4.801,"atrial_fibrillation":1.289,"copd":1.723,"coronary_heart_disease":2.196,"dementia":0.5,"depression":7.343,"diabetes":9.529,"hypertension":13.006,"obesity":12.837,"serious_mental_illness":0.697,"stroke_tia":1.21}},{"ods":"E85057","name":"QUEENS WALK PRACTICE","pcn":"U95154","lat":51.524169,"lng":-0.313377,"list":10245,"gp_fte":4.8666666667,"rating":"Good","prev":{"asthma":5.22,"atrial_fibrillation":2.579,"copd":1.732,"coronary_heart_disease":2.998,"dementia":0.552,"depression":8.384,"diabetes":5.333,"hypertension":14.306,"obesity":9.264,"serious_mental_illness":1.018,"stroke_tia":1.694}},{"ods":"E85058","name":"BLUE WING FAMILY DOCTOR UNIT","pcn":"U24740","lat":51.468692,"lng":-0.375582,"list":7169,"gp_fte":2.7333333334,"rating":"Good","prev":{"asthma":6.995,"atrial_fibrillation":1.686,"copd":1.332,"coronary_heart_disease":3.345,"dementia":0.775,"depression":10.258,"diabetes":13.342,"hypertension":17.308,"obesity":14.895,"serious_mental_illness":1.224,"stroke_tia":2.026}},{"ods":"E85059","name":"CHESTNUT PRACTICE","pcn":"U24740","lat":51.470651,"lng":-0.3807,"list":7966,"gp_fte":2.7466666667,"rating":"Good","prev":{"asthma":4.03,"atrial_fibrillation":0.922,"copd":0.766,"coronary_heart_disease":2.921,"dementia":0.371,"depression":3.305,"diabetes":13.164,"hypertension":14.843,"obesity":19.637,"serious_mental_illness":0.814,"stroke_tia":1.125}},{"ods":"E85060","name":"KINGFISHER PRACTICE","pcn":"U24740","lat":51.460592,"lng":-0.361363,"list":6317,"gp_fte":3.5466666667,"rating":"Good","prev":{"asthma":6.663,"atrial_fibrillation":1.325,"copd":1.138,"coronary_heart_disease":2.993,"dementia":0.499,"depression":9.347,"diabetes":8.775,"hypertension":15.604,"obesity":15.255,"serious_mental_illness":0.92,"stroke_tia":1.746}},{"ods":"E85061","name":"WELCOME PRACTICE","pcn":"U79587","lat":51.502136,"lng":-0.383809,"list":6358,"gp_fte":1.9866666667,"rating":"Good","prev":{"asthma":5.258,"atrial_fibrillation":0.625,"copd":0.656,"coronary_heart_disease":2.093,"dementia":0.312,"depression":3.581,"diabetes":12.229,"hypertension":10.592,"obesity":18.734,"serious_mental_illness":1.156,"stroke_tia":0.734}},{"ods":"E85062","name":"HIYOS","pcn":"U80710","lat":51.472498,"lng":-0.365727,"list":13273,"gp_fte":4.28216,"rating":"Good","prev":{"asthma":2.552,"atrial_fibrillation":0.434,"copd":0.369,"coronary_heart_disease":1.296,"dementia":0.145,"depression":3.738,"diabetes":7.086,"hypertension":7.442,"obesity":10.204,"serious_mental_illness":0.586,"stroke_tia":0.681}},{"ods":"E85064","name":"WEST END SURGERY","pcn":"U87298","lat":51.536253,"lng":-0.398003,"list":7363,"gp_fte":2.3546666667,"rating":"Good","prev":{"asthma":5.684,"atrial_fibrillation":1.363,"copd":1.492,"coronary_heart_disease":2.425,"dementia":0.258,"depression":10.239,"diabetes":9.146,"hypertension":13.589,"obesity":17.363,"serious_mental_illness":1.392,"stroke_tia":1.105}},{"ods":"E85066","name":"THE BEDFORD PARK SURGERY","pcn":"U81324","lat":51.498751,"lng":-0.26769,"list":3945,"gp_fte":1.12,"rating":"Requires improvement","prev":{"asthma":4.727,"atrial_fibrillation":1.494,"copd":0.661,"coronary_heart_disease":2.18,"dementia":0.318,"depression":5.393,"diabetes":2.86,"hypertension":8.352,"obesity":4.388,"serious_mental_illness":0.735,"stroke_tia":1.004}},{"ods":"E85069","name":"OLDFIELD FAMILY PRACTICE","pcn":"U45703","lat":51.53174,"lng":-0.353802,"list":5624,"gp_fte":1.8026666667,"rating":"Good","prev":{"asthma":6.262,"atrial_fibrillation":1.664,"copd":1.32,"coronary_heart_disease":2.712,"dementia":0.47,"depression":8.304,"diabetes":9.653,"hypertension":14.051,"obesity":14.713,"serious_mental_illness":1.302,"stroke_tia":1.031}},{"ods":"E85071","name":"CLIFFORD HOUSE MEDICAL CENTRE","pcn":"U98004","lat":51.447822,"lng":-0.410532,"list":2259,"gp_fte":0.6666666666,"rating":null,"prev":{"asthma":3.919,"atrial_fibrillation":2.008,"copd":2.055,"coronary_heart_disease":2.055,"dementia":0.56,"depression":6.603,"diabetes":9.989,"hypertension":16.955,"obesity":19.53,"serious_mental_illness":0.841,"stroke_tia":1.401}},{"ods":"E85074","name":"WEST KENSINGTON GP SURGERY","pcn":"U55717","lat":51.499396,"lng":-0.221075,"list":6019,"gp_fte":1.9866666667,"rating":"Good","prev":{"asthma":3.741,"atrial_fibrillation":1.052,"copd":0.444,"coronary_heart_disease":1.381,"dementia":0.197,"depression":3.887,"diabetes":2.661,"hypertension":6.133,"obesity":4.646,"serious_mental_illness":1.102,"stroke_tia":0.822}},{"ods":"E85075","name":"GP SURGERY @ ACTON GARDENS","pcn":"U81324","lat":51.505498,"lng":-0.277621,"list":5017,"gp_fte":1.5466666667,"rating":"Requires improvement","prev":{"asthma":4.655,"atrial_fibrillation":1.269,"copd":1.656,"coronary_heart_disease":2.108,"dementia":0.344,"depression":12.058,"diabetes":5.757,"hypertension":13.075,"obesity":10.718,"serious_mental_illness":1.011,"stroke_tia":1.247}},{"ods":"E85077","name":"SHEPHERDS BUSH MEDICAL CENTRE","pcn":"U73163","lat":51.51102,"lng":-0.245344,"list":3242,"gp_fte":1.8666666666,"rating":"Good","prev":{"asthma":3.922,"atrial_fibrillation":1.341,"copd":0.726,"coronary_heart_disease":2.095,"dementia":0.279,"depression":4.655,"diabetes":8.14,"hypertension":11.732,"obesity":10.893,"serious_mental_illness":1.089,"stroke_tia":1.369}},{"ods":"E85083","name":"DR SIVANESAN & PARTNER","pcn":"U53562","lat":51.518747,"lng":-0.383535,"list":6518,"gp_fte":2.064,"rating":"Good","prev":{"asthma":7.592,"atrial_fibrillation":1.0,"copd":0.758,"coronary_heart_disease":3.213,"dementia":0.455,"depression":7.909,"diabetes":18.946,"hypertension":18.003,"obesity":14.766,"serious_mental_illness":1.046,"stroke_tia":1.03}},{"ods":"E85088","name":"ELMBANK SURGERY","pcn":"U45703","lat":51.525827,"lng":-0.338837,"list":6537,"gp_fte":1.28,"rating":"Good","prev":{"asthma":7.091,"atrial_fibrillation":1.604,"copd":1.666,"coronary_heart_disease":2.663,"dementia":0.358,"depression":18.504,"diabetes":9.591,"hypertension":14.25,"obesity":15.949,"serious_mental_illness":1.23,"stroke_tia":0.966}},{"ods":"E85090","name":"HAMMOND ROAD SURGERY","pcn":"U79587","lat":51.500568,"lng":-0.390645,"list":5521,"gp_fte":0.48,"rating":"Good","prev":{"asthma":5.317,"atrial_fibrillation":1.003,"copd":0.215,"coronary_heart_disease":2.903,"dementia":0.269,"depression":3.504,"diabetes":12.675,"hypertension":14.639,"obesity":15.467,"serious_mental_illness":0.663,"stroke_tia":1.236}},{"ods":"E85091","name":"BRUNSWICK SURGERY","pcn":"U95154","lat":51.534074,"lng":-0.299889,"list":3394,"gp_fte":1.0666666667,"rating":"Good","prev":{"asthma":4.44,"atrial_fibrillation":0.745,"copd":0.775,"coronary_heart_disease":2.711,"dementia":0.298,"depression":5.688,"diabetes":7.676,"hypertension":12.452,"obesity":16.624,"serious_mental_illness":0.745,"stroke_tia":0.685}},{"ods":"E85096","name":"MEDICAL CENTRE","pcn":"U80710","lat":51.47771,"lng":-0.364932,"list":6063,"gp_fte":3.8666666667,"rating":"Good","prev":{"asthma":5.169,"atrial_fibrillation":0.955,"copd":0.51,"coronary_heart_disease":2.931,"dementia":0.379,"depression":3.346,"diabetes":11.86,"hypertension":12.726,"obesity":19.295,"serious_mental_illness":0.922,"stroke_tia":1.152}},{"ods":"E85098","name":"ISLIP MANOR MEDICAL CENTRE","pcn":"U33609","lat":51.552065,"lng":-0.376469,"list":6422,"gp_fte":1.32,"rating":"Good","prev":{"asthma":4.765,"atrial_fibrillation":0.694,"copd":0.895,"coronary_heart_disease":1.42,"dementia":0.231,"depression":6.991,"diabetes":8.694,"hypertension":12.652,"obesity":12.78,"serious_mental_illness":0.802,"stroke_tia":0.756}},{"ods":"E85099","name":"THE AVENUE SURGERY","pcn":"U95154","lat":51.516933,"lng":-0.319172,"list":6971,"gp_fte":1.44,"rating":"Good","prev":{"asthma":4.625,"atrial_fibrillation":0.789,"copd":0.637,"coronary_heart_disease":1.456,"dementia":0.137,"depression":6.746,"diabetes":3.706,"hypertension":6.857,"obesity":7.873,"serious_mental_illness":1.411,"stroke_tia":0.607}},{"ods":"E85103","name":"LADY MARGARET ROAD MEDICAL CENTRE","pcn":"U53562","lat":51.515828,"lng":-0.380817,"list":3134,"gp_fte":0.8,"rating":"Requires improvement","prev":{"asthma":5.944,"atrial_fibrillation":1.087,"copd":0.404,"coronary_heart_disease":4.286,"dementia":0.621,"depression":2.981,"diabetes":20.535,"hypertension":22.019,"obesity":15.398,"serious_mental_illness":1.46,"stroke_tia":1.429}},{"ods":"E85107","name":"THE MILL HILL SURGERY","pcn":"U81324","lat":51.506993,"lng":-0.272506,"list":7549,"gp_fte":4.4193897526,"rating":"Good","prev":{"asthma":7.689,"atrial_fibrillation":1.023,"copd":1.219,"coronary_heart_disease":2.15,"dementia":0.511,"depression":9.222,"diabetes":7.368,"hypertension":10.935,"obesity":10.176,"serious_mental_illness":1.547,"stroke_tia":1.298}},{"ods":"E85108","name":"MANDEVILLE MEDICAL CENTRE","pcn":"U33609","lat":51.546012,"lng":-0.37329,"list":4813,"gp_fte":1.8533333334,"rating":"Good","prev":{"asthma":5.305,"atrial_fibrillation":1.425,"copd":1.384,"coronary_heart_disease":2.891,"dementia":0.163,"depression":8.56,"diabetes":10.258,"hypertension":14.902,"obesity":15.938,"serious_mental_illness":0.794,"stroke_tia":1.486}},{"ods":"E85109","name":"THE ACTON HEALTH CENTRE","pcn":"U81324","lat":51.512175,"lng":-0.276929,"list":3956,"gp_fte":0.6666666666,"rating":"Good","prev":{"asthma":3.775,"atrial_fibrillation":0.632,"copd":0.539,"coronary_heart_disease":1.663,"dementia":0.211,"depression":6.257,"diabetes":6.198,"hypertension":9.415,"obesity":10.784,"serious_mental_illness":1.405,"stroke_tia":1.218}},{"ods":"E85111","name":"PERIVALE MEDICAL CLINIC","pcn":"U33609","lat":51.536461,"lng":-0.333932,"list":5315,"gp_fte":1.0,"rating":"Good","prev":{"asthma":5.41,"atrial_fibrillation":1.036,"copd":1.147,"coronary_heart_disease":2.313,"dementia":0.426,"depression":6.113,"diabetes":8.28,"hypertension":13.302,"obesity":12.249,"serious_mental_illness":1.055,"stroke_tia":0.87}},{"ods":"E85112","name":"ELMTREES SURGERY","pcn":"U33609","lat":51.551192,"lng":-0.33924,"list":9146,"gp_fte":1.7333333333,"rating":"Good","prev":{"asthma":4.3,"atrial_fibrillation":0.739,"copd":0.474,"coronary_heart_disease":1.698,"dementia":0.185,"depression":9.215,"diabetes":7.793,"hypertension":11.885,"obesity":19.13,"serious_mental_illness":0.97,"stroke_tia":0.716}},{"ods":"E85113","name":"REDWOOD PRACTICE","pcn":"U24740","lat":51.462853,"lng":-0.365591,"list":6862,"gp_fte":3.0666666667,"rating":"Good","prev":{"asthma":5.142,"atrial_fibrillation":1.639,"copd":1.443,"coronary_heart_disease":3.025,"dementia":0.462,"depression":11.805,"diabetes":8.672,"hypertension":14.65,"obesity":15.811,"serious_mental_illness":1.134,"stroke_tia":1.471}},{"ods":"E85114","name":"CROSSLANDS SURGERY","pcn":"U80710","lat":51.490707,"lng":-0.378572,"list":7545,"gp_fte":5.3333333333,"rating":"Good","prev":{"asthma":7.639,"atrial_fibrillation":1.295,"copd":0.602,"coronary_heart_disease":3.991,"dementia":0.523,"depression":10.479,"diabetes":13.509,"hypertension":16.828,"obesity":18.09,"serious_mental_illness":0.798,"stroke_tia":1.57}},{"ods":"E85115","name":"PENTELOW PRACTICE","pcn":"U98004","lat":51.455897,"lng":-0.422302,"list":4061,"gp_fte":2.4727230859,"rating":"Good","prev":{"asthma":4.922,"atrial_fibrillation":1.999,"copd":2.323,"coronary_heart_disease":2.748,"dementia":0.525,"depression":11.661,"diabetes":10.26,"hypertension":14.014,"obesity":15.348,"serious_mental_illness":1.099,"stroke_tia":1.274}},{"ods":"E85116","name":"THE CUCKOO LANE PRACTICE","pcn":"U95154","lat":51.515022,"lng":-0.338457,"list":5828,"gp_fte":0.0,"rating":"Outstanding","prev":{"asthma":8.541,"atrial_fibrillation":1.666,"copd":1.309,"coronary_heart_disease":2.601,"dementia":0.374,"depression":10.564,"diabetes":6.766,"hypertension":13.463,"obesity":10.37,"serious_mental_illness":1.462,"stroke_tia":1.343}},{"ods":"E85118","name":"THE FULHAM MEDICAL CENTRE","pcn":"U62360","lat":51.48129,"lng":-0.205648,"list":6995,"gp_fte":3.8933333335,"rating":"Good","prev":{"asthma":4.242,"atrial_fibrillation":2.022,"copd":1.699,"coronary_heart_disease":2.11,"dementia":0.366,"depression":9.276,"diabetes":4.302,"hypertension":10.914,"obesity":5.725,"serious_mental_illness":1.289,"stroke_tia":1.831}},{"ods":"E85119","name":"THE MWH PRACTICE","pcn":"U53562","lat":51.499465,"lng":-0.386817,"list":13856,"gp_fte":3.5706666667,"rating":"Good","prev":{"asthma":4.137,"atrial_fibrillation":0.775,"copd":0.514,"coronary_heart_disease":2.725,"dementia":0.217,"depression":2.773,"diabetes":14.33,"hypertension":15.051,"obesity":15.14,"serious_mental_illness":1.0,"stroke_tia":0.993}},{"ods":"E85120","name":"THE ARGYLE SURGERY","pcn":"U95154","lat":51.520522,"lng":-0.325112,"list":7294,"gp_fte":4.6698666667,"rating":"Good","prev":{"asthma":6.221,"atrial_fibrillation":1.309,"copd":1.155,"coronary_heart_disease":2.323,"dementia":0.436,"depression":8.594,"diabetes":5.877,"hypertension":12.478,"obesity":9.803,"serious_mental_illness":1.374,"stroke_tia":1.502}},{"ods":"E85121","name":"GURU NANAK MEDICAL CENTRE","pcn":"U79587","lat":51.516236,"lng":-0.408598,"list":14552,"gp_fte":2.9333333333,"rating":"Good","prev":{"asthma":4.856,"atrial_fibrillation":0.699,"copd":0.384,"coronary_heart_disease":2.76,"dementia":0.24,"depression":5.071,"diabetes":11.992,"hypertension":13.402,"obesity":14.451,"serious_mental_illness":0.883,"stroke_tia":1.246}},{"ods":"E85122","name":"THE FLORENCE ROAD SURGERY","pcn":"U16083","lat":51.51077,"lng":-0.304666,"list":14153,"gp_fte":5.5066666667,"rating":"Good","prev":{"asthma":4.854,"atrial_fibrillation":1.297,"copd":0.792,"coronary_heart_disease":2.349,"dementia":0.386,"depression":6.252,"diabetes":4.784,"hypertension":10.883,"obesity":7.35,"serious_mental_illness":1.164,"stroke_tia":1.22}},{"ods":"E85123","name":"THE CORFTON ROAD SURGERY","pcn":"U95154","lat":51.520343,"lng":-0.299743,"list":8906,"gp_fte":3.7533333333,"rating":"Good","prev":{"asthma":3.811,"atrial_fibrillation":1.154,"copd":0.588,"coronary_heart_disease":1.699,"dementia":0.267,"depression":7.922,"diabetes":4.366,"hypertension":7.533,"obesity":7.44,"serious_mental_illness":0.748,"stroke_tia":0.801}},{"ods":"E85124","name":"GP AT HAND","pcn":"U19803","lat":51.532466,"lng":-0.14005,"list":95577,"gp_fte":1.56,"rating":"Good","prev":{"asthma":2.967,"atrial_fibrillation":0.186,"copd":0.142,"coronary_heart_disease":0.294,"dementia":0.032,"depression":3.281,"diabetes":1.081,"hypertension":2.517,"obesity":3.124,"serious_mental_illness":0.495,"stroke_tia":0.17}},{"ods":"E85125","name":"STERNDALE SURGERY","pcn":"U55717","lat":51.500827,"lng":-0.223455,"list":5805,"gp_fte":2.6373333334,"rating":"Good","prev":{"asthma":3.528,"atrial_fibrillation":0.985,"copd":1.074,"coronary_heart_disease":1.307,"dementia":0.233,"depression":6.689,"diabetes":3.262,"hypertension":8.811,"obesity":5.656,"serious_mental_illness":1.021,"stroke_tia":0.913}},{"ods":"E85126","name":"GREEN PRACTICE","pcn":"U24740","lat":51.470651,"lng":-0.377173,"list":10850,"gp_fte":0.8,"rating":"Requires improvement","prev":{"asthma":3.553,"atrial_fibrillation":0.724,"copd":0.461,"coronary_heart_disease":1.918,"dementia":0.407,"depression":2.969,"diabetes":10.089,"hypertension":12.564,"obesity":11.453,"serious_mental_illness":0.687,"stroke_tia":0.932}},{"ods":"E85127","name":"THE BARNABAS MEDICAL CTRE","pcn":"U33609","lat":51.553635,"lng":-0.352602,"list":8247,"gp_fte":4.5866666666,"rating":"Good","prev":{"asthma":4.834,"atrial_fibrillation":1.202,"copd":1.005,"coronary_heart_disease":2.126,"dementia":0.22,"depression":4.753,"diabetes":8.866,"hypertension":13.612,"obesity":10.577,"serious_mental_illness":0.82,"stroke_tia":1.283}},{"ods":"E85128","name":"SANDS END HEALTH CLINIC","pcn":"U62360","lat":51.472453,"lng":-0.193589,"list":12226,"gp_fte":5.9786666667,"rating":"Good","prev":{"asthma":4.835,"atrial_fibrillation":1.348,"copd":1.476,"coronary_heart_disease":1.763,"dementia":0.487,"depression":10.233,"diabetes":5.156,"hypertension":10.907,"obesity":9.359,"serious_mental_illness":1.157,"stroke_tia":1.388}},{"ods":"E85129","name":"THE MANSELL ROAD PRACTICE","pcn":"U45703","lat":51.52775,"lng":-0.363846,"list":5789,"gp_fte":0.6133333334,"rating":"Good","prev":{"asthma":6.996,"atrial_fibrillation":1.612,"copd":0.991,"coronary_heart_disease":3.913,"dementia":0.453,"depression":13.14,"diabetes":11.018,"hypertension":17.397,"obesity":14.5,"serious_mental_illness":1.192,"stroke_tia":1.461}},{"ods":"E85130","name":"CHISWICK FAMILY PRACTICE","pcn":"U81324","lat":51.504043,"lng":-0.271645,"list":4280,"gp_fte":2.1733333334,"rating":"Good","prev":{"asthma":5.455,"atrial_fibrillation":1.267,"copd":1.134,"coronary_heart_disease":2.156,"dementia":0.445,"depression":10.662,"diabetes":4.461,"hypertension":11.002,"obesity":11.68,"serious_mental_illness":0.822,"stroke_tia":1.067}},{"ods":"E85600","name":"WILLOW PRACTICE","pcn":"U24740","lat":51.464556,"lng":-0.36371,"list":7176,"gp_fte":3.2666666666,"rating":"Good","prev":{"asthma":5.315,"atrial_fibrillation":1.022,"copd":0.767,"coronary_heart_disease":2.66,"dementia":0.556,"depression":12.448,"diabetes":8.445,"hypertension":13.453,"obesity":16.164,"serious_mental_illness":1.112,"stroke_tia":1.217}},{"ods":"E85605","name":"BRENTFORD GROUP PRACTICE","pcn":"U56341","lat":51.487585,"lng":-0.312287,"list":8158,"gp_fte":4.4533333332,"rating":"Good","prev":{"asthma":5.377,"atrial_fibrillation":1.748,"copd":2.107,"coronary_heart_disease":3.017,"dementia":0.694,"depression":10.496,"diabetes":7.795,"hypertension":15.659,"obesity":14.01,"serious_mental_illness":1.377,"stroke_tia":1.616}},{"ods":"E85617","name":"ACTON TOWN MEDICAL CENTRE","pcn":"U81324","lat":51.506953,"lng":-0.285795,"list":415,"gp_fte":1.2,"rating":null,"prev":{"asthma":3.136,"atrial_fibrillation":0.754,"copd":0.852,"coronary_heart_disease":2.393,"dementia":0.229,"depression":5.418,"diabetes":5.157,"hypertension":9.833,"obesity":9.731,"serious_mental_illness":1.049,"stroke_tia":0.885}},{"ods":"E85623","name":"SOMERSET MEDICAL CENTRE","pcn":"U87298","lat":51.527475,"lng":-0.379935,"list":3036,"gp_fte":1.6666666666,"rating":"Good","prev":{"asthma":3.785,"atrial_fibrillation":0.854,"copd":0.717,"coronary_heart_disease":2.287,"dementia":0.137,"depression":6.372,"diabetes":10.785,"hypertension":11.267,"obesity":17.63,"serious_mental_illness":0.99,"stroke_tia":0.785}},{"ods":"E85624","name":"DR UPPAL & PARTN, PARKVIEW CTR FOR H&W","pcn":"U73163","lat":51.513471,"lng":-0.320636,"list":7119,"gp_fte":1.0373333333,"rating":"Good","prev":{"asthma":4.585,"atrial_fibrillation":1.04,"copd":0.83,"coronary_heart_disease":2.475,"dementia":0.337,"depression":5.743,"diabetes":13.381,"hypertension":14.384,"obesity":16.296,"serious_mental_illness":1.069,"stroke_tia":1.153}},{"ods":"E85628","name":"ELTHORNE PARK SURGERY","pcn":"U16083","lat":51.505283,"lng":-0.329714,"list":9829,"gp_fte":4.2666666667,"rating":"Good","prev":{"asthma":5.979,"atrial_fibrillation":1.362,"copd":0.799,"coronary_heart_disease":2.161,"dementia":0.84,"depression":10.842,"diabetes":5.297,"hypertension":11.807,"obesity":6.88,"serious_mental_illness":1.055,"stroke_tia":1.147}},{"ods":"E85633","name":"THE SOUTHALL MEDICAL CTR.","pcn":"U79587","lat":51.511789,"lng":-0.385716,"list":9437,"gp_fte":2.0,"rating":"Good","prev":{"asthma":3.638,"atrial_fibrillation":0.442,"copd":0.257,"coronary_heart_disease":1.623,"dementia":0.246,"depression":5.222,"diabetes":10.253,"hypertension":10.578,"obesity":13.368,"serious_mental_illness":0.606,"stroke_tia":0.657}},{"ods":"E85635","name":"THE VALE SURGERY","pcn":"U81324","lat":51.510057,"lng":-0.256152,"list":5528,"gp_fte":1.8666666666,"rating":"Good","prev":{"asthma":4.201,"atrial_fibrillation":1.062,"copd":0.779,"coronary_heart_disease":1.434,"dementia":0.39,"depression":5.731,"diabetes":6.476,"hypertension":8.8,"obesity":9.857,"serious_mental_illness":1.169,"stroke_tia":0.938}},{"ods":"E85636","name":"PARK MEDICAL CENTRE","pcn":"U18398","lat":51.501043,"lng":-0.247904,"list":14731,"gp_fte":8.4399999999,"rating":"Good","prev":{"asthma":4.245,"atrial_fibrillation":1.326,"copd":0.789,"coronary_heart_disease":1.577,"dementia":0.642,"depression":11.876,"diabetes":3.813,"hypertension":8.41,"obesity":6.734,"serious_mental_illness":1.375,"stroke_tia":1.41}},{"ods":"E85640","name":"THE CHURCHFIELD ROAD SURGERY","pcn":"U81324","lat":51.51131,"lng":-0.26853,"list":3426,"gp_fte":2.1333333334,"rating":"Good","prev":{"asthma":3.777,"atrial_fibrillation":0.897,"copd":0.955,"coronary_heart_disease":0.984,"dementia":0.26,"depression":3.675,"diabetes":4.839,"hypertension":8.476,"obesity":7.71,"serious_mental_illness":1.099,"stroke_tia":0.926}},{"ods":"E85643","name":"MEADOW VIEW","pcn":"U33609","lat":51.556477,"lng":-0.36786,"list":6938,"gp_fte":2.7733333334,"rating":"Good","prev":{"asthma":9.9,"atrial_fibrillation":0.657,"copd":0.537,"coronary_heart_disease":2.955,"dementia":0.284,"depression":6.323,"diabetes":16.503,"hypertension":17.236,"obesity":12.665,"serious_mental_illness":0.955,"stroke_tia":1.074}},{"ods":"E85649","name":"FULHAM CROSS MEDICAL CENTRE","pcn":"U62360","lat":51.487341,"lng":-0.220745,"list":4237,"gp_fte":0.2666666667,"rating":"Good","prev":{"asthma":3.336,"atrial_fibrillation":0.776,"copd":0.954,"coronary_heart_disease":1.198,"dementia":0.222,"depression":7.509,"diabetes":3.338,"hypertension":6.476,"obesity":4.649,"serious_mental_illness":0.798,"stroke_tia":0.688}},{"ods":"E85656","name":"SUNRISE MEDICAL CENTRE","pcn":"U79587","lat":51.511089,"lng":-0.384533,"list":5588,"gp_fte":1.6,"rating":"Good","prev":{"asthma":6.048,"atrial_fibrillation":0.536,"copd":0.905,"coronary_heart_disease":3.843,"dementia":0.406,"depression":5.334,"diabetes":15.406,"hypertension":11.934,"obesity":19.805,"serious_mental_illness":1.145,"stroke_tia":1.219}},{"ods":"E85657","name":"EALING PARK HEALTH CENTRE","pcn":"U16083","lat":51.499658,"lng":-0.30668,"list":11664,"gp_fte":4.8333333333,"rating":"Good","prev":{"asthma":4.952,"atrial_fibrillation":1.282,"copd":1.501,"coronary_heart_disease":1.83,"dementia":0.405,"depression":9.886,"diabetes":5.179,"hypertension":10.272,"obesity":8.258,"serious_mental_illness":1.063,"stroke_tia":0.928}},{"ods":"E85658","name":"HOLLY ROAD MEDICAL CENTRE","pcn":"U42276","lat":51.494544,"lng":-0.27745,"list":4540,"gp_fte":1.8533333333,"rating":"Good","prev":{"asthma":3.107,"atrial_fibrillation":1.62,"copd":0.869,"coronary_heart_disease":2.418,"dementia":0.493,"depression":6.339,"diabetes":4.997,"hypertension":12.488,"obesity":10.207,"serious_mental_illness":0.892,"stroke_tia":1.549}},{"ods":"E85659","name":"DR RK KUKAR, PARKVIEW CTR FOR H&W","pcn":"U73163","lat":51.516028,"lng":-0.242816,"list":2283,"gp_fte":5.0666666665,"rating":"Good","prev":{"asthma":3.364,"atrial_fibrillation":1.07,"copd":1.381,"coronary_heart_disease":2.094,"dementia":0.401,"depression":9.797,"diabetes":8.641,"hypertension":11.586,"obesity":10.493,"serious_mental_illness":1.515,"stroke_tia":1.159}},{"ods":"E85663","name":"THE SALUJA CLINIC","pcn":"U53562","lat":51.513297,"lng":-0.386561,"list":10081,"gp_fte":2.1333333334,"rating":"Good","prev":{"asthma":3.898,"atrial_fibrillation":0.436,"copd":0.237,"coronary_heart_disease":2.816,"dementia":0.237,"depression":5.85,"diabetes":14.1,"hypertension":16.487,"obesity":15.058,"serious_mental_illness":0.872,"stroke_tia":0.882}},{"ods":"E85677","name":"THE HORN LANE SURGERY","pcn":"U81324","lat":51.519086,"lng":-0.274469,"list":8356,"gp_fte":1.0666666667,"rating":"Good","prev":{"asthma":3.381,"atrial_fibrillation":0.466,"copd":0.604,"coronary_heart_disease":0.982,"dementia":0.151,"depression":6.553,"diabetes":4.687,"hypertension":6.27,"obesity":9.494,"serious_mental_illness":1.095,"stroke_tia":0.504}},{"ods":"E85680","name":"CLOISTER ROAD SURGERY","pcn":"U81324","lat":51.52534,"lng":-0.272603,"list":10217,"gp_fte":3.1741333334,"rating":"Good","prev":{"asthma":3.339,"atrial_fibrillation":1.132,"copd":0.921,"coronary_heart_disease":1.573,"dementia":0.288,"depression":8.49,"diabetes":4.482,"hypertension":8.094,"obesity":8.213,"serious_mental_illness":0.652,"stroke_tia":0.767}},{"ods":"E85681","name":"JERSEY PRACTICE","pcn":"U80710","lat":51.485102,"lng":-0.382338,"list":9021,"gp_fte":3.6391990499,"rating":"Requires improvement","prev":{"asthma":5.277,"atrial_fibrillation":0.961,"copd":0.623,"coronary_heart_disease":2.503,"dementia":0.634,"depression":4.873,"diabetes":11.473,"hypertension":12.599,"obesity":21.132,"serious_mental_illness":1.183,"stroke_tia":1.151}},{"ods":"E85682","name":"DORMERS WELLS MEDICAL CENTRE","pcn":"U53562","lat":51.517834,"lng":-0.366348,"list":5689,"gp_fte":0.0,"rating":null,"prev":{"asthma":4.721,"atrial_fibrillation":0.821,"copd":1.163,"coronary_heart_disease":2.771,"dementia":0.291,"depression":7.537,"diabetes":11.522,"hypertension":11.786,"obesity":16.258,"serious_mental_illness":1.283,"stroke_tia":0.992}},{"ods":"E85683","name":"GLEBE STREET SURGERY","pcn":"U42276","lat":51.49319,"lng":-0.262598,"list":3944,"gp_fte":1.9333333333,"rating":"Good","prev":{"asthma":3.832,"atrial_fibrillation":1.729,"copd":1.185,"coronary_heart_disease":1.951,"dementia":0.346,"depression":7.987,"diabetes":3.627,"hypertension":12.003,"obesity":6.466,"serious_mental_illness":0.889,"stroke_tia":1.531}},{"ods":"E85685","name":"THE LILYVILLE SURGERY","pcn":"U62360","lat":51.476489,"lng":-0.207936,"list":12393,"gp_fte":2.0666666667,"rating":"Good","prev":{"asthma":3.725,"atrial_fibrillation":1.771,"copd":0.977,"coronary_heart_disease":1.754,"dementia":0.735,"depression":7.813,"diabetes":3.377,"hypertension":8.627,"obesity":6.557,"serious_mental_illness":0.944,"stroke_tia":1.52}},{"ods":"E85687","name":"ACTON LANE MEDICAL CENTRE","pcn":"U81324","lat":51.507939,"lng":-0.273773,"list":5714,"gp_fte":1.0720000001,"rating":"Good","prev":{"asthma":3.879,"atrial_fibrillation":0.371,"copd":0.316,"coronary_heart_disease":0.668,"dementia":0.149,"depression":6.579,"diabetes":2.397,"hypertension":4.883,"obesity":8.509,"serious_mental_illness":0.761,"stroke_tia":0.464}},{"ods":"E85693","name":"CHISWICK MEDICAL PRACTICE","pcn":"U42276","lat":51.49008,"lng":-0.274599,"list":22316,"gp_fte":4.5756837397,"rating":"Good","prev":{"asthma":4.299,"atrial_fibrillation":1.473,"copd":0.941,"coronary_heart_disease":1.51,"dementia":0.364,"depression":8.862,"diabetes":4.106,"hypertension":9.714,"obesity":7.525,"serious_mental_illness":1.01,"stroke_tia":1.041}},{"ods":"E85694","name":"THE BOILEAU ROAD SURGERY","pcn":"U81324","lat":51.523083,"lng":-0.293646,"list":5165,"gp_fte":1.3066666667,"rating":"Good","prev":{"asthma":3.605,"atrial_fibrillation":0.955,"copd":0.805,"coronary_heart_disease":2.21,"dementia":0.599,"depression":9.352,"diabetes":5.408,"hypertension":10.974,"obesity":14.615,"serious_mental_illness":0.805,"stroke_tia":1.124}},{"ods":"E85696","name":"CLIFFORD ROAD SURGERY","pcn":"U80710","lat":51.481043,"lng":-0.400002,"list":7817,"gp_fte":3.2000000001,"rating":"Good","prev":{"asthma":3.4,"atrial_fibrillation":0.532,"copd":0.495,"coronary_heart_disease":1.764,"dementia":0.085,"depression":5.138,"diabetes":11.345,"hypertension":12.31,"obesity":18.211,"serious_mental_illness":0.278,"stroke_tia":0.556}},{"ods":"E85697","name":"GREENBROOK BEDFONT","pcn":"U98004","lat":51.45161,"lng":-0.426824,"list":6235,"gp_fte":2.7599999999,"rating":"Good","prev":{"asthma":4.246,"atrial_fibrillation":1.005,"copd":1.42,"coronary_heart_disease":1.914,"dementia":0.287,"depression":6.28,"diabetes":9.943,"hypertension":13.864,"obesity":15.72,"serious_mental_illness":0.862,"stroke_tia":1.117}},{"ods":"E85699","name":"GROVE VILLAGE MEDICAL CENTRE","pcn":"U98004","lat":51.449625,"lng":-0.42983,"list":6656,"gp_fte":1.6533333333,"rating":"Good","prev":{"asthma":6.622,"atrial_fibrillation":2.165,"copd":2.135,"coronary_heart_disease":3.202,"dementia":2.195,"depression":12.276,"diabetes":11.891,"hypertension":15.409,"obesity":16.477,"serious_mental_illness":1.413,"stroke_tia":2.465}},{"ods":"E85707","name":"SKYWAYS MEDICAL CENTRE","pcn":"U80710","lat":51.47986,"lng":-0.39592,"list":7383,"gp_fte":2.1333333333,"rating":"Good","prev":{"asthma":4.959,"atrial_fibrillation":0.946,"copd":1.482,"coronary_heart_disease":3.613,"dementia":0.564,"depression":10.914,"diabetes":10.75,"hypertension":13.336,"obesity":15.943,"serious_mental_illness":1.581,"stroke_tia":1.496}},{"ods":"E85708","name":"GILL MEDICAL PRACTICE","pcn":"U98004","lat":51.45264,"lng":-0.409523,"list":7800,"gp_fte":1.0666666667,"rating":null,"prev":{"asthma":4.569,"atrial_fibrillation":1.121,"copd":0.869,"coronary_heart_disease":1.865,"dementia":0.29,"depression":7.452,"diabetes":9.668,"hypertension":12.498,"obesity":12.255,"serious_mental_illness":0.806,"stroke_tia":1.159}},{"ods":"E85712","name":"GOODCARE PRACTICE","pcn":"U87298","lat":51.532013,"lng":-0.379618,"list":10555,"gp_fte":1.6666666666,"rating":"Good","prev":{"asthma":6.188,"atrial_fibrillation":0.649,"copd":1.131,"coronary_heart_disease":1.974,"dementia":0.343,"depression":8.79,"diabetes":11.611,"hypertension":10.818,"obesity":20.414,"serious_mental_illness":1.335,"stroke_tia":0.751}},{"ods":"E85713","name":"HOUNSLOW FAMILY PRACTICE","pcn":"U24740","lat":51.475301,"lng":-0.374086,"list":6366,"gp_fte":1.0,"rating":"Good","prev":{"asthma":4.099,"atrial_fibrillation":0.76,"copd":0.419,"coronary_heart_disease":2.762,"dementia":0.435,"depression":5.049,"diabetes":9.913,"hypertension":11.608,"obesity":19.108,"serious_mental_illness":1.024,"stroke_tia":1.055}},{"ods":"E85715","name":"BROADMEAD SURGERY","pcn":"U87298","lat":51.534779,"lng":-0.379611,"list":7944,"gp_fte":3.2501333333,"rating":"Good","prev":{"asthma":5.79,"atrial_fibrillation":1.323,"copd":1.272,"coronary_heart_disease":2.204,"dementia":0.353,"depression":9.774,"diabetes":8.939,"hypertension":12.785,"obesity":13.935,"serious_mental_illness":1.524,"stroke_tia":1.272}},{"ods":"E85716","name":"BATH ROAD SURGERY","pcn":"U24740","lat":51.473158,"lng":-0.386194,"list":16176,"gp_fte":4.7821333334,"rating":"Good","prev":{"asthma":4.625,"atrial_fibrillation":0.699,"copd":0.979,"coronary_heart_disease":2.246,"dementia":0.661,"depression":8.277,"diabetes":11.508,"hypertension":14.374,"obesity":19.779,"serious_mental_illness":1.061,"stroke_tia":1.042}},{"ods":"E85718","name":"HATTON MEDICAL PRACTICE","pcn":"U98004","lat":51.458266,"lng":-0.428635,"list":4947,"gp_fte":0.8,"rating":"Good","prev":{"asthma":3.489,"atrial_fibrillation":0.82,"copd":0.94,"coronary_heart_disease":2.34,"dementia":0.32,"depression":6.325,"diabetes":11.194,"hypertension":14.483,"obesity":14.792,"serious_mental_illness":0.62,"stroke_tia":1.16}},{"ods":"E85719","name":"ASHVILLE SURGERY","pcn":"U62360","lat":51.477067,"lng":-0.206308,"list":9950,"gp_fte":5.5333333333,"rating":"Good","prev":{"asthma":3.844,"atrial_fibrillation":1.009,"copd":0.62,"coronary_heart_disease":1.63,"dementia":0.222,"depression":8.933,"diabetes":2.697,"hypertension":6.974,"obesity":3.956,"serious_mental_illness":0.954,"stroke_tia":0.861}},{"ods":"E85721","name":"THE TOWN SURGERY","pcn":"U53562","lat":51.516849,"lng":-0.391016,"list":2193,"gp_fte":0.5333333333,"rating":"Good","prev":{"asthma":6.355,"atrial_fibrillation":0.312,"copd":0.357,"coronary_heart_disease":1.205,"dementia":0.134,"depression":6.78,"diabetes":16.391,"hypertension":14.643,"obesity":19.209,"serious_mental_illness":1.652,"stroke_tia":0.268}},{"ods":"E85725","name":"THE GROVE MEDICAL PRACTICE","pcn":"U33609","lat":51.555848,"lng":-0.362922,"list":7437,"gp_fte":3.2274666667,"rating":"Good","prev":{"asthma":5.541,"atrial_fibrillation":1.155,"copd":0.969,"coronary_heart_disease":2.058,"dementia":0.239,"depression":2.543,"diabetes":9.816,"hypertension":12.895,"obesity":10.927,"serious_mental_illness":1.155,"stroke_tia":1.248}},{"ods":"E85726","name":"MATTOCK LANE HEALTH CENTRE","pcn":"U95154","lat":51.510317,"lng":-0.320532,"list":3261,"gp_fte":1.2266666667,"rating":"Good","prev":{"asthma":4.376,"atrial_fibrillation":1.269,"copd":0.619,"coronary_heart_disease":1.888,"dementia":0.402,"depression":7.491,"diabetes":6.469,"hypertension":15.413,"obesity":10.221,"serious_mental_illness":1.114,"stroke_tia":1.083}},{"ods":"E85734","name":"QUEENS PARK MEDICAL PRACTICE","pcn":"U98004","lat":51.445788,"lng":-0.413758,"list":5804,"gp_fte":2.0266666666,"rating":"Good","prev":{"asthma":4.773,"atrial_fibrillation":1.096,"copd":0.916,"coronary_heart_disease":2.143,"dementia":0.344,"depression":6.157,"diabetes":12.299,"hypertension":13.332,"obesity":12.811,"serious_mental_illness":1.096,"stroke_tia":0.982}},{"ods":"E85735","name":"BRENTFORD FAMILY PRACTICE","pcn":"U56341","lat":51.487413,"lng":-0.311413,"list":6935,"gp_fte":0.8,"rating":"Good","prev":{"asthma":5.027,"atrial_fibrillation":1.324,"copd":0.843,"coronary_heart_disease":1.52,"dementia":0.331,"depression":9.821,"diabetes":5.5,"hypertension":8.441,"obesity":10.43,"serious_mental_illness":0.978,"stroke_tia":1.083}},{"ods":"E85736","name":"LITTLE PARK SURGERY","pcn":"U98004","lat":51.445886,"lng":-0.391447,"list":7560,"gp_fte":7.2000000001,"rating":"Good","prev":{"asthma":6.411,"atrial_fibrillation":1.205,"copd":1.598,"coronary_heart_disease":2.262,"dementia":0.393,"depression":9.924,"diabetes":9.798,"hypertension":13.719,"obesity":19.296,"serious_mental_illness":1.043,"stroke_tia":1.219}},{"ods":"E85739","name":"HMC HEALTH HESTON GREAT WEST","pcn":"U80710","lat":51.47975,"lng":-0.39036,"list":10412,"gp_fte":0.0,"rating":"Good","prev":{"asthma":5.512,"atrial_fibrillation":0.921,"copd":0.787,"coronary_heart_disease":2.438,"dementia":0.365,"depression":6.472,"diabetes":13.105,"hypertension":13.198,"obesity":14.051,"serious_mental_illness":1.238,"stroke_tia":0.979}},{"ods":"E85743","name":"ST. GEORGES MEDICAL CTR.","pcn":"U53562","lat":51.522777,"lng":-0.376759,"list":3051,"gp_fte":0.9333333333,"rating":"Good","prev":{"asthma":5.792,"atrial_fibrillation":0.926,"copd":0.607,"coronary_heart_disease":1.916,"dementia":0.192,"depression":6.554,"diabetes":11.923,"hypertension":12.197,"obesity":16.687,"serious_mental_illness":1.724,"stroke_tia":0.99}},{"ods":"E85744","name":"ARGYLE HEALTH-ISLEWORTH PRACTICE","pcn":"U56341","lat":51.47209,"lng":-0.336501,"list":9421,"gp_fte":1.1733333333,"rating":null,"prev":{"asthma":5.092,"atrial_fibrillation":1.112,"copd":1.294,"coronary_heart_disease":2.255,"dementia":0.324,"depression":8.312,"diabetes":7.396,"hypertension":12.597,"obesity":13.431,"serious_mental_illness":1.183,"stroke_tia":1.011}},{"ods":"E85745","name":"JUBILEE GARDENS MEDICAL CENTRE","pcn":"U87298","lat":51.520586,"lng":-0.379247,"list":7992,"gp_fte":2.0,"rating":"Good","prev":{"asthma":6.464,"atrial_fibrillation":0.817,"copd":0.98,"coronary_heart_disease":3.43,"dementia":0.641,"depression":7.586,"diabetes":15.762,"hypertension":20.151,"obesity":19.151,"serious_mental_illness":1.319,"stroke_tia":1.005}},{"ods":"E85746","name":"GROVE PARK TERRACE SURGERY","pcn":"U42276","lat":51.486119,"lng":-0.278955,"list":3841,"gp_fte":2.64,"rating":"Good","prev":{"asthma":4.168,"atrial_fibrillation":0.804,"copd":0.754,"coronary_heart_disease":1.131,"dementia":0.126,"depression":9.952,"diabetes":4.01,"hypertension":8.195,"obesity":8.544,"serious_mental_illness":1.156,"stroke_tia":0.679}},{"ods":"E85748","name":"THE MEDICAL CENTRE, DR KUKAR","pcn":"U73163","lat":51.50989,"lng":-0.252666,"list":6013,"gp_fte":2.8799999999,"rating":"Good","prev":{"asthma":2.711,"atrial_fibrillation":0.46,"copd":0.41,"coronary_heart_disease":1.362,"dementia":0.181,"depression":7.408,"diabetes":6.147,"hypertension":7.682,"obesity":8.092,"serious_mental_illness":1.362,"stroke_tia":0.936}},{"ods":"E85750","name":"SPRING GROVE MEDICAL PRACTICE","pcn":"U56341","lat":51.476194,"lng":-0.35142,"list":7070,"gp_fte":2.4888,"rating":"Good","prev":{"asthma":4.306,"atrial_fibrillation":0.994,"copd":0.583,"coronary_heart_disease":3.089,"dementia":0.358,"depression":8.579,"diabetes":11.18,"hypertension":13.998,"obesity":16.708,"serious_mental_illness":0.57,"stroke_tia":1.299}},{"ods":"E86001","name":"MOUNTWOOD SURGERY","pcn":"U07392","lat":51.610094,"lng":-0.424034,"list":11230,"gp_fte":7.9706666668,"rating":"Good","prev":{"asthma":5.752,"atrial_fibrillation":2.557,"copd":1.516,"coronary_heart_disease":4.333,"dementia":1.417,"depression":9.767,"diabetes":9.627,"hypertension":18.075,"obesity":12.84,"serious_mental_illness":1.023,"stroke_tia":1.731}},{"ods":"E86004","name":"THE MEDICAL CENTRE","pcn":"U36510","lat":51.502683,"lng":-0.470283,"list":11129,"gp_fte":1.0666666667,"rating":"Good","prev":{"asthma":4.592,"atrial_fibrillation":1.466,"copd":1.161,"coronary_heart_disease":2.204,"dementia":0.432,"depression":13.018,"diabetes":8.621,"hypertension":12.614,"obesity":16.832,"serious_mental_illness":0.792,"stroke_tia":1.053}},{"ods":"E86005","name":"THE OAKLAND MEDICAL CENTRE","pcn":"U36510","lat":51.545847,"lng":-0.450994,"list":6945,"gp_fte":2.7733333333,"rating":"Good","prev":{"asthma":5.954,"atrial_fibrillation":1.835,"copd":1.266,"coronary_heart_disease":2.745,"dementia":0.811,"depression":8.639,"diabetes":8.486,"hypertension":15.446,"obesity":15.445,"serious_mental_illness":0.697,"stroke_tia":1.422}},{"ods":"E86006","name":"THE DEVONSHIRE LODGE PRACTICE","pcn":"U07392","lat":51.579658,"lng":-0.400929,"list":8317,"gp_fte":2.8266666668,"rating":"Good","prev":{"asthma":6.252,"atrial_fibrillation":2.796,"copd":1.481,"coronary_heart_disease":3.369,"dementia":1.481,"depression":14.107,"diabetes":7.819,"hypertension":16.01,"obesity":10.345,"serious_mental_illness":0.944,"stroke_tia":2.043}},{"ods":"E86007","name":"HAREFIELD PRACTICE","pcn":"U07392","lat":51.601321,"lng":-0.478609,"list":8845,"gp_fte":3.1954666668,"rating":"Good","prev":{"asthma":7.426,"atrial_fibrillation":3.106,"copd":2.56,"coronary_heart_disease":3.451,"dementia":1.358,"depression":10.059,"diabetes":8.569,"hypertension":15.663,"obesity":15.184,"serious_mental_illness":0.991,"stroke_tia":2.048}},{"ods":"E86009","name":"BELMONT MEDICAL CENTRE","pcn":"U51930","lat":51.544511,"lng":-0.47562,"list":8883,"gp_fte":3.6399999999,"rating":"Good","prev":{"asthma":5.442,"atrial_fibrillation":1.686,"copd":1.193,"coronary_heart_disease":2.288,"dementia":0.438,"depression":11.31,"diabetes":6.833,"hypertension":13.105,"obesity":14.614,"serious_mental_illness":0.909,"stroke_tia":1.084}},{"ods":"E86010","name":"YIEWSLEY FAMILY PRACTICE","pcn":"U36510","lat":51.511345,"lng":-0.469077,"list":16519,"gp_fte":3.24,"rating":"Good","prev":{"asthma":5.795,"atrial_fibrillation":1.079,"copd":1.265,"coronary_heart_disease":2.278,"dementia":0.456,"depression":17.004,"diabetes":7.737,"hypertension":17.395,"obesity":22.656,"serious_mental_illness":1.397,"stroke_tia":1.151}},{"ods":"E86011","name":"OXFORD DRIVE MEDICAL CENTRE","pcn":"U35513","lat":51.567914,"lng":-0.398748,"list":6241,"gp_fte":1.9066666666,"rating":"Good","prev":{"asthma":6.172,"atrial_fibrillation":2.354,"copd":1.331,"coronary_heart_disease":3.036,"dementia":0.568,"depression":13.215,"diabetes":7.637,"hypertension":15.554,"obesity":13.861,"serious_mental_illness":0.844,"stroke_tia":1.932}},{"ods":"E86012","name":"WOOD LANE MEDICAL CENTRE","pcn":"U35513","lat":51.571859,"lng":-0.423703,"list":11123,"gp_fte":4.28,"rating":"Good","prev":{"asthma":5.661,"atrial_fibrillation":2.728,"copd":1.514,"coronary_heart_disease":2.878,"dementia":0.691,"depression":10.626,"diabetes":7.144,"hypertension":15.064,"obesity":11.268,"serious_mental_illness":0.762,"stroke_tia":1.798}},{"ods":"E86014","name":"CEDARS MEDICAL CENTRE","pcn":"U35513","lat":51.569867,"lng":-0.408657,"list":7560,"gp_fte":3.3066666666,"rating":"Good","prev":{"asthma":5.057,"atrial_fibrillation":1.256,"copd":0.8,"coronary_heart_disease":1.877,"dementia":0.386,"depression":11.341,"diabetes":5.554,"hypertension":11.565,"obesity":13.738,"serious_mental_illness":0.566,"stroke_tia":0.856}},{"ods":"E86015","name":"CENTRAL UXBRIDGE SURGERY","pcn":"U51930","lat":51.542217,"lng":-0.476236,"list":17111,"gp_fte":6.008,"rating":"Good","prev":{"asthma":5.858,"atrial_fibrillation":2.254,"copd":1.695,"coronary_heart_disease":3.063,"dementia":0.636,"depression":12.454,"diabetes":8.216,"hypertension":13.955,"obesity":14.676,"serious_mental_illness":0.952,"stroke_tia":1.547}},{"ods":"E86016","name":"THE PINE MEDICAL CENTRE","pcn":"U91930","lat":51.526491,"lng":-0.419766,"list":6091,"gp_fte":2.9333333334,"rating":"Good","prev":{"asthma":5.287,"atrial_fibrillation":1.272,"copd":1.288,"coronary_heart_disease":2.686,"dementia":0.864,"depression":7.081,"diabetes":10.156,"hypertension":14.151,"obesity":15.902,"serious_mental_illness":1.052,"stroke_tia":1.288}},{"ods":"E86017","name":"HAYES MEDICAL CENTRE","pcn":"U51498","lat":51.508439,"lng":-0.427056,"list":21951,"gp_fte":2.2133333333,"rating":"Good","prev":{"asthma":3.162,"atrial_fibrillation":0.623,"copd":0.507,"coronary_heart_disease":1.495,"dementia":0.268,"depression":5.395,"diabetes":7.921,"hypertension":9.254,"obesity":13.582,"serious_mental_illness":0.77,"stroke_tia":0.609}},{"ods":"E86018","name":"TOWNFIELD DOCTORS SURGERY","pcn":"U51498","lat":51.517748,"lng":-0.419361,"list":7975,"gp_fte":3.8933333334,"rating":"Good","prev":{"asthma":5.538,"atrial_fibrillation":1.394,"copd":1.515,"coronary_heart_disease":2.557,"dementia":1.042,"depression":10.606,"diabetes":12.879,"hypertension":16.626,"obesity":20.621,"serious_mental_illness":1.2,"stroke_tia":1.369}},{"ods":"E86019","name":"THE WARREN PRACTICE","pcn":"U51498","lat":51.524208,"lng":-0.417688,"list":6877,"gp_fte":2.8466666667,"rating":"Requires improvement","prev":{"asthma":6.576,"atrial_fibrillation":1.758,"copd":1.479,"coronary_heart_disease":3.281,"dementia":0.527,"depression":7.764,"diabetes":13.329,"hypertension":18.354,"obesity":17.671,"serious_mental_illness":0.674,"stroke_tia":1.509}},{"ods":"E86020","name":"YEADING COURT SURGERY","pcn":"U91930","lat":51.528082,"lng":-0.405654,"list":5179,"gp_fte":2.1333333334,"rating":"Good","prev":{"asthma":5.808,"atrial_fibrillation":1.034,"copd":1.448,"coronary_heart_disease":2.331,"dementia":0.282,"depression":11.921,"diabetes":10.825,"hypertension":13.367,"obesity":16.556,"serious_mental_illness":1.73,"stroke_tia":0.94}},{"ods":"E86022","name":"THE ABBOTSBURY PRACTICE","pcn":"U35513","lat":51.581064,"lng":-0.398989,"list":5860,"gp_fte":3.4253333334,"rating":"Good","prev":{"asthma":5.005,"atrial_fibrillation":2.8,"copd":1.08,"coronary_heart_disease":3.644,"dementia":0.759,"depression":10.273,"diabetes":8.405,"hypertension":18.252,"obesity":13.942,"serious_mental_illness":0.675,"stroke_tia":2.598}},{"ods":"E86024","name":"KING EDWARDS MEDICAL CENTRE","pcn":"U35513","lat":51.568828,"lng":-0.444127,"list":4227,"gp_fte":2.7594666667,"rating":"Good","prev":{"asthma":8.058,"atrial_fibrillation":2.532,"copd":1.46,"coronary_heart_disease":4.22,"dementia":0.958,"depression":18.065,"diabetes":8.879,"hypertension":18.75,"obesity":13.324,"serious_mental_illness":1.026,"stroke_tia":2.007}},{"ods":"E86026","name":"PARKVIEW SURGERY","pcn":"U91930","lat":51.525309,"lng":-0.442996,"list":8224,"gp_fte":2.0666666667,"rating":null,"prev":{"asthma":5.315,"atrial_fibrillation":1.247,"copd":1.547,"coronary_heart_disease":2.123,"dementia":0.312,"depression":10.826,"diabetes":8.917,"hypertension":12.594,"obesity":14.647,"serious_mental_illness":1.139,"stroke_tia":1.331}},{"ods":"E86027","name":"OTTERFIELD MEDICAL CENTRE","pcn":"U36510","lat":51.514671,"lng":-0.4672,"list":7166,"gp_fte":3.5866666666,"rating":"Good","prev":{"asthma":6.047,"atrial_fibrillation":1.87,"copd":2.219,"coronary_heart_disease":3.112,"dementia":1.605,"depression":15.76,"diabetes":10.495,"hypertension":14.415,"obesity":18.854,"serious_mental_illness":1.158,"stroke_tia":1.73}},{"ods":"E86028","name":"EASTBURY SURGERY","pcn":"U07392","lat":51.613645,"lng":-0.423928,"list":8264,"gp_fte":3.9466666668,"rating":"Good","prev":{"asthma":5.698,"atrial_fibrillation":2.493,"copd":1.026,"coronary_heart_disease":3.305,"dementia":1.05,"depression":9.449,"diabetes":8.824,"hypertension":16.762,"obesity":12.534,"serious_mental_illness":1.098,"stroke_tia":1.742}},{"ods":"E86029","name":"CEDAR BROOK PRACTICE","pcn":"U51498","lat":51.530869,"lng":-0.423103,"list":10463,"gp_fte":4.16,"rating":"Good","prev":{"asthma":6.086,"atrial_fibrillation":1.583,"copd":1.602,"coronary_heart_disease":2.289,"dementia":0.782,"depression":13.153,"diabetes":9.981,"hypertension":14.132,"obesity":16.013,"serious_mental_illness":1.244,"stroke_tia":1.253}},{"ods":"E86030","name":"BRUNEL MEDICAL CENTRE","pcn":"U51930","lat":51.537011,"lng":-0.471392,"list":11725,"gp_fte":1.94,"rating":"Good","prev":{"asthma":2.067,"atrial_fibrillation":0.454,"copd":0.537,"coronary_heart_disease":0.553,"dementia":0.116,"depression":5.641,"diabetes":1.98,"hypertension":4.428,"obesity":7.171,"serious_mental_illness":0.843,"stroke_tia":0.306}},{"ods":"E86033","name":"ST MARTINS MEDICAL CENTRE","pcn":"U35513","lat":51.575337,"lng":-0.429056,"list":6506,"gp_fte":3.9199999999,"rating":"Good","prev":{"asthma":5.5,"atrial_fibrillation":2.107,"copd":1.299,"coronary_heart_disease":2.772,"dementia":0.871,"depression":10.27,"diabetes":8.645,"hypertension":15.302,"obesity":13.501,"serious_mental_illness":0.903,"stroke_tia":1.331}},{"ods":"E86034","name":"CHURCH ROAD SURGERY","pcn":"Unaligned","lat":51.532534,"lng":-0.477238,"list":2638,"gp_fte":0.1333333333,"rating":"Good","prev":{"asthma":4.086,"atrial_fibrillation":1.554,"copd":1.813,"coronary_heart_disease":2.443,"dementia":0.444,"depression":9.995,"diabetes":8.529,"hypertension":13.101,"obesity":12.721,"serious_mental_illness":1.443,"stroke_tia":1.147}},{"ods":"E86036","name":"HILLINGDON HEALTH CENTRE","pcn":"U51930","lat":51.549467,"lng":-0.44811,"list":9003,"gp_fte":3.4266666667,"rating":null,"prev":{"asthma":5.82,"atrial_fibrillation":2.022,"copd":1.102,"coronary_heart_disease":2.896,"dementia":1.079,"depression":9.434,"diabetes":8.534,"hypertension":15.309,"obesity":24.487,"serious_mental_illness":0.761,"stroke_tia":1.59}},{"ods":"E86038","name":"GLENDALE MEDICAL CENTRE","pcn":"U51498","lat":51.490121,"lng":-0.439672,"list":7113,"gp_fte":2.7066666667,"rating":"Good","prev":{"asthma":5.329,"atrial_fibrillation":1.279,"copd":1.432,"coronary_heart_disease":3.559,"dementia":0.348,"depression":8.255,"diabetes":10.52,"hypertension":15.779,"obesity":18.687,"serious_mental_illness":0.57,"stroke_tia":1.349}},{"ods":"E86041","name":"ACRE SURGERY","pcn":"U07392","lat":51.603805,"lng":-0.409553,"list":5485,"gp_fte":2.984,"rating":"Good","prev":{"asthma":4.864,"atrial_fibrillation":1.655,"copd":1.074,"coronary_heart_disease":2.87,"dementia":0.475,"depression":11.757,"diabetes":9.326,"hypertension":14.789,"obesity":14.331,"serious_mental_illness":0.775,"stroke_tia":1.127}},{"ods":"E86042","name":"THE HIGH STREET PRACTICE","pcn":"U36510","lat":51.509132,"lng":-0.469798,"list":7730,"gp_fte":3.2611752031,"rating":"Good","prev":{"asthma":5.676,"atrial_fibrillation":0.947,"copd":1.54,"coronary_heart_disease":2.171,"dementia":0.492,"depression":11.921,"diabetes":9.026,"hypertension":12.811,"obesity":19.149,"serious_mental_illness":1.01,"stroke_tia":0.984}},{"ods":"E86605","name":"LADYGATE LANE MEDICAL PRACTICE","pcn":"U35513","lat":51.584071,"lng":-0.440404,"list":2558,"gp_fte":1.0666666667,"rating":"Good","prev":{"asthma":7.175,"atrial_fibrillation":2.142,"copd":1.683,"coronary_heart_disease":3.06,"dementia":0.765,"depression":15.655,"diabetes":8.147,"hypertension":15.914,"obesity":12.761,"serious_mental_illness":1.148,"stroke_tia":1.53}},{"ods":"E86609","name":"NORTH HYDE ROAD SURGERY","pcn":"U51498","lat":51.505835,"lng":-0.427684,"list":10203,"gp_fte":3.218,"rating":"Good","prev":{"asthma":4.132,"atrial_fibrillation":0.504,"copd":0.454,"coronary_heart_disease":1.643,"dementia":0.171,"depression":7.838,"diabetes":7.611,"hypertension":8.164,"obesity":21.364,"serious_mental_illness":0.685,"stroke_tia":0.595}},{"ods":"E86610","name":"WILLOW TREE SURGERY","pcn":"U91930","lat":51.52674,"lng":-0.394886,"list":3303,"gp_fte":1.0666666667,"rating":"Requires improvement","prev":{"asthma":7.232,"atrial_fibrillation":1.214,"copd":1.608,"coronary_heart_disease":2.761,"dementia":0.061,"depression":15.305,"diabetes":9.225,"hypertension":13.805,"obesity":16.993,"serious_mental_illness":1.001,"stroke_tia":1.032}},{"ods":"E86612","name":"SHAKESPEARE HEALTH CENTRE","pcn":"U91930","lat":51.514292,"lng":-0.430116,"list":6018,"gp_fte":3.8400000001,"rating":"Good","prev":{"asthma":4.948,"atrial_fibrillation":0.648,"copd":0.42,"coronary_heart_disease":2.276,"dementia":0.28,"depression":10.524,"diabetes":11.172,"hypertension":12.725,"obesity":20.04,"serious_mental_illness":0.84,"stroke_tia":0.875}},{"ods":"E86615","name":"ACREFIELD SURGERY","pcn":"U07392","lat":51.562167,"lng":-0.387408,"list":2534,"gp_fte":0.4373333334,"rating":"Good","prev":{"asthma":5.102,"atrial_fibrillation":1.215,"copd":1.101,"coronary_heart_disease":2.583,"dementia":1.177,"depression":14.549,"diabetes":10.411,"hypertension":15.648,"obesity":16.004,"serious_mental_illness":1.063,"stroke_tia":1.405}},{"ods":"E86618","name":"CAREPOINT PRACTICE","pcn":"U07392","lat":51.601885,"lng":-0.409595,"list":7136,"gp_fte":2.1333333334,"rating":"Good","prev":{"asthma":4.923,"atrial_fibrillation":1.846,"copd":1.344,"coronary_heart_disease":2.117,"dementia":0.353,"depression":10.276,"diabetes":7.354,"hypertension":13.382,"obesity":15.344,"serious_mental_illness":0.787,"stroke_tia":1.194}},{"ods":"E86619","name":"WALLASEY MEDICAL CENTRE","pcn":"U35513","lat":51.565986,"lng":-0.453724,"list":3310,"gp_fte":1.4133333334,"rating":"Good","prev":{"asthma":4.626,"atrial_fibrillation":1.397,"copd":0.815,"coronary_heart_disease":2.445,"dementia":0.378,"depression":4.377,"diabetes":6.228,"hypertension":10.565,"obesity":11.898,"serious_mental_illness":0.349,"stroke_tia":0.902}},{"ods":"E86620","name":"WEST LONDON MEDICAL CENTRE","pcn":"Unaligned","lat":51.526671,"lng":-0.453787,"list":5164,"gp_fte":1.2,"rating":"Good","prev":{"asthma":4.336,"atrial_fibrillation":1.049,"copd":0.736,"coronary_heart_disease":1.73,"dementia":0.331,"depression":4.708,"diabetes":9.623,"hypertension":10.729,"obesity":11.224,"serious_mental_illness":0.994,"stroke_tia":0.865}},{"ods":"E86625","name":"KINCORA DOCTORS SURGERY","pcn":"U51498","lat":51.514473,"lng":-0.415825,"list":2821,"gp_fte":1.6,"rating":"Requires improvement","prev":{"asthma":5.088,"atrial_fibrillation":1.699,"copd":1.214,"coronary_heart_disease":2.878,"dementia":0.347,"depression":8.462,"diabetes":13.531,"hypertension":15.43,"obesity":26.968,"serious_mental_illness":0.867,"stroke_tia":1.283}},{"ods":"E86626","name":"QUEENS WALK MEDICAL CENTRE","pcn":"U35513","lat":51.56437,"lng":-0.397999,"list":5891,"gp_fte":2.4799999999,"rating":"Good","prev":{"asthma":5.923,"atrial_fibrillation":1.912,"copd":1.829,"coronary_heart_disease":2.373,"dementia":0.643,"depression":14.115,"diabetes":6.278,"hypertension":14.552,"obesity":10.519,"serious_mental_illness":0.626,"stroke_tia":1.549}},{"ods":"E86629","name":"DR MLR SIDDIQUI'S PRACTICE","pcn":"U35513","lat":51.556213,"lng":-0.40329,"list":3631,"gp_fte":1.0666666667,"rating":"Good","prev":{"asthma":3.543,"atrial_fibrillation":1.252,"copd":0.613,"coronary_heart_disease":1.518,"dementia":0.399,"depression":7.333,"diabetes":7.374,"hypertension":9.454,"obesity":13.333,"serious_mental_illness":0.586,"stroke_tia":0.772}},{"ods":"E86632","name":"ACORN MEDICAL CENTRE","pcn":"U91930","lat":51.540349,"lng":-0.448274,"list":5759,"gp_fte":1.0666666667,"rating":"Good","prev":{"asthma":5.413,"atrial_fibrillation":1.204,"copd":1.032,"coronary_heart_disease":2.305,"dementia":0.464,"depression":10.347,"diabetes":9.636,"hypertension":13.074,"obesity":15.466,"serious_mental_illness":1.239,"stroke_tia":1.239}},{"ods":"E86637","name":"HEATHROW MEDICAL CENTRE","pcn":"U91930","lat":51.499837,"lng":-0.43878,"list":6532,"gp_fte":2.8800000001,"rating":"Good","prev":{"asthma":6.731,"atrial_fibrillation":1.247,"copd":1.307,"coronary_heart_disease":2.87,"dementia":0.451,"depression":15.797,"diabetes":11.224,"hypertension":16.739,"obesity":20.026,"serious_mental_illness":0.811,"stroke_tia":1.458}},{"ods":"E86640","name":"SOUTHCOTE CLINIC","pcn":"U35513","lat":51.576327,"lng":-0.430015,"list":5971,"gp_fte":2.1866666667,"rating":"Good","prev":{"asthma":5.303,"atrial_fibrillation":1.715,"copd":0.91,"coronary_heart_disease":2.275,"dementia":0.525,"depression":15.392,"diabetes":7.058,"hypertension":12.983,"obesity":9.147,"serious_mental_illness":0.577,"stroke_tia":1.61}},{"ods":"E87002","name":"VICTORIA MEDICAL CENTRE","pcn":"U02961","lat":51.498603,"lng":-0.144634,"list":16731,"gp_fte":6.9333333332,"rating":"Good","prev":{"asthma":3.31,"atrial_fibrillation":1.354,"copd":1.228,"coronary_heart_disease":2.33,"dementia":0.508,"depression":9.349,"diabetes":4.695,"hypertension":8.842,"obesity":5.62,"serious_mental_illness":2.073,"stroke_tia":1.428}},{"ods":"E87003","name":"NORTH KENSINGTON MEDICAL CENTRE","pcn":"U14482","lat":51.522954,"lng":-0.227223,"list":5102,"gp_fte":1.52,"rating":"Good","prev":{"asthma":5.395,"atrial_fibrillation":1.69,"copd":1.71,"coronary_heart_disease":1.531,"dementia":0.636,"depression":11.384,"diabetes":6.622,"hypertension":13.419,"obesity":10.528,"serious_mental_illness":2.346,"stroke_tia":1.173}},{"ods":"E87004","name":"HEALTH PARTNERS AT VIOLET MELCHETT","pcn":"U05784","lat":51.489667,"lng":-0.187288,"list":10919,"gp_fte":3.2853333333,"rating":"Good","prev":{"asthma":3.547,"atrial_fibrillation":1.961,"copd":1.165,"coronary_heart_disease":2.501,"dementia":0.493,"depression":10.203,"diabetes":4.494,"hypertension":11.13,"obesity":7.266,"serious_mental_illness":1.942,"stroke_tia":1.468}},{"ods":"E87005","name":"BELGRAVIA SURGERY","pcn":"U02961","lat":51.496555,"lng":-0.15266,"list":8523,"gp_fte":2.3786666667,"rating":"Good","prev":{"asthma":2.714,"atrial_fibrillation":1.868,"copd":1.025,"coronary_heart_disease":2.312,"dementia":0.661,"depression":4.541,"diabetes":3.685,"hypertension":9.739,"obesity":6.488,"serious_mental_illness":1.037,"stroke_tia":1.412}},{"ods":"E87006","name":"LITTLE VENICE MEDICAL CENTRE","pcn":"U81960","lat":51.525192,"lng":-0.182451,"list":4800,"gp_fte":1.6533333334,"rating":"Good","prev":{"asthma":3.498,"atrial_fibrillation":1.146,"copd":1.367,"coronary_heart_disease":1.962,"dementia":0.551,"depression":7.334,"diabetes":5.828,"hypertension":11.001,"obesity":9.231,"serious_mental_illness":1.565,"stroke_tia":1.19}},