[{"ods":"M84001","name":"RED ROOFS SURGERY","pcn":"U92562","lat":52.516577,"lng":-1.466161,"list":13266,"gp_fte":7.1699999999,"rating":"Good","prev":{"asthma":7.386,"atrial_fibrillation":3.15,"copd":2.451,"coronary_heart_disease":3.187,"dementia":0.905,"depression":24.703,"diabetes":10.141,"hypertension":22.321,"obesity":25.8,"serious_mental_illness":1.119,"stroke_tia":2.568}},{"ods":"M84002","name":"POOL MEDICAL CENTRE","pcn":"U55724","lat":52.272753,"lng":-1.894712,"list":8339,"gp_fte":3.5253333334,"rating":"Good","prev":{"asthma":7.104,"atrial_fibrillation":2.547,"copd":1.816,"coronary_heart_disease":3.205,"dementia":1.511,"depression":17.295,"diabetes":8.161,"hypertension":15.938,"obesity":10.023,"serious_mental_illness":0.768,"stroke_tia":2.559}},{"ods":"M84003","name":"ARBURY MEDICAL CENTRE","pcn":"U92562","lat":52.519744,"lng":-1.502948,"list":9735,"gp_fte":5.0666666667,"rating":"Good","prev":{"asthma":6.514,"atrial_fibrillation":2.621,"copd":2.226,"coronary_heart_disease":2.904,"dementia":0.577,"depression":21.075,"diabetes":10.357,"hypertension":19.63,"obesity":19.783,"serious_mental_illness":0.901,"stroke_tia":1.983}},{"ods":"M84004","name":"WHITEHALL MEDICAL PRACTICE","pcn":"U62213","lat":52.367745,"lng":-1.246652,"list":21051,"gp_fte":5.0666666666,"rating":"Good","prev":{"asthma":5.152,"atrial_fibrillation":1.946,"copd":1.082,"coronary_heart_disease":2.129,"dementia":0.686,"depression":13.624,"diabetes":7.2,"hypertension":12.751,"obesity":11.593,"serious_mental_illness":0.615,"stroke_tia":1.586}},{"ods":"M84005","name":"CHAPEL END SURGERY","pcn":"U92562","lat":52.530783,"lng":-1.506821,"list":5157,"gp_fte":2.2106666667,"rating":"Good","prev":{"asthma":5.426,"atrial_fibrillation":2.493,"copd":3.071,"coronary_heart_disease":2.931,"dementia":0.618,"depression":21.476,"diabetes":10.421,"hypertension":17.667,"obesity":22.366,"serious_mental_illness":0.977,"stroke_tia":2.313}},{"ods":"M84006","name":"PEAR TREE SURGERY","pcn":"U11614","lat":52.573443,"lng":-1.669113,"list":10584,"gp_fte":6.6666666666,"rating":"Good","prev":{"asthma":7.138,"atrial_fibrillation":2.594,"copd":2.194,"coronary_heart_disease":3.367,"dementia":0.553,"depression":18.075,"diabetes":8.776,"hypertension":18.264,"obesity":16.952,"serious_mental_illness":0.525,"stroke_tia":2.155}},{"ods":"M84007","name":"DORDON & POLESWORTH GROUP PRACTICE","pcn":"U11614","lat":52.616901,"lng":-1.610499,"list":13413,"gp_fte":7.0133333334,"rating":"Good","prev":{"asthma":5.43,"atrial_fibrillation":3.07,"copd":2.771,"coronary_heart_disease":3.204,"dementia":0.874,"depression":18.515,"diabetes":9.204,"hypertension":18.62,"obesity":19.009,"serious_mental_illness":0.598,"stroke_tia":2.084}},{"ods":"M84008","name":"SPRING HILL MEDICAL CENTRE","pcn":"U54565","lat":52.51984,"lng":-1.542329,"list":7865,"gp_fte":3.4266666668,"rating":"Good","prev":{"asthma":7.07,"atrial_fibrillation":2.134,"copd":2.05,"coronary_heart_disease":2.375,"dementia":0.494,"depression":17.555,"diabetes":8.223,"hypertension":17.615,"obesity":17.57,"serious_mental_illness":0.494,"stroke_tia":1.941}},{"ods":"M84009","name":"FENNY COMPTON SURGERY","pcn":"U04784","lat":52.138799,"lng":-1.414051,"list":5237,"gp_fte":4.6666666667,"rating":"Good","prev":{"asthma":7.236,"atrial_fibrillation":3.086,"copd":0.997,"coronary_heart_disease":2.936,"dementia":0.546,"depression":15.494,"diabetes":6.328,"hypertension":18.254,"obesity":6.746,"serious_mental_illness":0.395,"stroke_tia":2.522}},{"ods":"M84010","name":"AVONSIDE HEALTH CENTRE","pcn":"U10743","lat":52.289463,"lng":-1.562693,"list":10460,"gp_fte":6.9533333333,"rating":"Good","prev":{"asthma":6.781,"atrial_fibrillation":2.52,"copd":1.883,"coronary_heart_disease":2.767,"dementia":0.808,"depression":20.557,"diabetes":6.943,"hypertension":15.102,"obesity":14.625,"serious_mental_illness":1.008,"stroke_tia":2.111}},{"ods":"M84011","name":"BEDWORTH HEALTH CENTRE","pcn":"U92562","lat":52.477506,"lng":-1.477296,"list":21599,"gp_fte":11.4933333333,"rating":"Good","prev":{"asthma":7.167,"atrial_fibrillation":2.489,"copd":2.628,"coronary_heart_disease":3.209,"dementia":0.868,"depression":25.227,"diabetes":10.439,"hypertension":19.778,"obesity":18.711,"serious_mental_illness":1.04,"stroke_tia":2.624}},{"ods":"M84012","name":"PARK LEYS MEDICAL PRACTICE","pcn":"U07789","lat":52.452484,"lng":-1.537009,"list":17300,"gp_fte":10.9866666669,"rating":"Good","prev":{"asthma":6.863,"atrial_fibrillation":2.0,"copd":1.964,"coronary_heart_disease":2.497,"dementia":1.293,"depression":16.736,"diabetes":8.208,"hypertension":15.471,"obesity":12.953,"serious_mental_illness":0.701,"stroke_tia":1.922}},{"ods":"M84013","name":"CASTLE MEDICAL CENTRE","pcn":"U10743","lat":52.343976,"lng":-1.572289,"list":12868,"gp_fte":6.8226666668,"rating":"Outstanding","prev":{"asthma":5.903,"atrial_fibrillation":3.608,"copd":1.287,"coronary_heart_disease":3.282,"dementia":0.89,"depression":14.607,"diabetes":6.1,"hypertension":18.11,"obesity":12.157,"serious_mental_illness":0.866,"stroke_tia":2.606}},{"ods":"M84014","name":"BRIDGE HOUSE MEDICAL CENTRE","pcn":"U91762","lat":52.190498,"lng":-1.713645,"list":9320,"gp_fte":6.9333333334,"rating":"Good","prev":{"asthma":6.862,"atrial_fibrillation":3.437,"copd":1.708,"coronary_heart_disease":3.214,"dementia":1.092,"depression":14.623,"diabetes":5.992,"hypertension":20.672,"obesity":11.813,"serious_mental_illness":1.082,"stroke_tia":2.662}},{"ods":"M84015","name":"CROFT MEDICAL CENTRE","pcn":"U36452","lat":52.27388,"lng":-1.524661,"list":14541,"gp_fte":6.9770666669,"rating":"Good","prev":{"asthma":6.914,"atrial_fibrillation":1.79,"copd":2.21,"coronary_heart_disease":2.447,"dementia":0.813,"depression":17.265,"diabetes":8.242,"hypertension":15.666,"obesity":12.127,"serious_mental_illness":1.139,"stroke_tia":1.844}},{"ods":"M84016","name":"WOLSTON SURGERY","pcn":"U62213","lat":52.37691,"lng":-1.407408,"list":4545,"gp_fte":2.3786666667,"rating":"Good","prev":{"asthma":5.823,"atrial_fibrillation":3.197,"copd":1.865,"coronary_heart_disease":3.086,"dementia":0.555,"depression":18.349,"diabetes":8.747,"hypertension":19.694,"obesity":12.064,"serious_mental_illness":0.533,"stroke_tia":2.287}},{"ods":"M84017","name":"CLARENDON LODGE MEDICAL CENTRE","pcn":"U82789","lat":52.297505,"lng":-1.527398,"list":14490,"gp_fte":6.22,"rating":"Good","prev":{"asthma":5.701,"atrial_fibrillation":2.499,"copd":1.13,"coronary_heart_disease":2.561,"dementia":1.246,"depression":14.603,"diabetes":5.37,"hypertension":12.182,"obesity":7.405,"serious_mental_illness":1.383,"stroke_tia":2.02}},{"ods":"M84018","name":"BIDFORD HEALTH CENTRE","pcn":"U91762","lat":52.158821,"lng":-1.849255,"list":14357,"gp_fte":6.5066666668,"rating":"Good","prev":{"asthma":7.878,"atrial_fibrillation":3.307,"copd":1.759,"coronary_heart_disease":3.194,"dementia":0.911,"depression":15.31,"diabetes":7.944,"hypertension":19.727,"obesity":12.852,"serious_mental_illness":0.551,"stroke_tia":2.494}},{"ods":"M84019","name":"THE ATHERSTONE SURGERY","pcn":"U54565","lat":52.577864,"lng":-1.546584,"list":17005,"gp_fte":7.3333333335,"rating":"Good","prev":{"asthma":8.236,"atrial_fibrillation":2.846,"copd":2.141,"coronary_heart_disease":2.882,"dementia":0.966,"depression":20.78,"diabetes":8.889,"hypertension":20.018,"obesity":14.979,"serious_mental_illness":0.658,"stroke_tia":2.52}},{"ods":"M84020","name":"CLIFTON ROAD SURGERY","pcn":"U62213","lat":52.371641,"lng":-1.247921,"list":14410,"gp_fte":6.7200000001,"rating":"Good","prev":{"asthma":5.924,"atrial_fibrillation":2.207,"copd":1.272,"coronary_heart_disease":2.268,"dementia":0.808,"depression":15.119,"diabetes":7.308,"hypertension":15.324,"obesity":14.287,"serious_mental_illness":0.848,"stroke_tia":1.938}},{"ods":"M84021","name":"ROTHER HOUSE MEDICAL CENTRE","pcn":"U91762","lat":52.190605,"lng":-1.718167,"list":17004,"gp_fte":10.5274666668,"rating":"Good","prev":{"asthma":6.362,"atrial_fibrillation":2.916,"copd":1.725,"coronary_heart_disease":2.57,"dementia":1.273,"depression":15.175,"diabetes":6.102,"hypertension":15.851,"obesity":8.459,"serious_mental_illness":0.991,"stroke_tia":2.241}},{"ods":"M84022","name":"MANOR COURT SURGERY","pcn":"U92562","lat":52.523845,"lng":-1.480796,"list":8428,"gp_fte":3.7866666667,"rating":"Good","prev":{"asthma":5.933,"atrial_fibrillation":2.403,"copd":1.891,"coronary_heart_disease":2.867,"dementia":0.595,"depression":14.184,"diabetes":9.827,"hypertension":20.78,"obesity":19.06,"serious_mental_illness":1.118,"stroke_tia":1.832}},{"ods":"M84023","name":"CENTRAL SURGERY","pcn":"U62213","lat":52.369156,"lng":-1.273738,"list":20180,"gp_fte":9.6237333334,"rating":"Good","prev":{"asthma":5.417,"atrial_fibrillation":1.794,"copd":1.448,"coronary_heart_disease":2.214,"dementia":0.697,"depression":14.348,"diabetes":7.945,"hypertension":12.612,"obesity":12.404,"serious_mental_illness":0.771,"stroke_tia":1.502}},{"ods":"M84024","name":"HENLEY-IN-ARDEN MED CTR","pcn":"U55724","lat":52.284757,"lng":-1.782598,"list":6574,"gp_fte":4.04,"rating":"Good","prev":{"asthma":6.19,"atrial_fibrillation":4.31,"copd":2.087,"coronary_heart_disease":4.615,"dementia":0.929,"depression":16.723,"diabetes":7.285,"hypertension":21.52,"obesity":10.283,"serious_mental_illness":0.609,"stroke_tia":3.137}},{"ods":"M84025","name":"SHIPSTON MEDICAL CENTRE","pcn":"U11176","lat":52.072285,"lng":-1.632853,"list":11949,"gp_fte":6.6800000001,"rating":"Outstanding","prev":{"asthma":7.041,"atrial_fibrillation":3.768,"copd":1.776,"coronary_heart_disease":3.66,"dementia":1.017,"depression":17.133,"diabetes":7.034,"hypertension":19.475,"obesity":10.814,"serious_mental_illness":0.875,"stroke_tia":3.143}},{"ods":"M84026","name":"SOUTHAM SURGERY","pcn":"U04784","lat":52.260183,"lng":-1.381275,"list":7127,"gp_fte":4.36,"rating":"Good","prev":{"asthma":9.094,"atrial_fibrillation":3.258,"copd":2.052,"coronary_heart_disease":3.175,"dementia":0.555,"depression":15.544,"diabetes":7.751,"hypertension":19.44,"obesity":13.237,"serious_mental_illness":0.929,"stroke_tia":2.759}},{"ods":"M84028","name":"PRIORY MEDICAL CENTRE","pcn":"U10743","lat":52.285386,"lng":-1.586675,"list":18872,"gp_fte":11.4533333334,"rating":null,"prev":{"asthma":6.279,"atrial_fibrillation":2.728,"copd":1.554,"coronary_heart_disease":2.649,"dementia":0.582,"depression":15.518,"diabetes":7.045,"hypertension":15.729,"obesity":14.192,"serious_mental_illness":1.179,"stroke_tia":2.279}},{"ods":"M84029","name":"VALLEY ROAD MEDICAL PRACTICE","pcn":"U82789","lat":52.305004,"lng":-1.512106,"list":8101,"gp_fte":3.64,"rating":"Good","prev":{"asthma":6.426,"atrial_fibrillation":2.701,"copd":1.267,"coronary_heart_disease":2.918,"dementia":0.832,"depression":12.646,"diabetes":6.923,"hypertension":15.308,"obesity":12.998,"serious_mental_illness":0.934,"stroke_tia":2.304}},{"ods":"M84030","name":"HASTINGS HOUSE SURGERY","pcn":"U11176","lat":52.190617,"lng":-1.587949,"list":13302,"gp_fte":7.9866666666,"rating":"Good","prev":{"asthma":7.999,"atrial_fibrillation":3.37,"copd":1.998,"coronary_heart_disease":3.226,"dementia":1.063,"depression":17.78,"diabetes":6.728,"hypertension":18.619,"obesity":11.249,"serious_mental_illness":0.716,"stroke_tia":2.578}},{"ods":"M84031","name":"REVEL SURGERY","pcn":"U62213","lat":52.416446,"lng":-1.322584,"list":7873,"gp_fte":7.28,"rating":"Good","prev":{"asthma":7.267,"atrial_fibrillation":2.724,"copd":1.652,"coronary_heart_disease":2.548,"dementia":0.971,"depression":15.826,"diabetes":7.642,"hypertension":17.039,"obesity":12.801,"serious_mental_illness":0.479,"stroke_tia":1.93}},{"ods":"M84032","name":"WATERSIDE MEDICAL CENTRE","pcn":"U82789","lat":52.282278,"lng":-1.525641,"list":14765,"gp_fte":6.0666666667,"rating":"Outstanding","prev":{"asthma":5.504,"atrial_fibrillation":1.378,"copd":1.126,"coronary_heart_disease":1.754,"dementia":0.355,"depression":14.654,"diabetes":5.354,"hypertension":10.44,"obesity":9.173,"serious_mental_illness":0.928,"stroke_tia":1.119}},{"ods":"M84034","name":"WHITESTONE SURGERY","pcn":"Unaligned","lat":52.506427,"lng":-1.445988,"list":1034,"gp_fte":1.4,"rating":null,"prev":{"asthma":5.721,"atrial_fibrillation":1.941,"copd":1.519,"coronary_heart_disease":1.941,"dementia":0.38,"depression":11.686,"diabetes":7.574,"hypertension":14.557,"obesity":12.763,"serious_mental_illness":0.886,"stroke_tia":1.646}},{"ods":"M84035","name":"WESTSIDE MEDICAL CENTRE","pcn":"U62213","lat":52.370071,"lng":-1.264489,"list":12087,"gp_fte":5.9733333333,"rating":"Good","prev":{"asthma":5.317,"atrial_fibrillation":1.972,"copd":1.517,"coronary_heart_disease":2.221,"dementia":0.845,"depression":13.292,"diabetes":7.976,"hypertension":15.414,"obesity":12.236,"serious_mental_illness":0.746,"stroke_tia":1.765}},{"ods":"M84036","name":"ABBEY MEDICAL CENTRE","pcn":"U10743","lat":52.344743,"lng":-1.572658,"list":15944,"gp_fte":5.1466666667,"rating":"Outstanding","prev":{"asthma":5.68,"atrial_fibrillation":2.995,"copd":1.056,"coronary_heart_disease":2.671,"dementia":0.871,"depression":15.422,"diabetes":6.189,"hypertension":15.496,"obesity":8.668,"serious_mental_illness":0.706,"stroke_tia":2.327}},{"ods":"M84037","name":"THE GRANGE MEDICAL CENTRE","pcn":"U92562","lat":52.532645,"lng":-1.45241,"list":11965,"gp_fte":6.5066666668,"rating":"Good","prev":{"asthma":7.034,"atrial_fibrillation":2.695,"copd":1.18,"coronary_heart_disease":2.793,"dementia":0.893,"depression":16.142,"diabetes":6.702,"hypertension":19.481,"obesity":15.298,"serious_mental_illness":0.819,"stroke_tia":2.089}},{"ods":"M84040","name":"SHERBOURNE MEDICAL CENTRE","pcn":"U82789","lat":52.290969,"lng":-1.527518,"list":10269,"gp_fte":5.0133333333,"rating":"Good","prev":{"asthma":6.202,"atrial_fibrillation":2.311,"copd":1.559,"coronary_heart_disease":2.264,"dementia":0.949,"depression":15.945,"diabetes":5.28,"hypertension":14.223,"obesity":8.245,"serious_mental_illness":0.827,"stroke_tia":1.992}},{"ods":"M84041","name":"RIVERSLEY ROAD SURGERY","pcn":"U92562","lat":52.518814,"lng":-1.466302,"list":7336,"gp_fte":4.1333333334,"rating":"Good","prev":{"asthma":5.888,"atrial_fibrillation":1.78,"copd":2.164,"coronary_heart_disease":2.691,"dementia":0.968,"depression":16.268,"diabetes":10.976,"hypertension":16.546,"obesity":18.908,"serious_mental_illness":0.854,"stroke_tia":2.435}},{"ods":"M84042","name":"HAZELWOOD GROUP PRACTICE","pcn":"U68185","lat":52.504331,"lng":-1.701532,"list":10315,"gp_fte":4.0533333333,"rating":"Good","prev":{"asthma":6.119,"atrial_fibrillation":3.028,"copd":1.97,"coronary_heart_disease":3.076,"dementia":1.634,"depression":15.098,"diabetes":7.227,"hypertension":17.657,"obesity":14.301,"serious_mental_illness":0.884,"stroke_tia":2.22}},{"ods":"M84043","name":"TRINITY COURT SURGERY","pcn":"U91762","lat":52.209131,"lng":-1.715124,"list":21214,"gp_fte":8.4266666668,"rating":"Good","prev":{"asthma":6.184,"atrial_fibrillation":2.787,"copd":1.177,"coronary_heart_disease":2.712,"dementia":0.504,"depression":15.105,"diabetes":5.472,"hypertension":16.755,"obesity":10.186,"serious_mental_illness":0.838,"stroke_tia":2.194}},{"ods":"M84044","name":"HARBURY SURGERY","pcn":"U04784","lat":52.228763,"lng":-1.450289,"list":5751,"gp_fte":3.2,"rating":"Good","prev":{"asthma":7.001,"atrial_fibrillation":3.359,"copd":1.432,"coronary_heart_disease":3.308,"dementia":0.392,"depression":14.796,"diabetes":6.561,"hypertension":18.997,"obesity":11.991,"serious_mental_illness":0.784,"stroke_tia":2.166}},{"ods":"M84046","name":"DUNCHURCH SURGERY","pcn":"U62213","lat":52.33674,"lng":-1.299007,"list":8083,"gp_fte":5.3333333333,"rating":"Good","prev":{"asthma":6.276,"atrial_fibrillation":3.359,"copd":0.968,"coronary_heart_disease":2.807,"dementia":0.907,"depression":12.051,"diabetes":7.154,"hypertension":17.798,"obesity":6.931,"serious_mental_illness":0.539,"stroke_tia":2.55}},{"ods":"M84047","name":"TANWORTH-IN-ARDEN MED CTR","pcn":"U55724","lat":52.337864,"lng":-1.852729,"list":5380,"gp_fte":3.0933333334,"rating":"Good","prev":{"asthma":6.49,"atrial_fibrillation":3.761,"copd":1.691,"coronary_heart_disease":2.755,"dementia":0.855,"depression":12.537,"diabetes":6.025,"hypertension":17.477,"obesity":7.85,"serious_mental_illness":0.399,"stroke_tia":2.793}},{"ods":"M84049","name":"ALCESTER HEALTH CENTRE","pcn":"U55724","lat":52.224137,"lng":-1.872474,"list":6065,"gp_fte":2.1333333334,"rating":"Good","prev":{"asthma":7.722,"atrial_fibrillation":3.887,"copd":2.24,"coronary_heart_disease":3.479,"dementia":0.967,"depression":15.828,"diabetes":8.377,"hypertension":20.112,"obesity":14.514,"serious_mental_illness":0.984,"stroke_tia":2.783}},{"ods":"M84050","name":"MARKET QUARTER MEDICAL PRACTICE","pcn":"U62213","lat":52.374195,"lng":-1.256499,"list":8347,"gp_fte":3.104,"rating":"Good","prev":{"asthma":6.593,"atrial_fibrillation":1.466,"copd":1.516,"coronary_heart_disease":2.292,"dementia":0.949,"depression":15.701,"diabetes":7.262,"hypertension":12.58,"obesity":11.108,"serious_mental_illness":0.887,"stroke_tia":1.491}},{"ods":"M84051","name":"OLD MILL SURGERY","pcn":"U92562","lat":52.518444,"lng":-1.474063,"list":13580,"gp_fte":3.2000000001,"rating":"Good","prev":{"asthma":6.211,"atrial_fibrillation":1.755,"copd":1.74,"coronary_heart_disease":2.227,"dementia":0.575,"depression":15.949,"diabetes":9.553,"hypertension":15.772,"obesity":16.346,"serious_mental_illness":0.922,"stroke_tia":1.674}},{"ods":"M84055","name":"STOCKINGFORD MEDICAL CENTRE","pcn":"U68185","lat":52.519538,"lng":-1.492379,"list":2178,"gp_fte":1.12,"rating":"Good","prev":{"asthma":5.07,"atrial_fibrillation":2.467,"copd":2.512,"coronary_heart_disease":3.006,"dementia":0.583,"depression":14.234,"diabetes":12.008,"hypertension":24.226,"obesity":16.822,"serious_mental_illness":0.628,"stroke_tia":2.064}},{"ods":"M84059","name":"SPA MEDICAL CENTRE","pcn":"U36452","lat":52.282114,"lng":-1.526514,"list":3668,"gp_fte":2.0,"rating":"Good","prev":{"asthma":7.349,"atrial_fibrillation":1.649,"copd":1.257,"coronary_heart_disease":3.455,"dementia":1.152,"depression":10.363,"diabetes":12.423,"hypertension":16.885,"obesity":14.465,"serious_mental_illness":1.309,"stroke_tia":1.937}},{"ods":"M84060","name":"THE ARROW SURGERY","pcn":"U55724","lat":52.223041,"lng":-1.873931,"list":6779,"gp_fte":3.2133333334,"rating":"Good","prev":{"asthma":6.085,"atrial_fibrillation":3.344,"copd":1.716,"coronary_heart_disease":3.329,"dementia":0.924,"depression":16.973,"diabetes":6.926,"hypertension":17.935,"obesity":10.726,"serious_mental_illness":0.836,"stroke_tia":2.126}},{"ods":"M84061","name":"BULKINGTON SURGERY","pcn":"U92562","lat":52.482504,"lng":-1.425809,"list":6714,"gp_fte":2.7733333333,"rating":"Good","prev":{"asthma":6.946,"atrial_fibrillation":3.28,"copd":1.396,"coronary_heart_disease":3.616,"dementia":0.791,"depression":12.705,"diabetes":9.798,"hypertension":23.852,"obesity":10.638,"serious_mental_illness":0.488,"stroke_tia":2.607}},{"ods":"M84062","name":"VALE OF RED HORSE","pcn":"U04784","lat":52.161934,"lng":-1.51062,"list":7588,"gp_fte":2.5866666666,"rating":"Good","prev":{"asthma":8.65,"atrial_fibrillation":2.128,"copd":1.269,"coronary_heart_disease":2.469,"dementia":0.246,"depression":19.035,"diabetes":6.249,"hypertension":15.402,"obesity":13.253,"serious_mental_illness":0.668,"stroke_tia":1.705}},{"ods":"M84063","name":"CHASE MEADOW HEALTH CENTRE","pcn":"U10743","lat":52.27681,"lng":-1.597925,"list":7405,"gp_fte":4.64,"rating":"Good","prev":{"asthma":6.227,"atrial_fibrillation":2.484,"copd":1.284,"coronary_heart_disease":2.112,"dementia":0.58,"depression":17.635,"diabetes":6.185,"hypertension":14.217,"obesity":15.855,"serious_mental_illness":0.649,"stroke_tia":1.629}},{"ods":"M84064","name":"WHITNASH MEDICAL CENTRE","pcn":"U36452","lat":52.264412,"lng":-1.527566,"list":6982,"gp_fte":2.08,"rating":"Good","prev":{"asthma":6.897,"atrial_fibrillation":1.895,"copd":1.442,"coronary_heart_disease":2.531,"dementia":0.679,"depression":17.07,"diabetes":7.776,"hypertension":13.785,"obesity":12.554,"serious_mental_illness":0.707,"stroke_tia":1.668}},{"ods":"M84065","name":"BEECH TREE MEDICAL PRACTICE","pcn":"U62213","lat":52.375407,"lng":-1.254795,"list":8277,"gp_fte":3.1866666667,"rating":"Good","prev":{"asthma":5.447,"atrial_fibrillation":1.067,"copd":1.325,"coronary_heart_disease":1.938,"dementia":0.736,"depression":12.545,"diabetes":8.492,"hypertension":11.874,"obesity":8.844,"serious_mental_illness":0.846,"stroke_tia":1.006}},{"ods":"M84066","name":"MEON MEDICAL CENTRE","pcn":"U11176","lat":52.113636,"lng":-1.75671,"list":7139,"gp_fte":2.9199999998,"rating":"Good","prev":{"asthma":8.062,"atrial_fibrillation":2.601,"copd":1.035,"coronary_heart_disease":2.498,"dementia":0.931,"depression":19.825,"diabetes":6.722,"hypertension":15.607,"obesity":13.407,"serious_mental_illness":0.695,"stroke_tia":2.01}},{"ods":"M84067","name":"BENNFIELD SURGERY","pcn":"U62213","lat":52.370718,"lng":-1.268417,"list":7658,"gp_fte":5.2000000001,"rating":"Good","prev":{"asthma":7.253,"atrial_fibrillation":2.552,"copd":1.616,"coronary_heart_disease":2.527,"dementia":1.013,"depression":16.091,"diabetes":8.07,"hypertension":15.814,"obesity":12.349,"serious_mental_illness":0.551,"stroke_tia":2.001}},{"ods":"M84069","name":"BUDBROOKE MEDICAL CENTRE","pcn":"U55724","lat":52.288408,"lng":-1.643433,"list":6712,"gp_fte":2.3466666667,"rating":"Good","prev":{"asthma":7.856,"atrial_fibrillation":2.45,"copd":1.325,"coronary_heart_disease":2.666,"dementia":0.524,"depression":16.872,"diabetes":4.832,"hypertension":16.212,"obesity":11.103,"serious_mental_illness":0.555,"stroke_tia":2.065}},{"ods":"M84070","name":"WARWICK GATES FAM.HTH.CTR","pcn":"U36452","lat":52.266264,"lng":-1.543015,"list":12568,"gp_fte":4.5866666667,"rating":"Good","prev":{"asthma":6.052,"atrial_fibrillation":1.198,"copd":0.701,"coronary_heart_disease":1.548,"dementia":0.35,"depression":16.405,"diabetes":5.77,"hypertension":9.997,"obesity":10.366,"serious_mental_illness":0.57,"stroke_tia":1.181}},{"ods":"M84609","name":"WOODLANDS SURGERY","pcn":"U68185","lat":52.477694,"lng":-1.489466,"list":4915,"gp_fte":1.3333333334,"rating":"Good","prev":{"asthma":7.51,"atrial_fibrillation":1.808,"copd":1.87,"coronary_heart_disease":2.286,"dementia":2.494,"depression":21.122,"diabetes":9.973,"hypertension":17.332,"obesity":16.172,"serious_mental_illness":0.873,"stroke_tia":2.099}},{"ods":"M84612","name":"STATION STREET SURGERY","pcn":"U54565","lat":52.555525,"lng":-1.504339,"list":9373,"gp_fte":1.8933333333,"rating":"Good","prev":{"asthma":5.752,"atrial_fibrillation":1.859,"copd":1.57,"coronary_heart_disease":2.222,"dementia":0.314,"depression":22.24,"diabetes":7.069,"hypertension":13.849,"obesity":18.209,"serious_mental_illness":0.749,"stroke_tia":1.497}},{"ods":"M84615","name":"HARTSHILL HEALTH CENTRE","pcn":"U68185","lat":52.533305,"lng":-1.515894,"list":8808,"gp_fte":2.9600000001,"rating":"Good","prev":{"asthma":7.286,"atrial_fibrillation":2.137,"copd":1.773,"coronary_heart_disease":2.393,"dementia":0.474,"depression":21.295,"diabetes":8.618,"hypertension":16.347,"obesity":18.702,"serious_mental_illness":0.692,"stroke_tia":1.652}},{"ods":"M84616","name":"BROOKSIDE SURGERY","pcn":"U62213","lat":52.346407,"lng":-1.399536,"list":4458,"gp_fte":3.0933333334,"rating":"Good","prev":{"asthma":8.039,"atrial_fibrillation":2.919,"copd":1.841,"coronary_heart_disease":3.054,"dementia":0.786,"depression":18.258,"diabetes":6.419,"hypertension":15.967,"obesity":8.569,"serious_mental_illness":1.011,"stroke_tia":2.066}},{"ods":"M84618","name":"RUGBY ROAD SURGERY","pcn":"U68185","lat":52.480422,"lng":-1.449881,"list":3999,"gp_fte":0.8533333333,"rating":"Good","prev":{"asthma":6.356,"atrial_fibrillation":2.584,"copd":2.328,"coronary_heart_disease":2.891,"dementia":0.921,"depression":16.683,"diabetes":10.694,"hypertension":21.054,"obesity":12.647,"serious_mental_illness":1.177,"stroke_tia":2.558}},{"ods":"M84620","name":"LAPWORTH SURGERY","pcn":"U55724","lat":52.337142,"lng":-1.730464,"list":2956,"gp_fte":2.0,"rating":"Good","prev":{"asthma":7.803,"atrial_fibrillation":3.693,"copd":0.665,"coronary_heart_disease":3.36,"dementia":0.632,"depression":13.269,"diabetes":5.24,"hypertension":16.667,"obesity":7.994,"serious_mental_illness":0.732,"stroke_tia":2.562}},{"ods":"M84621","name":"QUEENS ROAD SURGERY","pcn":"U92562","lat":52.520091,"lng":-1.473501,"list":2755,"gp_fte":1.424,"rating":"Good","prev":{"asthma":5.318,"atrial_fibrillation":1.233,"copd":1.595,"coronary_heart_disease":2.321,"dementia":0.544,"depression":11.288,"diabetes":12.304,"hypertension":16.715,"obesity":19.936,"serious_mental_illness":1.233,"stroke_tia":1.342}},{"ods":"M84627","name":"THE OLD COLE HOUSE PRACTICE","pcn":"U92562","lat":52.47996,"lng":-1.477029,"list":3749,"gp_fte":2.7733333333,"rating":"Good","prev":{"asthma":6.646,"atrial_fibrillation":2.838,"copd":2.838,"coronary_heart_disease":3.338,"dementia":0.289,"depression":15.831,"diabetes":12.154,"hypertension":19.448,"obesity":14.299,"serious_mental_illness":0.657,"stroke_tia":2.181}},{"ods":"M84629","name":"ST WULFSTAN SURGERY","pcn":"U04784","lat":52.257825,"lng":-1.391203,"list":12112,"gp_fte":7.1021333334,"rating":"Outstanding","prev":{"asthma":8.284,"atrial_fibrillation":2.573,"copd":1.423,"coronary_heart_disease":2.608,"dementia":1.133,"depression":19.434,"diabetes":6.291,"hypertension":15.677,"obesity":18.772,"serious_mental_illness":0.404,"stroke_tia":1.862}},{"ods":"M86001","name":"WILLENHALL PRIMARY CARE CENTRE - 1","pcn":"U68252","lat":52.39113,"lng":-1.465696,"list":7225,"gp_fte":2.9333333332,"rating":"Good","prev":{"asthma":6.714,"atrial_fibrillation":1.63,"copd":2.918,"coronary_heart_disease":2.151,"dementia":0.425,"depression":14.86,"diabetes":8.984,"hypertension":13.315,"obesity":18.418,"serious_mental_illness":1.274,"stroke_tia":1.466}},{"ods":"M86002","name":"LONGFORD PRIMARY CARE CENTRE","pcn":"U30256","lat":52.442661,"lng":-1.479461,"list":8359,"gp_fte":1.9733333334,"rating":"Good","prev":{"asthma":7.185,"atrial_fibrillation":2.094,"copd":3.118,"coronary_heart_disease":2.753,"dementia":0.377,"depression":12.118,"diabetes":10.75,"hypertension":16.614,"obesity":16.002,"serious_mental_illness":1.33,"stroke_tia":1.788}},{"ods":"M86003","name":"SKY BLUE MEDICAL GROUP","pcn":"U58127","lat":52.398477,"lng":-1.512268,"list":17016,"gp_fte":4.8754666667,"rating":"Good","prev":{"asthma":6.109,"atrial_fibrillation":1.369,"copd":0.964,"coronary_heart_disease":2.204,"dementia":0.453,"depression":15.588,"diabetes":8.821,"hypertension":13.481,"obesity":11.261,"serious_mental_illness":1.023,"stroke_tia":1.51}},{"ods":"M86004","name":"ALLESLEY PARK MEDICAL CTR","pcn":"U14922","lat":52.390875,"lng":-1.545394,"list":20514,"gp_fte":7.3093333333,"rating":"Good","prev":{"asthma":4.282,"atrial_fibrillation":1.069,"copd":0.722,"coronary_heart_disease":1.12,"dementia":0.455,"depression":9.037,"diabetes":3.171,"hypertension":8.867,"obesity":5.533,"serious_mental_illness":0.398,"stroke_tia":0.928}},{"ods":"M86005","name":"HILLFIELDS HEALTH CENTRE - 1","pcn":"U29575","lat":52.416305,"lng":-1.499182,"list":6123,"gp_fte":1.92,"rating":"Good","prev":{"asthma":4.236,"atrial_fibrillation":0.877,"copd":1.222,"coronary_heart_disease":1.551,"dementia":0.188,"depression":9.914,"diabetes":6.949,"hypertension":10.436,"obesity":11.677,"serious_mental_illness":0.815,"stroke_tia":0.846}},{"ods":"M86006","name":"JUBILEE HEALTHCARE","pcn":"U49145","lat":52.402265,"lng":-1.55944,"list":10168,"gp_fte":4.9866666666,"rating":"Good","prev":{"asthma":5.571,"atrial_fibrillation":1.995,"copd":1.343,"coronary_heart_disease":2.183,"dementia":1.037,"depression":13.13,"diabetes":6.543,"hypertension":13.422,"obesity":14.93,"serious_mental_illness":1.501,"stroke_tia":1.59}},{"ods":"M86007","name":"PHOENIX FAMILY CARE","pcn":"U33954","lat":52.38893,"lng":-1.512559,"list":5785,"gp_fte":2.6400000001,"rating":null,"prev":{"asthma":6.363,"atrial_fibrillation":2.97,"copd":1.351,"coronary_heart_disease":2.786,"dementia":0.868,"depression":8.604,"diabetes":7.731,"hypertension":17.868,"obesity":8.525,"serious_mental_illness":0.884,"stroke_tia":2.102}},{"ods":"M86008","name":"THE GABLES MEDICENTRE","pcn":"U07789","lat":52.4524,"lng":-1.505302,"list":10298,"gp_fte":4.9066666666,"rating":"Good","prev":{"asthma":6.262,"atrial_fibrillation":1.786,"copd":3.407,"coronary_heart_disease":4.729,"dementia":0.376,"depression":18.255,"diabetes":9.847,"hypertension":16.61,"obesity":17.298,"serious_mental_illness":1.042,"stroke_tia":1.65}},{"ods":"M86009","name":"ENGLETON HOUSE SURGERY","pcn":"U14922","lat":52.414595,"lng":-1.508852,"list":25537,"gp_fte":9.384,"rating":"Good","prev":{"asthma":3.619,"atrial_fibrillation":0.739,"copd":0.897,"coronary_heart_disease":1.249,"dementia":0.253,"depression":9.444,"diabetes":3.545,"hypertension":7.46,"obesity":6.783,"serious_mental_illness":0.581,"stroke_tia":0.886}},{"ods":"M86010","name":"FORREST MEDICAL CENTRE","pcn":"U49145","lat":52.396977,"lng":-1.559549,"list":13037,"gp_fte":7.4933333333,"rating":"Good","prev":{"asthma":5.959,"atrial_fibrillation":1.642,"copd":2.045,"coronary_heart_disease":2.052,"dementia":0.937,"depression":17.367,"diabetes":7.323,"hypertension":13.213,"obesity":13.422,"serious_mental_illness":1.015,"stroke_tia":1.843}},{"ods":"M86012","name":"PRIORY GATE PRACTICE","pcn":"U29575","lat":52.415517,"lng":-1.501257,"list":11022,"gp_fte":3.3333333333,"rating":"Good","prev":{"asthma":4.644,"atrial_fibrillation":1.039,"copd":0.975,"coronary_heart_disease":1.418,"dementia":0.172,"depression":11.814,"diabetes":7.8,"hypertension":9.339,"obesity":26.401,"serious_mental_illness":1.102,"stroke_tia":0.948}},{"ods":"M86014","name":"THE FORUM HEALTH CENTRE","pcn":"U68252","lat":52.415692,"lng":-1.459432,"list":21352,"gp_fte":11.1066666668,"rating":"Outstanding","prev":{"asthma":5.522,"atrial_fibrillation":1.831,"copd":1.137,"coronary_heart_disease":2.332,"dementia":0.496,"depression":11.615,"diabetes":8.606,"hypertension":13.635,"obesity":18.187,"serious_mental_illness":0.727,"stroke_tia":1.416}},{"ods":"M86015","name":"KENYON MEDICAL CENTRES","pcn":"U68252","lat":52.395347,"lng":-1.457781,"list":13651,"gp_fte":4.5333333334,"rating":"Good","prev":{"asthma":6.948,"atrial_fibrillation":2.215,"copd":2.136,"coronary_heart_disease":2.602,"dementia":1.125,"depression":16.661,"diabetes":8.787,"hypertension":17.079,"obesity":14.682,"serious_mental_illness":1.125,"stroke_tia":1.921}},{"ods":"M86016","name":"GODIVA GROUP PRACTICE","pcn":"U29575","lat":52.41782,"lng":-1.492029,"list":21305,"gp_fte":5.7306666667,"rating":"Requires improvement","prev":{"asthma":4.838,"atrial_fibrillation":1.25,"copd":1.463,"coronary_heart_disease":1.842,"dementia":0.403,"depression":11.066,"diabetes":8.185,"hypertension":12.83,"obesity":15.17,"serious_mental_illness":1.356,"stroke_tia":1.18}},{"ods":"M86017","name":"MANSFIELD MEDICAL CENTRE","pcn":"U68252","lat":52.407476,"lng":-1.480405,"list":10540,"gp_fte":4.5133333333,"rating":"Good","prev":{"asthma":6.415,"atrial_fibrillation":1.709,"copd":2.317,"coronary_heart_disease":3.099,"dementia":0.434,"depression":17.839,"diabetes":8.863,"hypertension":18.189,"obesity":20.507,"serious_mental_illness":1.516,"stroke_tia":1.767}},{"ods":"M86018","name":"MOSELEY AVENUE SURGERY","pcn":"U07789","lat":52.420752,"lng":-1.53237,"list":11545,"gp_fte":5.6533333333,"rating":"Good","prev":{"asthma":5.698,"atrial_fibrillation":1.967,"copd":1.597,"coronary_heart_disease":2.261,"dementia":0.555,"depression":16.225,"diabetes":7.472,"hypertension":16.283,"obesity":13.6,"serious_mental_illness":0.899,"stroke_tia":1.547}},{"ods":"M86019","name":"WESTWOOD MEDICAL H/CENTRE","pcn":"U49145","lat":52.402421,"lng":-1.565503,"list":4106,"gp_fte":2.6666666666,"rating":"Good","prev":{"asthma":5.577,"atrial_fibrillation":2.09,"copd":1.951,"coronary_heart_disease":2.578,"dementia":0.348,"depression":7.41,"diabetes":8.441,"hypertension":18.927,"obesity":16.728,"serious_mental_illness":0.72,"stroke_tia":1.579}},{"ods":"M86020","name":"WOOD END HEALTH CENTRE","pcn":"U68252","lat":52.435647,"lng":-1.466107,"list":7824,"gp_fte":2.7466666667,"rating":"Good","prev":{"asthma":5.556,"atrial_fibrillation":0.916,"copd":2.634,"coronary_heart_disease":1.568,"dementia":0.339,"depression":15.762,"diabetes":8.843,"hypertension":12.154,"obesity":17.305,"serious_mental_illness":0.815,"stroke_tia":1.493}},{"ods":"M86021","name":"SPRINGFIELD MEDICAL PRACTICE","pcn":"U07789","lat":52.435384,"lng":-1.531175,"list":7258,"gp_fte":4.1546666667,"rating":"Good","prev":{"asthma":7.63,"atrial_fibrillation":1.793,"copd":2.436,"coronary_heart_disease":2.546,"dementia":0.383,"depression":16.797,"diabetes":9.229,"hypertension":18.177,"obesity":17.651,"serious_mental_illness":0.753,"stroke_tia":1.889}},{"ods":"M86027","name":"CHEYLESMORE SURGERY","pcn":"U29575","lat":52.394564,"lng":-1.504131,"list":14375,"gp_fte":4.8133333333,"rating":"Good","prev":{"asthma":3.691,"atrial_fibrillation":1.264,"copd":0.654,"coronary_heart_disease":1.25,"dementia":0.24,"depression":9.128,"diabetes":5.587,"hypertension":8.747,"obesity":7.394,"serious_mental_illness":0.647,"stroke_tia":0.988}},{"ods":"M86028","name":"CENTRAL MEDICAL CENTRE","pcn":"U29575","lat":52.42639,"lng":-1.498971,"list":3490,"gp_fte":1.0666666667,"rating":"Good","prev":{"asthma":5.901,"atrial_fibrillation":1.085,"copd":1.027,"coronary_heart_disease":3.021,"dementia":1.144,"depression":15.167,"diabetes":16.075,"hypertension":15.166,"obesity":17.656,"serious_mental_illness":0.997,"stroke_tia":1.496}},{"ods":"M86029","name":"BROOMFIELD PARK MED.CTR.","pcn":"U14922","lat":52.386886,"lng":-1.533926,"list":18481,"gp_fte":6.604,"rating":"Good","prev":{"asthma":4.207,"atrial_fibrillation":1.447,"copd":0.916,"coronary_heart_disease":1.336,"dementia":0.495,"depression":10.287,"diabetes":3.586,"hypertension":8.692,"obesity":7.126,"serious_mental_illness":0.863,"stroke_tia":1.173}},{"ods":"M86030","name":"KENSINGTON ROAD SURGERY","pcn":"U49145","lat":52.401532,"lng":-1.535638,"list":5225,"gp_fte":3.0266666667,"rating":"Requires improvement","prev":{"asthma":4.803,"atrial_fibrillation":2.428,"copd":1.143,"coronary_heart_disease":2.107,"dementia":0.661,"depression":13.874,"diabetes":6.231,"hypertension":13.426,"obesity":9.529,"serious_mental_illness":1.053,"stroke_tia":1.446}},{"ods":"M86032","name":"HOLBROOKS HEALTH TEAM","pcn":"U30256","lat":52.444022,"lng":-1.506629,"list":12566,"gp_fte":5.0,"rating":"Requires improvement","prev":{"asthma":5.268,"atrial_fibrillation":1.478,"copd":2.32,"coronary_heart_disease":2.376,"dementia":0.89,"depression":18.679,"diabetes":9.424,"hypertension":13.372,"obesity":9.95,"serious_mental_illness":1.009,"stroke_tia":1.851}},{"ods":"M86033","name":"WILLENHAL OAK MEDICAL CENTRE","pcn":"U68252","lat":52.393596,"lng":-1.463841,"list":4676,"gp_fte":2.4533333333,"rating":"Good","prev":{"asthma":7.444,"atrial_fibrillation":1.866,"copd":3.868,"coronary_heart_disease":2.457,"dementia":1.001,"depression":22.49,"diabetes":10.822,"hypertension":20.523,"obesity":34.525,"serious_mental_illness":1.547,"stroke_tia":2.071}},{"ods":"M86034","name":"WOODSIDE MEDICAL CENTRE","pcn":"U49145","lat":52.408364,"lng":-1.57942,"list":9842,"gp_fte":5.1266666666,"rating":"Good","prev":{"asthma":7.391,"atrial_fibrillation":2.61,"copd":1.789,"coronary_heart_disease":2.854,"dementia":1.417,"depression":20.23,"diabetes":9.008,"hypertension":18.817,"obesity":10.997,"serious_mental_illness":1.32,"stroke_tia":2.571}},{"ods":"M86035","name":"HENLEY GREEN MEDICAL CENTRE","pcn":"U68252","lat":52.430765,"lng":-1.468206,"list":8307,"gp_fte":1.6266666667,"rating":"Good","prev":{"asthma":6.651,"atrial_fibrillation":1.616,"copd":2.592,"coronary_heart_disease":2.182,"dementia":0.301,"depression":17.863,"diabetes":9.766,"hypertension":13.697,"obesity":14.745,"serious_mental_illness":1.29,"stroke_tia":1.893}},{"ods":"M86037","name":"QUINTON PARK MEDICAL CENTRE","pcn":"U58127","lat":52.391184,"lng":-1.500175,"list":3613,"gp_fte":0.8906666667,"rating":"Good","prev":{"asthma":4.807,"atrial_fibrillation":1.505,"copd":1.056,"coronary_heart_disease":2.798,"dementia":0.343,"depression":10.645,"diabetes":7.743,"hypertension":13.173,"obesity":9.581,"serious_mental_illness":0.898,"stroke_tia":1.558}},{"ods":"M86038","name":"BREDON AVENUE SURGERY","pcn":"U58127","lat":52.401321,"lng":-1.452912,"list":2621,"gp_fte":1.1306666667,"rating":"Good","prev":{"asthma":4.635,"atrial_fibrillation":3.489,"copd":1.396,"coronary_heart_disease":3.562,"dementia":0.404,"depression":8.424,"diabetes":9.34,"hypertension":21.337,"obesity":13.157,"serious_mental_illness":0.698,"stroke_tia":2.828}},{"ods":"M86039","name":"ALLESLEY VILLAGE SURGERY","pcn":"U07789","lat":52.428952,"lng":-1.563846,"list":4805,"gp_fte":1.7466666666,"rating":"Good","prev":{"asthma":7.241,"atrial_fibrillation":3.131,"copd":1.721,"coronary_heart_disease":4.127,"dementia":0.954,"depression":16.886,"diabetes":6.743,"hypertension":17.607,"obesity":8.621,"serious_mental_illness":0.912,"stroke_tia":2.406}},{"ods":"M86040","name":"WALSGRAVE HEALTH CENTRE","pcn":"U68252","lat":52.422132,"lng":-1.445862,"list":3597,"gp_fte":1.92,"rating":"Good","prev":{"asthma":5.285,"atrial_fibrillation":1.787,"copd":1.506,"coronary_heart_disease":2.502,"dementia":0.511,"depression":7.717,"diabetes":9.027,"hypertension":15.65,"obesity":16.537,"serious_mental_illness":0.74,"stroke_tia":1.889}},{"ods":"M86041","name":"CLAY LANE MEDICAL PRACTICE","pcn":"U29575","lat":52.41504,"lng":-1.479839,"list":10367,"gp_fte":3.16,"rating":"Good","prev":{"asthma":4.53,"atrial_fibrillation":1.158,"copd":1.62,"coronary_heart_disease":1.837,"dementia":0.396,"depression":14.316,"diabetes":7.729,"hypertension":12.017,"obesity":14.797,"serious_mental_illness":1.14,"stroke_tia":1.158}},{"ods":"M86044","name":"PARK HOUSE","pcn":"U33954","lat":52.411115,"lng":-1.492261,"list":4527,"gp_fte":2.6400000001,"rating":"Good","prev":{"asthma":5.041,"atrial_fibrillation":0.98,"copd":1.437,"coronary_heart_disease":2.003,"dementia":0.087,"depression":12.424,"diabetes":8.506,"hypertension":12.799,"obesity":13.381,"serious_mental_illness":0.653,"stroke_tia":0.936}},{"ods":"M86045","name":"PARADISE MEDICAL CENTRE","pcn":"U29575","lat":52.425579,"lng":-1.498171,"list":7368,"gp_fte":3.3333333334,"rating":"Good","prev":{"asthma":7.393,"atrial_fibrillation":0.762,"copd":0.985,"coronary_heart_disease":3.14,"dementia":0.276,"depression":12.083,"diabetes":14.039,"hypertension":13.229,"obesity":18.692,"serious_mental_illness":1.209,"stroke_tia":0.946}},{"ods":"M86046","name":"COPSEWOOD MEDICAL CENTRE","pcn":"U68252","lat":52.407957,"lng":-1.465362,"list":5326,"gp_fte":2.2933333333,"rating":"Good","prev":{"asthma":7.828,"atrial_fibrillation":1.55,"copd":1.458,"coronary_heart_disease":2.307,"dementia":1.587,"depression":16.997,"diabetes":9.206,"hypertension":16.498,"obesity":19.558,"serious_mental_illness":0.72,"stroke_tia":1.679}},{"ods":"M86048","name":"WINDMILL SURGERY","pcn":"U33954","lat":52.448046,"lng":-1.482935,"list":8055,"gp_fte":3.4109333334,"rating":"Good","prev":{"asthma":5.375,"atrial_fibrillation":0.817,"copd":1.269,"coronary_heart_disease":2.013,"dementia":0.122,"depression":16.761,"diabetes":8.776,"hypertension":11.626,"obesity":15.075,"serious_mental_illness":1.171,"stroke_tia":1.196}},{"ods":"M86605","name":"LIMBRICK WOOD SURGERY","pcn":"U49145","lat":52.407178,"lng":-1.57949,"list":3041,"gp_fte":1.3866666667,"rating":"Good","prev":{"asthma":5.64,"atrial_fibrillation":2.535,"copd":2.568,"coronary_heart_disease":2.963,"dementia":0.626,"depression":19.678,"diabetes":8.557,"hypertension":16.628,"obesity":13.105,"serious_mental_illness":0.724,"stroke_tia":1.778}},{"ods":"M86610","name":"ST GEORGES ROAD SURGERY","pcn":"U30256","lat":52.406126,"lng":-1.491769,"list":8477,"gp_fte":2.0986666667,"rating":"Good","prev":{"asthma":1.564,"atrial_fibrillation":0.212,"copd":0.238,"coronary_heart_disease":0.397,"dementia":0.026,"depression":5.031,"diabetes":2.492,"hypertension":4.051,"obesity":12.831,"serious_mental_illness":0.41,"stroke_tia":0.265}},{"ods":"M86612","name":"GEORGE ELIOT MEDICAL CENTRE","pcn":"U30256","lat":52.421479,"lng":-1.498203,"list":4029,"gp_fte":0.96,"rating":"Good","prev":{"asthma":4.915,"atrial_fibrillation":0.541,"copd":0.664,"coronary_heart_disease":1.181,"dementia":0.172,"depression":9.236,"diabetes":8.791,"hypertension":8.979,"obesity":12.739,"serious_mental_illness":0.64,"stroke_tia":0.615}},{"ods":"M86617","name":"HILLFIELDS - DR BANO","pcn":"U29575","lat":52.415445,"lng":-1.497302,"list":4714,"gp_fte":1.8133333333,"rating":"Good","prev":{"asthma":4.514,"atrial_fibrillation":0.889,"copd":0.607,"coronary_heart_disease":2.082,"dementia":0.304,"depression":8.066,"diabetes":9.737,"hypertension":11.559,"obesity":15.182,"serious_mental_illness":1.149,"stroke_tia":0.911}},{"ods":"M86622","name":"GOVIND HEALTH CENTRE","pcn":"U07789","lat":52.397547,"lng":-1.531675,"list":3261,"gp_fte":0.7093333333,"rating":"Good","prev":{"asthma":4.899,"atrial_fibrillation":2.227,"copd":1.992,"coronary_heart_disease":4.014,"dementia":0.527,"depression":14.587,"diabetes":6.06,"hypertension":14.21,"obesity":5.807,"serious_mental_illness":1.025,"stroke_tia":2.022}},{"ods":"M86624","name":"COVENTRY GP GROUP OF PRACTICES","pcn":"U58127","lat":52.427976,"lng":-1.504741,"list":13076,"gp_fte":4.7733333333,"rating":"Good","prev":{"asthma":4.985,"atrial_fibrillation":0.752,"copd":1.457,"coronary_heart_disease":2.029,"dementia":0.29,"depression":15.128,"diabetes":9.825,"hypertension":12.418,"obesity":16.675,"serious_mental_illness":1.332,"stroke_tia":1.191}},{"ods":"M86627","name":"STOKE ALDERMOOR MED CTRE","pcn":"U33954","lat":52.404376,"lng":-1.480496,"list":6693,"gp_fte":2.1600000001,"rating":"Good","prev":{"asthma":6.578,"atrial_fibrillation":0.697,"copd":1.656,"coronary_heart_disease":1.554,"dementia":0.247,"depression":18.519,"diabetes":9.475,"hypertension":12.286,"obesity":19.05,"serious_mental_illness":1.249,"stroke_tia":0.755}},{"ods":"M86633","name":"EDGWICK MEDICAL CENTRE","pcn":"U29575","lat":52.432578,"lng":-1.496533,"list":5700,"gp_fte":2.32,"rating":"Good","prev":{"asthma":5.634,"atrial_fibrillation":0.561,"copd":0.613,"coronary_heart_disease":1.489,"dementia":0.105,"depression":10.068,"diabetes":12.305,"hypertension":12.949,"obesity":23.877,"serious_mental_illness":1.139,"stroke_tia":0.666}},{"ods":"M86638","name":"WOODWAY MEDICAL CENTRE","pcn":"U33954","lat":52.433038,"lng":-1.452939,"list":6977,"gp_fte":5.8666666666,"rating":"Good","prev":{"asthma":6.462,"atrial_fibrillation":1.962,"copd":1.654,"coronary_heart_disease":2.152,"dementia":0.366,"depression":19.159,"diabetes":9.543,"hypertension":16.176,"obesity":20.15,"serious_mental_illness":1.186,"stroke_tia":1.888}},{"ods":"Y00060","name":"THE ANCHOR CENTRE","pcn":"U29575","lat":52.413278,"lng":-1.492954,"list":557,"gp_fte":0.6666666667,"rating":"Outstanding","prev":{"asthma":8.596,"atrial_fibrillation":0.702,"copd":5.088,"coronary_heart_disease":2.632,"dementia":0.175,"depression":55.789,"diabetes":4.561,"hypertension":13.333,"obesity":11.93,"serious_mental_illness":11.93,"stroke_tia":1.228}},{"ods":"Y00140","name":"TORCROSS MEDICAL CENTRE","pcn":"U68252","lat":52.426454,"lng":-1.46919,"list":2145,"gp_fte":1.0666666667,"rating":"Good","prev":{"asthma":6.64,"atrial_fibrillation":2.478,"copd":2.525,"coronary_heart_disease":5.984,"dementia":0.421,"depression":11.812,"diabetes":10.794,"hypertension":15.942,"obesity":19.398,"serious_mental_illness":0.748,"stroke_tia":2.057}},{"ods":"Y00996","name":"MERIDIAN PRACTICE","pcn":"U29575","lat":52.420262,"lng":-1.503478,"list":3959,"gp_fte":1.6,"rating":null,"prev":{"asthma":1.217,"atrial_fibrillation":0.092,"copd":0.023,"coronary_heart_disease":0.229,"dementia":0.0,"depression":8.556,"diabetes":2.522,"hypertension":2.497,"obesity":7.921,"serious_mental_illness":0.596,"stroke_tia":0.16}},{"ods":"Y04882","name":"CHAUCER SURGERY","pcn":"U11614","lat":52.511466,"lng":-1.452294,"list":3612,"gp_fte":0.9666666667,"rating":"Good","prev":{"asthma":6.454,"atrial_fibrillation":1.866,"copd":2.581,"coronary_heart_disease":2.705,"dementia":1.306,"depression":19.74,"diabetes":9.775,"hypertension":17.382,"obesity":13.999,"serious_mental_illness":1.337,"stroke_tia":2.114}},{"ods":"Y04884","name":"SATIS HOUSE","pcn":"U11614","lat":52.520549,"lng":-1.735871,"list":3248,"gp_fte":1.9333333333,"rating":"Good","prev":{"asthma":5.486,"atrial_fibrillation":3.092,"copd":1.455,"coronary_heart_disease":3.031,"dementia":1.152,"depression":12.045,"diabetes":7.596,"hypertension":15.55,"obesity":11.215,"serious_mental_illness":0.424,"stroke_tia":1.97}},{"ods":"Y04965","name":"ALLIANCE TEACHING PRACTICES","pcn":"U30256","lat":52.417364,"lng":-1.507301,"list":21617,"gp_fte":9.5999999998,"rating":null,"prev":{"asthma":3.396,"atrial_fibrillation":0.682,"copd":0.861,"coronary_heart_disease":1.113,"dementia":0.166,"depression":9.337,"diabetes":6.115,"hypertension":8.431,"obesity":10.814,"serious_mental_illness":1.023,"stroke_tia":0.803}},{"ods":"Y04969","name":"CAMP HILL GP LED HEALTH CENTRE","pcn":"U11614","lat":52.528461,"lng":-1.501771,"list":4865,"gp_fte":1.6973333333,"rating":"Good","prev":{"asthma":6.1,"atrial_fibrillation":1.295,"copd":2.166,"coronary_heart_disease":1.619,"dementia":1.133,"depression":22.152,"diabetes":7.334,"hypertension":8.986,"obesity":15.806,"serious_mental_illness":1.356,"stroke_tia":1.113}},{"ods":"Y06218","name":"BROWNSOVER MEDICAL CENTRE","pcn":"U62213","lat":52.387055,"lng":-1.249649,"list":9740,"gp_fte":2.76,"rating":"Good","prev":{"asthma":5.74,"atrial_fibrillation":1.004,"copd":1.086,"coronary_heart_disease":1.588,"dementia":0.4,"depression":15.715,"diabetes":6.14,"hypertension":10.42,"obesity":10.617,"serious_mental_illness":0.656,"stroke_tia":0.932}}]