[{"ods":"D81001","name":"LENSFIELD MEDICAL PRACTICE","pcn":"U88254","lat":52.196882,"lng":0.123148,"list":14268,"gp_fte":6.4469333333,"rating":"Good","prev":{"asthma":4.286,"atrial_fibrillation":1.354,"copd":0.42,"coronary_heart_disease":1.381,"dementia":0.474,"depression":7.13,"diabetes":2.614,"hypertension":6.525,"obesity":4.549,"serious_mental_illness":0.975,"stroke_tia":0.866}},{"ods":"D81002","name":"HUNTINGDON ROAD SURGERY","pcn":"U24388","lat":52.221209,"lng":0.093873,"list":23735,"gp_fte":7.7773333336,"rating":"Good","prev":{"asthma":4.07,"atrial_fibrillation":1.346,"copd":0.617,"coronary_heart_disease":1.458,"dementia":0.463,"depression":6.139,"diabetes":3.071,"hypertension":7.293,"obesity":5.289,"serious_mental_illness":0.626,"stroke_tia":1.055}},{"ods":"D81003","name":"YORK STREET MEDICAL PRACTICE","pcn":"U71777","lat":52.20795,"lng":0.141304,"list":10889,"gp_fte":5.6533333334,"rating":"Good","prev":{"asthma":5.121,"atrial_fibrillation":1.409,"copd":0.84,"coronary_heart_disease":1.698,"dementia":0.135,"depression":7.976,"diabetes":3.87,"hypertension":7.801,"obesity":6.894,"serious_mental_illness":1.174,"stroke_tia":1.002}},{"ods":"D81004","name":"ALCONBURY SURGERY","pcn":"U89554","lat":52.34446,"lng":-0.23897,"list":14749,"gp_fte":7.2666666667,"rating":"Good","prev":{"asthma":7.769,"atrial_fibrillation":2.758,"copd":1.621,"coronary_heart_disease":3.417,"dementia":0.842,"depression":16.858,"diabetes":6.526,"hypertension":15.921,"obesity":13.565,"serious_mental_illness":0.674,"stroke_tia":1.972}},{"ods":"D81005","name":"NEWNHAM WALK SURGERY","pcn":"U88254","lat":52.20227,"lng":0.09985,"list":14699,"gp_fte":6.1280000001,"rating":"Good","prev":{"asthma":4.017,"atrial_fibrillation":1.101,"copd":0.301,"coronary_heart_disease":1.037,"dementia":0.262,"depression":8.155,"diabetes":1.499,"hypertension":5.292,"obesity":2.446,"serious_mental_illness":0.576,"stroke_tia":0.653}},{"ods":"D81008","name":"NORTH BRINK PRACTICE","pcn":"U79015","lat":52.664099,"lng":0.152961,"list":18752,"gp_fte":5.5733333335,"rating":"Good","prev":{"asthma":6.215,"atrial_fibrillation":2.874,"copd":3.046,"coronary_heart_disease":3.714,"dementia":1.032,"depression":13.313,"diabetes":9.116,"hypertension":18.352,"obesity":15.816,"serious_mental_illness":0.739,"stroke_tia":2.297}},{"ods":"D81010","name":"PRIORY FIELDS SURGERY","pcn":"U95574","lat":52.336909,"lng":-0.181397,"list":11110,"gp_fte":5.8133333334,"rating":"Good","prev":{"asthma":6.634,"atrial_fibrillation":2.684,"copd":2.561,"coronary_heart_disease":3.377,"dementia":1.035,"depression":7.555,"diabetes":8.82,"hypertension":17.044,"obesity":15.344,"serious_mental_illness":1.114,"stroke_tia":1.939}},{"ods":"D81011","name":"CLARKSON SURGERY","pcn":"U79015","lat":52.666886,"lng":0.160376,"list":9183,"gp_fte":2.76,"rating":"Good","prev":{"asthma":7.543,"atrial_fibrillation":3.467,"copd":3.821,"coronary_heart_disease":4.487,"dementia":1.041,"depression":14.395,"diabetes":11.455,"hypertension":20.562,"obesity":22.377,"serious_mental_illness":0.906,"stroke_tia":3.155}},{"ods":"D81012","name":"CORNFORD HOUSE SURGERY","pcn":"U65941","lat":52.184123,"lng":0.177321,"list":11401,"gp_fte":6.9866666667,"rating":"Good","prev":{"asthma":7.162,"atrial_fibrillation":2.214,"copd":1.307,"coronary_heart_disease":2.81,"dementia":0.978,"depression":9.316,"diabetes":6.591,"hypertension":13.79,"obesity":7.985,"serious_mental_illness":1.218,"stroke_tia":1.68}},{"ods":"D81013","name":"TRUMPINGTON STREET MEDICAL PRACTICE","pcn":"U88254","lat":52.183491,"lng":0.109082,"list":20988,"gp_fte":9.9040000001,"rating":"Good","prev":{"asthma":4.612,"atrial_fibrillation":0.784,"copd":0.516,"coronary_heart_disease":1.0,"dementia":0.169,"depression":7.864,"diabetes":2.246,"hypertension":5.313,"obesity":5.174,"serious_mental_illness":0.667,"stroke_tia":0.624}},{"ods":"D81014","name":"STAPLOE MEDICAL CENTRE","pcn":"U16004","lat":52.339494,"lng":0.352579,"list":23668,"gp_fte":14.3866666667,"rating":"Good","prev":{"asthma":6.837,"atrial_fibrillation":2.185,"copd":1.787,"coronary_heart_disease":2.773,"dementia":0.669,"depression":15.22,"diabetes":7.141,"hypertension":16.758,"obesity":14.108,"serious_mental_illness":0.644,"stroke_tia":1.545}},{"ods":"D81015","name":"PARSON DROVE SURGERY","pcn":"U79015","lat":52.663275,"lng":0.050008,"list":6991,"gp_fte":2.8000000001,"rating":"Requires improvement","prev":{"asthma":8.304,"atrial_fibrillation":3.047,"copd":2.509,"coronary_heart_disease":3.792,"dementia":0.51,"depression":10.157,"diabetes":11.051,"hypertension":19.068,"obesity":15.527,"serious_mental_illness":0.469,"stroke_tia":2.675}},{"ods":"D81016","name":"ARBURY ROAD SURGERY","pcn":"U71777","lat":52.228178,"lng":0.124782,"list":12585,"gp_fte":4.1866666667,"rating":"Good","prev":{"asthma":6.809,"atrial_fibrillation":1.605,"copd":1.929,"coronary_heart_disease":2.407,"dementia":0.463,"depression":14.162,"diabetes":6.627,"hypertension":10.515,"obesity":12.184,"serious_mental_illness":1.435,"stroke_tia":1.211}},{"ods":"D81017","name":"MILL ROAD SURGERY","pcn":"U65941","lat":52.194638,"lng":0.155891,"list":9245,"gp_fte":5.32,"rating":"Good","prev":{"asthma":5.724,"atrial_fibrillation":1.096,"copd":1.118,"coronary_heart_disease":1.476,"dementia":0.716,"depression":7.112,"diabetes":4.516,"hypertension":8.93,"obesity":9.104,"serious_mental_illness":1.063,"stroke_tia":0.998}},{"ods":"D81018","name":"ORCHARD SURGERY,MELBOURN","pcn":"U19471","lat":52.087932,"lng":0.017999,"list":8274,"gp_fte":5.6266666669,"rating":"Good","prev":{"asthma":8.385,"atrial_fibrillation":2.92,"copd":1.863,"coronary_heart_disease":3.173,"dementia":0.649,"depression":9.458,"diabetes":7.208,"hypertension":15.779,"obesity":10.642,"serious_mental_illness":0.817,"stroke_tia":2.584}},{"ods":"D81021","name":"ST. GEORGE'S MEDICAL CENTRE","pcn":"U30123","lat":52.461222,"lng":0.309311,"list":13009,"gp_fte":6.6293333334,"rating":"Good","prev":{"asthma":8.581,"atrial_fibrillation":2.67,"copd":2.155,"coronary_heart_disease":3.638,"dementia":0.991,"depression":18.232,"diabetes":9.01,"hypertension":16.237,"obesity":18.784,"serious_mental_illness":0.945,"stroke_tia":1.795}},{"ods":"D81022","name":"JENNER HEALTHCARE","pcn":"U85953","lat":52.584907,"lng":-0.143351,"list":17454,"gp_fte":8.0453333334,"rating":"Good","prev":{"asthma":7.257,"atrial_fibrillation":2.869,"copd":2.727,"coronary_heart_disease":3.957,"dementia":0.998,"depression":14.191,"diabetes":10.41,"hypertension":19.888,"obesity":19.767,"serious_mental_illness":0.68,"stroke_tia":2.409}},{"ods":"D81025","name":"CHERRY HINTON MEDICAL CENTRE","pcn":"U65941","lat":52.191172,"lng":0.168658,"list":9244,"gp_fte":3.6313333333,"rating":null,"prev":{"asthma":5.638,"atrial_fibrillation":1.871,"copd":1.545,"coronary_heart_disease":2.985,"dementia":0.441,"depression":14.817,"diabetes":7.166,"hypertension":13.212,"obesity":11.656,"serious_mental_illness":1.324,"stroke_tia":1.566}},{"ods":"D81026","name":"BOROUGHBURY MEDICAL CENTRE","pcn":"U11694","lat":52.591631,"lng":-0.252424,"list":47899,"gp_fte":16.4109333335,"rating":"Outstanding","prev":{"asthma":6.118,"atrial_fibrillation":2.131,"copd":2.116,"coronary_heart_disease":3.259,"dementia":1.065,"depression":13.188,"diabetes":9.679,"hypertension":14.861,"obesity":15.149,"serious_mental_illness":1.377,"stroke_tia":1.915}},{"ods":"D81027","name":"WELLSIDE SURGERY","pcn":"U89554","lat":52.442282,"lng":-0.287719,"list":8071,"gp_fte":4.2,"rating":"Good","prev":{"asthma":8.093,"atrial_fibrillation":2.639,"copd":2.074,"coronary_heart_disease":3.28,"dementia":0.603,"depression":17.972,"diabetes":8.309,"hypertension":17.079,"obesity":13.756,"serious_mental_illness":0.691,"stroke_tia":2.312}},{"ods":"D81028","name":"FIRS HOUSE SURGERY","pcn":"U09738","lat":52.265868,"lng":0.108657,"list":13091,"gp_fte":6.2666666667,"rating":"Good","prev":{"asthma":7.636,"atrial_fibrillation":3.143,"copd":1.446,"coronary_heart_disease":3.244,"dementia":1.657,"depression":12.999,"diabetes":6.142,"hypertension":15.471,"obesity":7.29,"serious_mental_illness":1.008,"stroke_tia":1.978}},{"ods":"D81029","name":"OLD FLETTON SURGERY","pcn":"U75549","lat":52.556341,"lng":-0.235251,"list":13410,"gp_fte":6.5066666668,"rating":"Good","prev":{"asthma":6.555,"atrial_fibrillation":1.987,"copd":2.031,"coronary_heart_disease":2.832,"dementia":0.519,"depression":7.929,"diabetes":8.5,"hypertension":14.368,"obesity":14.98,"serious_mental_illness":0.816,"stroke_tia":1.564}},{"ods":"D81030","name":"GROVE MEDICAL PRACTICE","pcn":"U63072","lat":52.329036,"lng":-0.071432,"list":15092,"gp_fte":6.3719999999,"rating":"Good","prev":{"asthma":8.426,"atrial_fibrillation":3.235,"copd":2.364,"coronary_heart_disease":3.763,"dementia":0.799,"depression":14.529,"diabetes":7.503,"hypertension":19.713,"obesity":13.71,"serious_mental_illness":0.984,"stroke_tia":2.251}},{"ods":"D81031","name":"YAXLEY GROUP PRACTICE","pcn":"U75549","lat":52.51807,"lng":-0.259673,"list":20830,"gp_fte":8.704,"rating":"Good","prev":{"asthma":6.771,"atrial_fibrillation":1.982,"copd":2.007,"coronary_heart_disease":2.568,"dementia":0.513,"depression":18.736,"diabetes":7.612,"hypertension":14.92,"obesity":17.904,"serious_mental_illness":0.654,"stroke_tia":1.66}},{"ods":"D81033","name":"OVER SURGERY","pcn":"U09738","lat":52.308375,"lng":0.018185,"list":5015,"gp_fte":3.0933333333,"rating":"Good","prev":{"asthma":8.886,"atrial_fibrillation":2.492,"copd":1.97,"coronary_heart_disease":3.759,"dementia":0.744,"depression":14.066,"diabetes":7.026,"hypertension":16.824,"obesity":18.47,"serious_mental_illness":0.824,"stroke_tia":1.95}},{"ods":"D81034","name":"ST MARY'S SURGERY","pcn":"U30123","lat":52.400062,"lng":0.247592,"list":18899,"gp_fte":6.5549333334,"rating":"Good","prev":{"asthma":8.273,"atrial_fibrillation":3.338,"copd":2.308,"coronary_heart_disease":4.18,"dementia":0.933,"depression":12.621,"diabetes":8.134,"hypertension":17.323,"obesity":15.613,"serious_mental_illness":0.836,"stroke_tia":2.109}},{"ods":"D81035","name":"COMBERTON SURGERY","pcn":"U19471","lat":52.189846,"lng":0.012758,"list":10046,"gp_fte":5.3733333334,"rating":"Good","prev":{"asthma":8.6,"atrial_fibrillation":2.979,"copd":1.24,"coronary_heart_disease":3.419,"dementia":0.76,"depression":14.121,"diabetes":6.106,"hypertension":15.395,"obesity":9.84,"serious_mental_illness":0.84,"stroke_tia":1.879}},{"ods":"D81036","name":"PRIORS FIELD SURGERY","pcn":"U30123","lat":52.393105,"lng":0.115796,"list":5123,"gp_fte":2.2933333334,"rating":"Good","prev":{"asthma":9.059,"atrial_fibrillation":2.968,"copd":2.382,"coronary_heart_disease":4.178,"dementia":0.605,"depression":13.807,"diabetes":7.836,"hypertension":18.528,"obesity":15.166,"serious_mental_illness":0.566,"stroke_tia":1.777}},{"ods":"D81037","name":"BRIDGE STREET MEDICAL CENTRE","pcn":"U24388","lat":52.210743,"lng":0.114057,"list":11391,"gp_fte":3.9866666668,"rating":"Good","prev":{"asthma":2.948,"atrial_fibrillation":0.768,"copd":0.397,"coronary_heart_disease":0.691,"dementia":0.112,"depression":5.048,"diabetes":1.427,"hypertension":3.756,"obesity":3.269,"serious_mental_illness":0.777,"stroke_tia":0.596}},{"ods":"D81038","name":"KIMBOLTON MEDICAL CENTRE","pcn":"U89554","lat":52.305603,"lng":-0.399084,"list":7342,"gp_fte":5.1226666666,"rating":"Good","prev":{"asthma":8.825,"atrial_fibrillation":3.056,"copd":1.774,"coronary_heart_disease":3.574,"dementia":0.696,"depression":10.052,"diabetes":6.464,"hypertension":19.536,"obesity":9.776,"serious_mental_illness":0.477,"stroke_tia":1.992}},{"ods":"D81041","name":"BOURN SURGERY","pcn":"U19471","lat":52.191179,"lng":-0.060405,"list":6895,"gp_fte":3.96,"rating":"Good","prev":{"asthma":7.118,"atrial_fibrillation":2.909,"copd":1.155,"coronary_heart_disease":2.982,"dementia":0.702,"depression":9.484,"diabetes":7.022,"hypertension":15.232,"obesity":12.713,"serious_mental_illness":0.643,"stroke_tia":1.886}},{"ods":"D81042","name":"WATERBEACH AND COTTENHAM SURGERIES","pcn":"U09738","lat":52.278767,"lng":0.164543,"list":9645,"gp_fte":4.1866666666,"rating":"Requires improvement","prev":{"asthma":7.613,"atrial_fibrillation":2.235,"copd":1.558,"coronary_heart_disease":2.84,"dementia":1.138,"depression":11.904,"diabetes":6.423,"hypertension":13.534,"obesity":10.044,"serious_mental_illness":0.913,"stroke_tia":1.507}},{"ods":"D81043","name":"GRANTA MEDICAL PRACTICES","pcn":"U83524","lat":52.097413,"lng":0.119435,"list":58767,"gp_fte":34.7466666666,"rating":"Outstanding","prev":{"asthma":7.957,"atrial_fibrillation":3.074,"copd":1.485,"coronary_heart_disease":3.703,"dementia":0.658,"depression":11.221,"diabetes":6.618,"hypertension":15.137,"obesity":11.789,"serious_mental_illness":0.828,"stroke_tia":1.817}},{"ods":"D81044","name":"NUFFIELD ROAD MEDICAL CENTRE","pcn":"U71777","lat":52.228745,"lng":0.135765,"list":13921,"gp_fte":6.3103999999,"rating":"Good","prev":{"asthma":7.013,"atrial_fibrillation":2.136,"copd":1.877,"coronary_heart_disease":3.221,"dementia":1.47,"depression":14.516,"diabetes":6.927,"hypertension":11.757,"obesity":14.096,"serious_mental_illness":1.295,"stroke_tia":1.534}},{"ods":"D81045","name":"BUCKDEN SURGERY","pcn":"U89554","lat":52.272613,"lng":-0.254322,"list":10495,"gp_fte":6.6799999999,"rating":"Outstanding","prev":{"asthma":7.401,"atrial_fibrillation":3.0,"copd":1.796,"coronary_heart_disease":3.678,"dementia":0.803,"depression":14.415,"diabetes":7.502,"hypertension":18.009,"obesity":13.344,"serious_mental_illness":0.573,"stroke_tia":2.169}},{"ods":"D81046","name":"NEW QUEEN STREET SURGERY","pcn":"U75549","lat":52.554345,"lng":-0.160447,"list":19439,"gp_fte":7.4133333333,"rating":"Requires improvement","prev":{"asthma":6.089,"atrial_fibrillation":2.082,"copd":2.024,"coronary_heart_disease":2.535,"dementia":0.711,"depression":17.679,"diabetes":8.286,"hypertension":16.596,"obesity":21.272,"serious_mental_illness":0.759,"stroke_tia":1.671}},{"ods":"D81049","name":"SPINNEY SURGERY","pcn":"U63072","lat":52.336359,"lng":-0.081779,"list":11799,"gp_fte":5.3760000002,"rating":"Good","prev":{"asthma":7.246,"atrial_fibrillation":2.554,"copd":1.604,"coronary_heart_disease":3.25,"dementia":0.662,"depression":12.662,"diabetes":7.337,"hypertension":17.734,"obesity":16.999,"serious_mental_illness":0.73,"stroke_tia":1.986}},{"ods":"D81050","name":"THE HICKS GROUP PRACTICE","pcn":"U95574","lat":52.324989,"lng":-0.178684,"list":17221,"gp_fte":9.2133333333,"rating":"Good","prev":{"asthma":7.518,"atrial_fibrillation":2.434,"copd":1.622,"coronary_heart_disease":3.013,"dementia":0.724,"depression":13.176,"diabetes":7.281,"hypertension":14.445,"obesity":18.711,"serious_mental_illness":0.985,"stroke_tia":1.733}},{"ods":"D81051","name":"BURWELL SURGERY","pcn":"U16004","lat":52.276641,"lng":0.339317,"list":9704,"gp_fte":5.12,"rating":"Good","prev":{"asthma":8.066,"atrial_fibrillation":2.96,"copd":1.636,"coronary_heart_disease":3.387,"dementia":0.521,"depression":13.43,"diabetes":6.341,"hypertension":14.862,"obesity":11.677,"serious_mental_illness":0.73,"stroke_tia":1.772}},{"ods":"D81052","name":"CORNERSTONE PRACTICE","pcn":"U66904","lat":52.550075,"lng":0.084551,"list":9611,"gp_fte":2.7466666668,"rating":"Good","prev":{"asthma":9.303,"atrial_fibrillation":3.306,"copd":3.472,"coronary_heart_disease":4.041,"dementia":1.223,"depression":18.413,"diabetes":10.698,"hypertension":19.896,"obesity":19.458,"serious_mental_illness":1.098,"stroke_tia":2.321}},{"ods":"D81054","name":"RED HOUSE SURGERY","pcn":"U24388","lat":52.213718,"lng":0.129186,"list":20642,"gp_fte":9.1999999998,"rating":"Good","prev":{"asthma":3.111,"atrial_fibrillation":1.051,"copd":0.667,"coronary_heart_disease":1.403,"dementia":0.278,"depression":6.385,"diabetes":2.696,"hypertension":7.166,"obesity":3.684,"serious_mental_illness":0.967,"stroke_tia":0.694}},{"ods":"D81055","name":"BOTTISHAM MEDICAL PRACTICE","pcn":"U71777","lat":52.214854,"lng":0.275311,"list":5865,"gp_fte":4.1733333334,"rating":"Good","prev":{"asthma":8.575,"atrial_fibrillation":3.838,"copd":2.324,"coronary_heart_disease":4.269,"dementia":2.392,"depression":14.031,"diabetes":7.741,"hypertension":18.348,"obesity":11.335,"serious_mental_illness":1.067,"stroke_tia":2.737}},{"ods":"D81056","name":"PETERSFIELD MEDICAL PRACTICE","pcn":"U65941","lat":52.195906,"lng":0.140332,"list":6995,"gp_fte":2.4533333333,"rating":"Good","prev":{"asthma":4.443,"atrial_fibrillation":1.0,"copd":1.028,"coronary_heart_disease":1.507,"dementia":0.239,"depression":10.102,"diabetes":3.034,"hypertension":9.901,"obesity":5.367,"serious_mental_illness":1.254,"stroke_tia":0.746}},{"ods":"D81057","name":"LAKESIDE HEALTHCARE ST NEOTS","pcn":"U20640","lat":52.224559,"lng":-0.27097,"list":20974,"gp_fte":8.2933333334,"rating":"Good","prev":{"asthma":6.852,"atrial_fibrillation":2.997,"copd":2.184,"coronary_heart_disease":3.378,"dementia":1.047,"depression":11.879,"diabetes":7.878,"hypertension":16.671,"obesity":20.022,"serious_mental_illness":0.918,"stroke_tia":2.051}},{"ods":"D81058","name":"HARSTON SURGERY","pcn":"U19471","lat":52.134902,"lng":0.056746,"list":7783,"gp_fte":3.8800000001,"rating":"Good","prev":{"asthma":7.319,"atrial_fibrillation":3.021,"copd":1.131,"coronary_heart_disease":3.06,"dementia":0.643,"depression":12.762,"diabetes":5.901,"hypertension":14.951,"obesity":9.43,"serious_mental_illness":0.836,"stroke_tia":2.211}},{"ods":"D81059","name":"RAMSEY HEALTH CENTRE","pcn":"U66904","lat":52.452545,"lng":-0.116233,"list":7715,"gp_fte":3.7333333333,"rating":"Good","prev":{"asthma":8.196,"atrial_fibrillation":3.277,"copd":2.685,"coronary_heart_disease":3.764,"dementia":0.75,"depression":16.29,"diabetes":10.827,"hypertension":17.397,"obesity":19.892,"serious_mental_illness":0.75,"stroke_tia":2.25}},{"ods":"D81060","name":"MOAT HOUSE SURGERY","pcn":"U63072","lat":52.412751,"lng":-0.090108,"list":7547,"gp_fte":3.12,"rating":"Good","prev":{"asthma":7.376,"atrial_fibrillation":2.903,"copd":2.045,"coronary_heart_disease":3.747,"dementia":0.726,"depression":12.978,"diabetes":9.282,"hypertension":18.512,"obesity":12.687,"serious_mental_illness":0.62,"stroke_tia":2.137}},{"ods":"D81061","name":"GEORGE CLARE SURGERY","pcn":"U55369","lat":52.452886,"lng":0.056503,"list":12028,"gp_fte":7.3866666668,"rating":"Good","prev":{"asthma":8.447,"atrial_fibrillation":2.725,"copd":2.99,"coronary_heart_disease":4.418,"dementia":0.95,"depression":17.698,"diabetes":9.595,"hypertension":19.812,"obesity":23.631,"serious_mental_illness":0.677,"stroke_tia":1.891}},{"ods":"D81062","name":"HADDENHAM SURGERY","pcn":"U16004","lat":52.356629,"lng":0.156255,"list":8156,"gp_fte":3.0266666667,"rating":"Requires improvement","prev":{"asthma":9.098,"atrial_fibrillation":3.094,"copd":1.931,"coronary_heart_disease":3.911,"dementia":0.569,"depression":14.615,"diabetes":8.582,"hypertension":21.735,"obesity":18.508,"serious_mental_illness":0.594,"stroke_tia":2.203}},{"ods":"D81064","name":"MERCHEFORD HOUSE","pcn":"U66904","lat":52.548452,"lng":0.084073,"list":7085,"gp_fte":3.0133333334,"rating":"Good","prev":{"asthma":9.349,"atrial_fibrillation":3.358,"copd":3.786,"coronary_heart_disease":4.64,"dementia":1.134,"depression":17.747,"diabetes":11.125,"hypertension":23.008,"obesity":19.544,"serious_mental_illness":0.751,"stroke_tia":2.504}},{"ods":"D81065","name":"NIGHTINGALE MEDICAL CENTRE","pcn":"U13771","lat":52.591596,"lng":-0.231553,"list":7173,"gp_fte":4.1973333334,"rating":"Requires improvement","prev":{"asthma":6.925,"atrial_fibrillation":1.181,"copd":2.106,"coronary_heart_disease":2.363,"dementia":0.285,"depression":16.095,"diabetes":9.538,"hypertension":11.287,"obesity":13.183,"serious_mental_illness":1.281,"stroke_tia":0.925}},{"ods":"D81066","name":"QUEEN EDITH MEDICAL PRACTICE","pcn":"U65941","lat":52.181768,"lng":0.151087,"list":10782,"gp_fte":5.6933333332,"rating":"Good","prev":{"asthma":5.144,"atrial_fibrillation":1.966,"copd":1.057,"coronary_heart_disease":2.476,"dementia":0.631,"depression":7.406,"diabetes":4.342,"hypertension":10.071,"obesity":6.859,"serious_mental_illness":0.76,"stroke_tia":1.345}},{"ods":"D81070","name":"WOODLANDS SURGERY","pcn":"U65941","lat":52.193652,"lng":0.134096,"list":11051,"gp_fte":5.3399999999,"rating":"Good","prev":{"asthma":4.364,"atrial_fibrillation":0.822,"copd":0.596,"coronary_heart_disease":1.121,"dementia":0.09,"depression":10.038,"diabetes":2.873,"hypertension":6.191,"obesity":5.387,"serious_mental_illness":1.283,"stroke_tia":0.524}},{"ods":"D81073","name":"WESTWOOD CLINIC","pcn":"U13771","lat":52.587549,"lng":-0.26904,"list":5747,"gp_fte":0.6666666667,"rating":"Good","prev":{"asthma":5.01,"atrial_fibrillation":1.283,"copd":1.984,"coronary_heart_disease":2.292,"dementia":0.667,"depression":14.956,"diabetes":10.443,"hypertension":14.249,"obesity":19.213,"serious_mental_illness":1.18,"stroke_tia":1.112}},{"ods":"D81078","name":"MAPLE SURGERY BAR HILL HEALTH CENTRE","pcn":"U09738","lat":52.254644,"lng":0.013969,"list":4138,"gp_fte":1.312,"rating":"Good","prev":{"asthma":6.125,"atrial_fibrillation":1.679,"copd":1.329,"coronary_heart_disease":2.425,"dementia":0.303,"depression":7.842,"diabetes":5.533,"hypertension":14.805,"obesity":10.601,"serious_mental_illness":0.769,"stroke_tia":1.003}},{"ods":"D81081","name":"GREAT STAUGHTON SURGERY","pcn":"U20640","lat":52.24983,"lng":-0.317441,"list":5377,"gp_fte":2.8666666667,"rating":"Inadequate","prev":{"asthma":8.276,"atrial_fibrillation":3.178,"copd":1.757,"coronary_heart_disease":4.3,"dementia":0.411,"depression":11.538,"diabetes":7.826,"hypertension":18.153,"obesity":17.373,"serious_mental_illness":0.505,"stroke_tia":2.262}},{"ods":"D81082","name":"ALMOND ROAD SURGERY","pcn":"U89554","lat":52.228189,"lng":-0.259536,"list":7973,"gp_fte":3.6000000001,"rating":"Good","prev":{"asthma":5.973,"atrial_fibrillation":2.649,"copd":2.675,"coronary_heart_disease":3.118,"dementia":0.874,"depression":16.252,"diabetes":7.568,"hypertension":17.028,"obesity":14.485,"serious_mental_illness":0.626,"stroke_tia":2.362}},{"ods":"D81084","name":"WILLINGHAM MEDICAL PRACTICE","pcn":"U09738","lat":52.29646,"lng":0.052306,"list":12448,"gp_fte":5.8533333333,"rating":"Good","prev":{"asthma":6.37,"atrial_fibrillation":1.648,"copd":1.309,"coronary_heart_disease":2.104,"dementia":0.224,"depression":13.195,"diabetes":5.727,"hypertension":9.906,"obesity":8.031,"serious_mental_illness":0.663,"stroke_tia":1.002}},{"ods":"D81085","name":"PAPWORTH SURGERY","pcn":"U95574","lat":52.254208,"lng":-0.128383,"list":7461,"gp_fte":4.08,"rating":"Good","prev":{"asthma":7.057,"atrial_fibrillation":2.286,"copd":1.342,"coronary_heart_disease":3.137,"dementia":0.572,"depression":13.537,"diabetes":7.371,"hypertension":16.228,"obesity":11.746,"serious_mental_illness":0.771,"stroke_tia":1.754}},{"ods":"D81086","name":"EAST BARNWELL HEALTH CENTRE","pcn":"U71777","lat":52.216081,"lng":0.171121,"list":7918,"gp_fte":4.4666666667,"rating":"Good","prev":{"asthma":7.141,"atrial_fibrillation":1.716,"copd":2.1,"coronary_heart_disease":2.318,"dementia":0.371,"depression":15.343,"diabetes":6.948,"hypertension":11.665,"obesity":10.213,"serious_mental_illness":1.319,"stroke_tia":1.268}},{"ods":"D81603","name":"RIVERSIDE PRACTICE","pcn":"U66904","lat":52.550335,"lng":0.079267,"list":7542,"gp_fte":1.7501333333,"rating":"Requires improvement","prev":{"asthma":7.372,"atrial_fibrillation":2.328,"copd":2.355,"coronary_heart_disease":3.7,"dementia":0.753,"depression":15.323,"diabetes":10.237,"hypertension":15.797,"obesity":22.917,"serious_mental_illness":0.807,"stroke_tia":2.18}},{"ods":"D81606","name":"RIVERPORT MEDICAL PRACTICE","pcn":"U63072","lat":52.350934,"lng":-0.041031,"list":13440,"gp_fte":6.0800000002,"rating":"Good","prev":{"asthma":7.749,"atrial_fibrillation":2.476,"copd":2.01,"coronary_heart_disease":3.333,"dementia":0.673,"depression":13.846,"diabetes":7.289,"hypertension":17.523,"obesity":10.76,"serious_mental_illness":0.702,"stroke_tia":1.87}},{"ods":"D81607","name":"SWAVESEY SURGERY","pcn":"U09738","lat":52.289982,"lng":-0.012492,"list":3594,"gp_fte":1.4933333333,"rating":"Good","prev":{"asthma":7.697,"atrial_fibrillation":2.298,"copd":1.009,"coronary_heart_disease":2.55,"dementia":0.224,"depression":11.203,"diabetes":5.97,"hypertension":11.575,"obesity":11.454,"serious_mental_illness":0.392,"stroke_tia":1.457}},{"ods":"D81611","name":"FENLAND GROUP PRACTICE","pcn":"U55369","lat":52.488086,"lng":0.019162,"list":13606,"gp_fte":4.2666666667,"rating":"Good","prev":{"asthma":9.717,"atrial_fibrillation":2.797,"copd":3.334,"coronary_heart_disease":4.43,"dementia":0.731,"depression":16.482,"diabetes":9.816,"hypertension":20.048,"obesity":21.315,"serious_mental_illness":0.567,"stroke_tia":2.551}},{"ods":"D81612","name":"MILTON SURGERY","pcn":"U09738","lat":52.249311,"lng":0.159299,"list":4984,"gp_fte":3.3333333333,"rating":"Good","prev":{"asthma":8.276,"atrial_fibrillation":2.828,"copd":1.404,"coronary_heart_disease":3.45,"dementia":0.562,"depression":13.57,"diabetes":5.891,"hypertension":14.32,"obesity":12.111,"serious_mental_illness":1.143,"stroke_tia":1.845}},{"ods":"D81615","name":"THORPE ROAD","pcn":"U89134","lat":52.573248,"lng":-0.264163,"list":11656,"gp_fte":3.4466666667,"rating":"Good","prev":{"asthma":5.255,"atrial_fibrillation":1.606,"copd":1.065,"coronary_heart_disease":2.003,"dementia":0.811,"depression":12.257,"diabetes":7.302,"hypertension":12.297,"obesity":12.586,"serious_mental_illness":0.828,"stroke_tia":1.31}},{"ods":"D81618","name":"AILSWORTH MEDICAL CENTRE","pcn":"U13771","lat":52.594244,"lng":-0.269644,"list":3381,"gp_fte":3.1066666667,"rating":"Good","prev":{"asthma":6.352,"atrial_fibrillation":1.956,"copd":2.068,"coronary_heart_disease":2.403,"dementia":0.279,"depression":18.737,"diabetes":6.811,"hypertension":14.809,"obesity":5.962,"serious_mental_illness":0.726,"stroke_tia":1.341}},{"ods":"D81622","name":"TRINITY SURGERY","pcn":"U79015","lat":52.665618,"lng":0.161076,"list":14824,"gp_fte":3.32,"rating":"Good","prev":{"asthma":4.955,"atrial_fibrillation":1.905,"copd":3.189,"coronary_heart_disease":2.931,"dementia":1.012,"depression":12.776,"diabetes":8.476,"hypertension":13.371,"obesity":18.623,"serious_mental_illness":0.761,"stroke_tia":1.947}},{"ods":"D81625","name":"THISTLEMOOR MEDICAL CENTRE","pcn":"U89134","lat":52.586399,"lng":-0.250315,"list":32571,"gp_fte":8.5866666666,"rating":"Outstanding","prev":{"asthma":3.553,"atrial_fibrillation":0.623,"copd":0.966,"coronary_heart_disease":1.605,"dementia":0.181,"depression":9.621,"diabetes":6.252,"hypertension":11.101,"obesity":12.286,"serious_mental_illness":0.511,"stroke_tia":0.751}},{"ods":"D81629","name":"WILLOW TREE SURGERY","pcn":"U13771","lat":52.54708,"lng":-0.295317,"list":6484,"gp_fte":1.7333333333,"rating":"Good","prev":{"asthma":5.607,"atrial_fibrillation":1.511,"copd":1.781,"coronary_heart_disease":2.465,"dementia":0.525,"depression":12.433,"diabetes":7.535,"hypertension":13.202,"obesity":11.94,"serious_mental_illness":0.986,"stroke_tia":1.209}},{"ods":"D81630","name":"HAMPTON MEDICAL CENTRE","pcn":"U81217","lat":52.53625,"lng":-0.26797,"list":13190,"gp_fte":5.2,"rating":"Good","prev":{"asthma":4.853,"atrial_fibrillation":0.771,"copd":0.568,"coronary_heart_disease":1.323,"dementia":0.901,"depression":13.564,"diabetes":5.754,"hypertension":8.785,"obesity":10.97,"serious_mental_illness":0.723,"stroke_tia":0.836}},{"ods":"D81631","name":"CENTRAL MEDICAL CENTRE","pcn":"U89134","lat":52.585171,"lng":-0.249356,"list":14868,"gp_fte":3.3066666667,"rating":"Good","prev":{"asthma":3.703,"atrial_fibrillation":0.579,"copd":0.907,"coronary_heart_disease":1.576,"dementia":0.148,"depression":7.442,"diabetes":7.088,"hypertension":8.731,"obesity":8.967,"serious_mental_illness":0.74,"stroke_tia":0.836}},{"ods":"D81633","name":"ACORN SURGERY","pcn":"U95574","lat":52.343034,"lng":-0.175116,"list":11337,"gp_fte":4.6600000001,"rating":"Outstanding","prev":{"asthma":5.026,"atrial_fibrillation":1.41,"copd":1.901,"coronary_heart_disease":2.023,"dementia":0.972,"depression":14.373,"diabetes":7.308,"hypertension":13.524,"obesity":14.385,"serious_mental_illness":0.762,"stroke_tia":1.314}},{"ods":"D81637","name":"MONKFIELD MEDICAL PRACTICE","pcn":"U19471","lat":52.21495,"lng":-0.070219,"list":14209,"gp_fte":9.2426666666,"rating":"Good","prev":{"asthma":5.362,"atrial_fibrillation":0.907,"copd":0.574,"coronary_heart_disease":1.699,"dementia":0.138,"depression":13.326,"diabetes":5.055,"hypertension":7.891,"obesity":12.492,"serious_mental_illness":0.653,"stroke_tia":0.74}},{"ods":"D81645","name":"THE GRANGE MEDICAL CENTRE","pcn":"U13771","lat":52.579813,"lng":-0.266959,"list":2729,"gp_fte":0.9,"rating":"Good","prev":{"asthma":5.743,"atrial_fibrillation":1.123,"copd":1.702,"coronary_heart_disease":2.11,"dementia":0.442,"depression":10.59,"diabetes":8.285,"hypertension":11.538,"obesity":10.455,"serious_mental_illness":1.123,"stroke_tia":1.225}},{"ods":"E82132","name":"ROYSIA SURGERY","pcn":"U19471","lat":52.061316,"lng":-0.024104,"list":6155,"gp_fte":2.7333333333,"rating":"Good","prev":{"asthma":8.274,"atrial_fibrillation":2.38,"copd":1.165,"coronary_heart_disease":2.314,"dementia":0.377,"depression":14.307,"diabetes":6.527,"hypertension":14.623,"obesity":9.973,"serious_mental_illness":0.739,"stroke_tia":1.313}},{"ods":"K83017","name":"WANSFORD","pcn":"U75549","lat":52.57277,"lng":-0.464498,"list":10710,"gp_fte":4.6506666666,"rating":"Good","prev":{"asthma":7.353,"atrial_fibrillation":3.2,"copd":2.224,"coronary_heart_disease":3.848,"dementia":1.073,"depression":9.579,"diabetes":6.806,"hypertension":20.458,"obesity":9.96,"serious_mental_illness":0.474,"stroke_tia":2.572}},{"ods":"Y00056","name":"CAMBRIDGE ACCESS SURGERY","pcn":"U71777","lat":52.231528,"lng":0.103788,"list":682,"gp_fte":2.4666666667,"rating":"Outstanding","prev":{"asthma":10.284,"atrial_fibrillation":1.894,"copd":6.901,"coronary_heart_disease":3.383,"dementia":0.0,"depression":40.866,"diabetes":3.654,"hypertension":11.502,"obesity":11.908,"serious_mental_illness":16.644,"stroke_tia":1.353}},{"ods":"Y00185","name":"CATHEDRAL MEDICAL CENTRE","pcn":"U30123","lat":52.407696,"lng":0.259371,"list":11537,"gp_fte":5.5200000001,"rating":"Good","prev":{"asthma":7.252,"atrial_fibrillation":2.149,"copd":1.409,"coronary_heart_disease":2.14,"dementia":0.844,"depression":18.067,"diabetes":6.333,"hypertension":16.243,"obesity":15.563,"serious_mental_illness":0.748,"stroke_tia":1.557}},{"ods":"Y00486","name":"BOTOLPH BRIDGE COMMUNITY HEALTH CENTRE","pcn":"U13771","lat":52.561501,"lng":-0.261411,"list":7481,"gp_fte":1.6,"rating":"Good","prev":{"asthma":4.88,"atrial_fibrillation":0.964,"copd":1.282,"coronary_heart_disease":1.546,"dementia":0.225,"depression":14.899,"diabetes":6.856,"hypertension":10.715,"obesity":10.444,"serious_mental_illness":0.951,"stroke_tia":0.938}},{"ods":"Y02769","name":"ST NEOTS HEALTH CENTRE","pcn":"U20640","lat":52.226591,"lng":-0.256373,"list":8134,"gp_fte":3.0933333332,"rating":"Requires improvement","prev":{"asthma":5.577,"atrial_fibrillation":0.944,"copd":1.368,"coronary_heart_disease":1.513,"dementia":0.194,"depression":11.132,"diabetes":5.146,"hypertension":9.296,"obesity":11.164,"serious_mental_illness":0.678,"stroke_tia":0.666}},{"ods":"Y07025","name":"PARK MEDICAL CENTRE","pcn":"U81217","lat":52.582943,"lng":-0.244759,"list":8031,"gp_fte":5.3359999998,"rating":"Good","prev":{"asthma":6.894,"atrial_fibrillation":2.165,"copd":1.813,"coronary_heart_disease":3.2,"dementia":0.827,"depression":14.268,"diabetes":10.003,"hypertension":15.316,"obesity":14.423,"serious_mental_illness":1.387,"stroke_tia":2.044}},{"ods":"Y07057","name":"BRETTON MEDICAL PRACTICE","pcn":"U81217","lat":52.590281,"lng":-0.280605,"list":12054,"gp_fte":7.2453333332,"rating":"Good","prev":{"asthma":5.525,"atrial_fibrillation":1.767,"copd":2.284,"coronary_heart_disease":2.769,"dementia":0.6,"depression":15.214,"diabetes":9.132,"hypertension":15.548,"obesity":16.635,"serious_mental_illness":1.101,"stroke_tia":1.43}},{"ods":"Y07059","name":"NENE VALLEY AND HODGSON MEDICAL PRACTICE","pcn":"U85953","lat":52.567978,"lng":-0.279611,"list":19214,"gp_fte":7.5666666665,"rating":"Good","prev":{"asthma":7.76,"atrial_fibrillation":2.059,"copd":1.996,"coronary_heart_disease":2.964,"dementia":0.665,"depression":13.85,"diabetes":8.289,"hypertension":15.488,"obesity":14.715,"serious_mental_illness":0.873,"stroke_tia":1.695}},{"ods":"Y07060","name":"THOMAS WALKER WESTGATE HEALTHCARE","pcn":"U85953","lat":52.582514,"lng":-0.24816,"list":23933,"gp_fte":9.0600000002,"rating":null,"prev":{"asthma":4.441,"atrial_fibrillation":1.403,"copd":1.632,"coronary_heart_disease":2.283,"dementia":0.539,"depression":10.713,"diabetes":8.283,"hypertension":12.849,"obesity":13.253,"serious_mental_illness":0.832,"stroke_tia":1.27}}]