[{"ods":"J81002","name":"ORCHID HOUSE SURGERY","pcn":"U19923","lat":50.805109,"lng":-1.890439,"list":8664,"gp_fte":3.7333333333,"rating":"Good","prev":{"asthma":8.067,"atrial_fibrillation":5.49,"copd":2.282,"coronary_heart_disease":6.613,"dementia":2.594,"depression":7.073,"diabetes":9.392,"hypertension":24.288,"obesity":12.105,"serious_mental_illness":0.903,"stroke_tia":3.776}},{"ods":"J81006","name":"THE ADAM PRACTICE","pcn":"U80758","lat":50.732463,"lng":-2.008433,"list":39258,"gp_fte":21.5466666668,"rating":"Outstanding","prev":{"asthma":9.082,"atrial_fibrillation":3.258,"copd":2.456,"coronary_heart_disease":4.477,"dementia":1.087,"depression":18.528,"diabetes":8.881,"hypertension":17.074,"obesity":14.171,"serious_mental_illness":1.087,"stroke_tia":2.714}},{"ods":"J81009","name":"ROYAL MANOR HEALTH CARE","pcn":"U25251","lat":50.551332,"lng":-2.443219,"list":12336,"gp_fte":2.8533333334,"rating":"Good","prev":{"asthma":8.911,"atrial_fibrillation":3.394,"copd":3.871,"coronary_heart_disease":4.809,"dementia":0.525,"depression":18.391,"diabetes":10.159,"hypertension":20.173,"obesity":22.119,"serious_mental_illness":1.261,"stroke_tia":2.691}},{"ods":"J81010","name":"SWANAGE MEDICAL PRACTICE","pcn":"U32760","lat":50.612578,"lng":-1.971424,"list":10657,"gp_fte":4.1,"rating":"Good","prev":{"asthma":8.971,"atrial_fibrillation":5.061,"copd":3.271,"coronary_heart_disease":5.788,"dementia":1.519,"depression":14.67,"diabetes":7.908,"hypertension":20.727,"obesity":9.694,"serious_mental_illness":1.286,"stroke_tia":3.756}},{"ods":"J81011","name":"WAREHAM SURGERY","pcn":"U32760","lat":50.687238,"lng":-2.11566,"list":8183,"gp_fte":8.16,"rating":"Good","prev":{"asthma":6.949,"atrial_fibrillation":4.619,"copd":3.03,"coronary_heart_disease":5.531,"dementia":1.491,"depression":14.165,"diabetes":9.391,"hypertension":23.208,"obesity":14.223,"serious_mental_illness":0.973,"stroke_tia":3.56}},{"ods":"J81012","name":"SHORE MEDICAL","pcn":"U21465","lat":50.729074,"lng":-1.929117,"list":58420,"gp_fte":29.2266666671,"rating":"Good","prev":{"asthma":6.02,"atrial_fibrillation":2.963,"copd":1.814,"coronary_heart_disease":3.789,"dementia":1.108,"depression":13.783,"diabetes":6.841,"hypertension":15.694,"obesity":12.175,"serious_mental_illness":1.134,"stroke_tia":2.415}},{"ods":"J81013","name":"CANFORD HEATH GROUP PRACT","pcn":"U16737","lat":50.748242,"lng":-1.966295,"list":12156,"gp_fte":5.0,"rating":"Good","prev":{"asthma":8.109,"atrial_fibrillation":2.588,"copd":1.726,"coronary_heart_disease":4.062,"dementia":1.188,"depression":15.817,"diabetes":8.435,"hypertension":16.124,"obesity":12.274,"serious_mental_illness":0.92,"stroke_tia":2.45}},{"ods":"J81014","name":"WESTBOURNE MEDICAL CENTRE","pcn":"U14261","lat":50.725626,"lng":-1.902026,"list":21002,"gp_fte":10.3133333333,"rating":"Good","prev":{"asthma":6.9,"atrial_fibrillation":3.637,"copd":1.572,"coronary_heart_disease":4.21,"dementia":1.425,"depression":11.289,"diabetes":6.32,"hypertension":16.688,"obesity":11.066,"serious_mental_illness":1.416,"stroke_tia":3.035}},{"ods":"J81016","name":"QUEENS AVENUE SURGERY","pcn":"U38731","lat":50.714635,"lng":-2.442951,"list":8752,"gp_fte":0.6666666667,"rating":"Good","prev":{"asthma":7.087,"atrial_fibrillation":3.203,"copd":1.47,"coronary_heart_disease":3.647,"dementia":1.128,"depression":9.377,"diabetes":6.666,"hypertension":14.418,"obesity":9.033,"serious_mental_illness":0.786,"stroke_tia":2.815}},{"ods":"J81017","name":"YETMINSTER HEALTH CENTRE","pcn":"U75274","lat":50.890305,"lng":-2.5796,"list":4742,"gp_fte":2.6666666667,"rating":"Good","prev":{"asthma":6.945,"atrial_fibrillation":3.597,"copd":1.328,"coronary_heart_disease":3.619,"dementia":0.557,"depression":9.122,"diabetes":7.299,"hypertension":18.779,"obesity":10.946,"serious_mental_illness":0.642,"stroke_tia":1.734}},{"ods":"J81018","name":"BEAUFORT ROAD SURGERY","pcn":"U27515","lat":50.731792,"lng":-1.810805,"list":11715,"gp_fte":8.4613333331,"rating":"Good","prev":{"asthma":7.433,"atrial_fibrillation":2.88,"copd":1.948,"coronary_heart_disease":3.795,"dementia":0.798,"depression":14.427,"diabetes":5.847,"hypertension":15.456,"obesity":9.258,"serious_mental_illness":1.394,"stroke_tia":2.393}},{"ods":"J81019","name":"THE BLANDFORD GROUP PRACTICE","pcn":"U42510","lat":50.872305,"lng":-2.172128,"list":23549,"gp_fte":12.5666666667,"rating":"Outstanding","prev":{"asthma":8.229,"atrial_fibrillation":3.752,"copd":2.131,"coronary_heart_disease":4.413,"dementia":0.872,"depression":12.497,"diabetes":8.524,"hypertension":18.518,"obesity":15.979,"serious_mental_illness":0.952,"stroke_tia":2.682}},{"ods":"J81020","name":"BERE REGIS SURGERY","pcn":"U32760","lat":50.740802,"lng":-2.205434,"list":3905,"gp_fte":2.0,"rating":"Good","prev":{"asthma":8.435,"atrial_fibrillation":3.659,"copd":2.139,"coronary_heart_disease":4.612,"dementia":0.541,"depression":14.281,"diabetes":9.057,"hypertension":18.011,"obesity":19.031,"serious_mental_illness":0.773,"stroke_tia":2.422}},{"ods":"J81021","name":"SHELLEY MANOR HOLDENHURST MEDICAL CENTRE","pcn":"U27515","lat":50.731171,"lng":-1.845358,"list":26280,"gp_fte":10.4,"rating":"Good","prev":{"asthma":5.685,"atrial_fibrillation":1.565,"copd":2.25,"coronary_heart_disease":2.589,"dementia":0.622,"depression":11.291,"diabetes":5.689,"hypertension":11.08,"obesity":9.08,"serious_mental_illness":1.74,"stroke_tia":1.725}},{"ods":"J81022","name":"WEST MOORS VILLAGE SURGERY","pcn":"U34826","lat":50.82804,"lng":-1.880994,"list":5382,"gp_fte":3.2906666667,"rating":"Good","prev":{"asthma":9.437,"atrial_fibrillation":4.802,"copd":2.771,"coronary_heart_disease":6.742,"dementia":1.736,"depression":10.916,"diabetes":10.035,"hypertension":24.252,"obesity":10.413,"serious_mental_illness":0.683,"stroke_tia":3.546}},{"ods":"J81025","name":"THE WELLBRIDGE PRACTICE","pcn":"U32760","lat":50.686066,"lng":-2.22936,"list":6064,"gp_fte":4.5866666665,"rating":"Good","prev":{"asthma":7.929,"atrial_fibrillation":3.129,"copd":2.419,"coronary_heart_disease":3.774,"dementia":0.758,"depression":16.154,"diabetes":8.482,"hypertension":15.756,"obesity":12.44,"serious_mental_illness":0.79,"stroke_tia":2.322}},{"ods":"J81027","name":"WEYMOUTH BAY MEDICAL PRACTICE","pcn":"U25251","lat":50.631962,"lng":-2.454209,"list":26873,"gp_fte":12.0533333334,"rating":"Outstanding","prev":{"asthma":9.191,"atrial_fibrillation":3.997,"copd":3.021,"coronary_heart_disease":4.883,"dementia":1.355,"depression":17.51,"diabetes":8.437,"hypertension":21.029,"obesity":12.731,"serious_mental_illness":1.505,"stroke_tia":2.729}},{"ods":"J81028","name":"HIGHCLIFFE MEDICAL CENTRE","pcn":"U78604","lat":50.743684,"lng":-1.716662,"list":15359,"gp_fte":8.7333333333,"rating":"Good","prev":{"asthma":8.676,"atrial_fibrillation":4.854,"copd":1.803,"coronary_heart_disease":5.964,"dementia":1.535,"depression":10.879,"diabetes":7.998,"hypertension":23.027,"obesity":9.394,"serious_mental_illness":0.745,"stroke_tia":3.737}},{"ods":"J81029","name":"THE APPLES MEDICAL CENTRE","pcn":"U75274","lat":50.944174,"lng":-2.513502,"list":5304,"gp_fte":3.6,"rating":"Good","prev":{"asthma":8.944,"atrial_fibrillation":4.659,"copd":2.586,"coronary_heart_disease":4.842,"dementia":1.596,"depression":9.856,"diabetes":8.1,"hypertension":21.607,"obesity":13.507,"serious_mental_illness":0.88,"stroke_tia":2.88}},{"ods":"J81030","name":"THE VERWOOD SURGERY","pcn":"U34826","lat":50.879544,"lng":-1.877515,"list":7843,"gp_fte":5.9733333335,"rating":"Good","prev":{"asthma":8.896,"atrial_fibrillation":3.513,"copd":1.63,"coronary_heart_disease":4.562,"dementia":1.264,"depression":14.743,"diabetes":7.307,"hypertension":19.131,"obesity":8.559,"serious_mental_illness":0.644,"stroke_tia":3.146}},{"ods":"J81033","name":"TALBOT MEDICAL CENTRE","pcn":"U64748","lat":50.758734,"lng":-1.884706,"list":23792,"gp_fte":11.4933333333,"rating":"Good","prev":{"asthma":7.001,"atrial_fibrillation":1.839,"copd":1.93,"coronary_heart_disease":2.72,"dementia":0.554,"depression":11.365,"diabetes":5.681,"hypertension":10.293,"obesity":8.578,"serious_mental_illness":0.817,"stroke_tia":1.831}},{"ods":"J81034","name":"THE QUARTER JACK SURGERY","pcn":"U19923","lat":50.81038,"lng":-1.978408,"list":17916,"gp_fte":9.2933333332,"rating":"Good","prev":{"asthma":7.82,"atrial_fibrillation":3.833,"copd":1.281,"coronary_heart_disease":3.844,"dementia":0.891,"depression":13.098,"diabetes":6.529,"hypertension":16.701,"obesity":11.452,"serious_mental_illness":0.731,"stroke_tia":2.717}},{"ods":"J81035","name":"MILTON ABBAS SURGERY","pcn":"U38731","lat":50.826276,"lng":-2.261897,"list":5003,"gp_fte":3.1808,"rating":"Outstanding","prev":{"asthma":8.957,"atrial_fibrillation":3.659,"copd":1.973,"coronary_heart_disease":4.07,"dementia":0.432,"depression":11.066,"diabetes":7.764,"hypertension":16.999,"obesity":12.898,"serious_mental_illness":0.534,"stroke_tia":1.953}},{"ods":"J81036","name":"THE ROSEMARY HEALTH CTR","pcn":"U80758","lat":50.739842,"lng":-1.941149,"list":9369,"gp_fte":4.5005333333,"rating":"Good","prev":{"asthma":8.354,"atrial_fibrillation":2.534,"copd":2.386,"coronary_heart_disease":3.759,"dementia":0.908,"depression":14.835,"diabetes":8.352,"hypertension":15.637,"obesity":15.322,"serious_mental_illness":1.183,"stroke_tia":2.407}},{"ods":"J81039","name":"MOORDOWN MEDICAL CENTRE","pcn":"U02749","lat":50.753213,"lng":-1.875946,"list":10131,"gp_fte":4.7109333334,"rating":"Good","prev":{"asthma":7.714,"atrial_fibrillation":2.059,"copd":1.751,"coronary_heart_disease":3.233,"dementia":0.507,"depression":20.772,"diabetes":6.956,"hypertension":15.698,"obesity":13.137,"serious_mental_illness":0.895,"stroke_tia":2.029}},{"ods":"J81041","name":"THE HADLEIGH PRACTICE","pcn":"U16737","lat":50.765822,"lng":-2.009512,"list":20614,"gp_fte":14.5760000001,"rating":"Good","prev":{"asthma":8.138,"atrial_fibrillation":3.582,"copd":1.679,"coronary_heart_disease":4.151,"dementia":1.163,"depression":15.975,"diabetes":7.59,"hypertension":19.771,"obesity":14.279,"serious_mental_illness":0.735,"stroke_tia":2.681}},{"ods":"J81042","name":"VILLAGE SURGERY","pcn":"U64748","lat":50.752303,"lng":-1.887687,"list":8500,"gp_fte":4.7112,"rating":"Good","prev":{"asthma":6.158,"atrial_fibrillation":2.066,"copd":2.044,"coronary_heart_disease":3.094,"dementia":0.508,"depression":12.396,"diabetes":7.166,"hypertension":13.47,"obesity":10.096,"serious_mental_illness":0.873,"stroke_tia":1.878}},{"ods":"J81045","name":"KINSON ROAD MEDICAL CENTRE","pcn":"U64748","lat":50.76381,"lng":-1.904651,"list":10796,"gp_fte":5.44,"rating":"Good","prev":{"asthma":8.928,"atrial_fibrillation":2.528,"copd":3.506,"coronary_heart_disease":4.126,"dementia":0.78,"depression":15.567,"diabetes":10.437,"hypertension":16.045,"obesity":13.883,"serious_mental_illness":1.448,"stroke_tia":2.557}},{"ods":"J81046","name":"THE HARVEY PRACTICE","pcn":"U16737","lat":50.76861,"lng":-1.982673,"list":13237,"gp_fte":8.1133333335,"rating":"Good","prev":{"asthma":8.444,"atrial_fibrillation":3.943,"copd":1.648,"coronary_heart_disease":4.397,"dementia":1.394,"depression":16.987,"diabetes":7.198,"hypertension":19.068,"obesity":9.749,"serious_mental_illness":0.916,"stroke_tia":3.327}},{"ods":"J81047","name":"JAMES FISHER MEDICAL CENTRE","pcn":"U02749","lat":50.756565,"lng":-1.864978,"list":12437,"gp_fte":5.2266666667,"rating":"Good","prev":{"asthma":6.897,"atrial_fibrillation":2.581,"copd":1.35,"coronary_heart_disease":3.479,"dementia":0.723,"depression":8.397,"diabetes":6.983,"hypertension":13.097,"obesity":12.172,"serious_mental_illness":0.802,"stroke_tia":2.486}},{"ods":"J81049","name":"THE MARINE & OAKRIDGE PARTNERSHIP","pcn":"U89143","lat":50.732744,"lng":-1.806275,"list":10186,"gp_fte":6.7133333335,"rating":"Good","prev":{"asthma":7.333,"atrial_fibrillation":3.692,"copd":1.886,"coronary_heart_disease":4.077,"dementia":2.231,"depression":9.817,"diabetes":6.712,"hypertension":19.212,"obesity":10.136,"serious_mental_illness":1.185,"stroke_tia":2.824}},{"ods":"J81051","name":"WYKE REGIS & LANEHOUSE MEDICAL PRACTICE","pcn":"U25251","lat":50.609909,"lng":-2.481456,"list":12229,"gp_fte":0.656,"rating":"Requires improvement","prev":{"asthma":9.063,"atrial_fibrillation":3.348,"copd":3.526,"coronary_heart_disease":5.015,"dementia":1.312,"depression":19.86,"diabetes":8.94,"hypertension":20.352,"obesity":10.196,"serious_mental_illness":1.011,"stroke_tia":2.893}},{"ods":"J81053","name":"CERNE ABBAS SURGERY","pcn":"U38731","lat":50.806055,"lng":-2.440968,"list":4176,"gp_fte":2.8103999999,"rating":"Good","prev":{"asthma":9.341,"atrial_fibrillation":4.101,"copd":1.834,"coronary_heart_disease":4.849,"dementia":1.303,"depression":9.338,"diabetes":7.357,"hypertension":21.641,"obesity":8.946,"serious_mental_illness":0.627,"stroke_tia":3.257}},{"ods":"J81056","name":"CHRISTCHURCH MEDICAL PRACTICE","pcn":"U78604","lat":50.746693,"lng":-1.75746,"list":15668,"gp_fte":7.9392,"rating":"Good","prev":{"asthma":7.905,"atrial_fibrillation":4.196,"copd":2.147,"coronary_heart_disease":5.379,"dementia":1.092,"depression":10.921,"diabetes":8.6,"hypertension":18.849,"obesity":13.043,"serious_mental_illness":1.092,"stroke_tia":3.269}},{"ods":"J81057","name":"FARMHOUSE SURGERY","pcn":"U78604","lat":50.740918,"lng":-1.757232,"list":5790,"gp_fte":2.9666666666,"rating":"Requires improvement","prev":{"asthma":7.408,"atrial_fibrillation":3.689,"copd":2.347,"coronary_heart_disease":4.695,"dementia":1.006,"depression":9.065,"diabetes":7.73,"hypertension":17.019,"obesity":8.666,"serious_mental_illness":1.056,"stroke_tia":3.286}},{"ods":"J81058","name":"THE CRANBORNE PRACTICE","pcn":"U34826","lat":50.880726,"lng":-1.884703,"list":13852,"gp_fte":6.7678418699,"rating":"Good","prev":{"asthma":7.57,"atrial_fibrillation":2.521,"copd":1.508,"coronary_heart_disease":4.097,"dementia":0.765,"depression":10.448,"diabetes":7.789,"hypertension":12.382,"obesity":11.184,"serious_mental_illness":0.773,"stroke_tia":2.446}},{"ods":"J81059","name":"SOUTHBOURNE PRACTICE","pcn":"U27515","lat":50.731051,"lng":-1.809994,"list":8923,"gp_fte":6.4,"rating":"Good","prev":{"asthma":7.476,"atrial_fibrillation":3.095,"copd":2.045,"coronary_heart_disease":3.692,"dementia":0.995,"depression":13.579,"diabetes":5.855,"hypertension":15.067,"obesity":10.41,"serious_mental_illness":1.614,"stroke_tia":2.532}},{"ods":"J81061","name":"PENNY'S HILL PRACTICE","pcn":"U19923","lat":50.805441,"lng":-1.892357,"list":7469,"gp_fte":4.56,"rating":"Good","prev":{"asthma":8.321,"atrial_fibrillation":6.133,"copd":2.338,"coronary_heart_disease":7.055,"dementia":3.006,"depression":8.212,"diabetes":9.808,"hypertension":23.958,"obesity":8.963,"serious_mental_illness":0.842,"stroke_tia":4.69}},{"ods":"J81062","name":"ST ALBANS MEDICAL CENTRE","pcn":"U02749","lat":50.746564,"lng":-1.859989,"list":11296,"gp_fte":5.4399999999,"rating":"Good","prev":{"asthma":6.902,"atrial_fibrillation":2.74,"copd":1.911,"coronary_heart_disease":3.821,"dementia":0.703,"depression":15.992,"diabetes":6.55,"hypertension":13.933,"obesity":10.064,"serious_mental_illness":1.262,"stroke_tia":2.514}},{"ods":"J81064","name":"POOLE TOWN SURGERY","pcn":"U80758","lat":50.728805,"lng":-1.972458,"list":5224,"gp_fte":1.8399999999,"rating":"Good","prev":{"asthma":7.598,"atrial_fibrillation":3.066,"copd":2.568,"coronary_heart_disease":3.947,"dementia":1.13,"depression":11.695,"diabetes":8.223,"hypertension":17.666,"obesity":13.826,"serious_mental_illness":0.786,"stroke_tia":2.702}},{"ods":"J81066","name":"STOUR SURGERY","pcn":"U78604","lat":50.74073,"lng":-1.784693,"list":10898,"gp_fte":5.0533333333,"rating":"Good","prev":{"asthma":7.565,"atrial_fibrillation":3.519,"copd":2.265,"coronary_heart_disease":4.212,"dementia":0.945,"depression":9.352,"diabetes":7.072,"hypertension":19.59,"obesity":13.013,"serious_mental_illness":0.711,"stroke_tia":3.061}},{"ods":"J81067","name":"LITTLEDOWN SURGERY","pcn":"U27515","lat":50.739229,"lng":-1.828922,"list":6175,"gp_fte":2.2399999999,"rating":"Good","prev":{"asthma":6.298,"atrial_fibrillation":2.318,"copd":1.961,"coronary_heart_disease":3.793,"dementia":0.519,"depression":10.846,"diabetes":5.393,"hypertension":13.274,"obesity":12.01,"serious_mental_illness":0.6,"stroke_tia":1.605}},{"ods":"J81068","name":"ATRIUM HEALTH CENTRE","pcn":"U38731","lat":50.706248,"lng":-2.398788,"list":6592,"gp_fte":1.6533333334,"rating":"Good","prev":{"asthma":7.924,"atrial_fibrillation":3.935,"copd":2.613,"coronary_heart_disease":4.302,"dementia":0.602,"depression":12.747,"diabetes":8.418,"hypertension":17.795,"obesity":15.667,"serious_mental_illness":1.248,"stroke_tia":3.039}},{"ods":"J81070","name":"THE BANKS & BEARWOOD MEDICAL CENTRE","pcn":"U64748","lat":50.758477,"lng":-1.906382,"list":11516,"gp_fte":4.9333333334,"rating":"Good","prev":{"asthma":7.975,"atrial_fibrillation":2.241,"copd":2.422,"coronary_heart_disease":3.276,"dementia":0.586,"depression":11.65,"diabetes":7.297,"hypertension":13.663,"obesity":12.575,"serious_mental_illness":1.026,"stroke_tia":1.819}},{"ods":"J81072","name":"THE PANTON PRACTICE","pcn":"U02749","lat":50.73242,"lng":-1.861564,"list":17024,"gp_fte":4.9733333333,"rating":"Good","prev":{"asthma":3.81,"atrial_fibrillation":1.44,"copd":0.891,"coronary_heart_disease":2.07,"dementia":0.706,"depression":10.354,"diabetes":3.884,"hypertension":7.963,"obesity":7.722,"serious_mental_illness":1.093,"stroke_tia":1.313}},{"ods":"J81073","name":"THE BRIDGES MEDICAL CTR.","pcn":"U25251","lat":50.62691,"lng":-2.462514,"list":17181,"gp_fte":11.7333333334,"rating":"Good","prev":{"asthma":9.7,"atrial_fibrillation":3.459,"copd":3.342,"coronary_heart_disease":5.138,"dementia":1.124,"depression":24.056,"diabetes":9.568,"hypertension":19.512,"obesity":15.668,"serious_mental_illness":1.504,"stroke_tia":2.774}},{"ods":"J81074","name":"BARTON HOUSE MED PRACTICE","pcn":"U58840","lat":50.808355,"lng":-2.750224,"list":4946,"gp_fte":3.6,"rating":"Good","prev":{"asthma":9.318,"atrial_fibrillation":4.975,"copd":2.018,"coronary_heart_disease":6.214,"dementia":0.719,"depression":15.209,"diabetes":7.471,"hypertension":24.496,"obesity":9.836,"serious_mental_illness":0.939,"stroke_tia":3.177}},{"ods":"J81075","name":"CROSS ROAD SURGERY","pcn":"U25251","lat":50.608248,"lng":-2.472916,"list":8586,"gp_fte":1.7112,"rating":"Good","prev":{"asthma":8.851,"atrial_fibrillation":3.597,"copd":2.89,"coronary_heart_disease":4.569,"dementia":0.846,"depression":14.769,"diabetes":8.021,"hypertension":19.79,"obesity":12.456,"serious_mental_illness":0.921,"stroke_tia":2.613}},{"ods":"J81076","name":"AMMONITE HEALTH PARTNERSHIP","pcn":"U58840","lat":50.758505,"lng":-2.729644,"list":24316,"gp_fte":9.4466666668,"rating":"Good","prev":{"asthma":8.662,"atrial_fibrillation":4.477,"copd":2.577,"coronary_heart_disease":5.158,"dementia":0.96,"depression":15.167,"diabetes":7.606,"hypertension":19.482,"obesity":12.38,"serious_mental_illness":1.194,"stroke_tia":3.057}},{"ods":"J81077","name":"WALFORD MILL MEDICAL CENTRE","pcn":"U19923","lat":50.808471,"lng":-1.983546,"list":8337,"gp_fte":2.8666666667,"rating":"Good","prev":{"asthma":8.835,"atrial_fibrillation":3.112,"copd":1.397,"coronary_heart_disease":4.026,"dementia":0.66,"depression":14.362,"diabetes":6.853,"hypertension":18.593,"obesity":10.377,"serious_mental_illness":0.876,"stroke_tia":3.048}},{"ods":"J81078","name":"THE GROVE MEDICAL CENTRE","pcn":"U75274","lat":50.946141,"lng":-2.519313,"list":13010,"gp_fte":8.0266666666,"rating":"Good","prev":{"asthma":7.884,"atrial_fibrillation":4.492,"copd":2.458,"coronary_heart_disease":4.361,"dementia":1.356,"depression":9.198,"diabetes":8.21,"hypertension":18.894,"obesity":12.846,"serious_mental_illness":1.048,"stroke_tia":2.859}},{"ods":"J81081","name":"GILLINGHAM MEDICAL PRACTICE","pcn":"U51429","lat":51.036645,"lng":-2.274524,"list":13338,"gp_fte":5.1679999999,"rating":"Good","prev":{"asthma":8.206,"atrial_fibrillation":3.721,"copd":2.26,"coronary_heart_disease":4.851,"dementia":1.092,"depression":10.872,"diabetes":9.297,"hypertension":19.051,"obesity":14.529,"serious_mental_illness":1.017,"stroke_tia":2.976}},{"ods":"J81082","name":"POUNDBURY DOCTORS SURGERY","pcn":"U38731","lat":50.722671,"lng":-2.450465,"list":8145,"gp_fte":3.8133333333,"rating":"Good","prev":{"asthma":9.194,"atrial_fibrillation":3.897,"copd":2.301,"coronary_heart_disease":3.823,"dementia":0.891,"depression":10.258,"diabetes":6.887,"hypertension":15.712,"obesity":12.277,"serious_mental_illness":0.903,"stroke_tia":2.499}},{"ods":"J81086","name":"EVERGREEN OAK SURGERY","pcn":"U80758","lat":50.733308,"lng":-1.96304,"list":7643,"gp_fte":3.2533333334,"rating":"Good","prev":{"asthma":8.098,"atrial_fibrillation":2.678,"copd":1.713,"coronary_heart_disease":3.348,"dementia":0.528,"depression":10.968,"diabetes":6.368,"hypertension":12.671,"obesity":14.345,"serious_mental_illness":0.927,"stroke_tia":2.228}},{"ods":"J81087","name":"THE BIRCHWOOD PRACTICE","pcn":"U16737","lat":50.741642,"lng":-1.991534,"list":10530,"gp_fte":5.3512,"rating":"Good","prev":{"asthma":7.854,"atrial_fibrillation":2.328,"copd":1.784,"coronary_heart_disease":3.873,"dementia":0.525,"depression":17.032,"diabetes":8.114,"hypertension":16.104,"obesity":10.947,"serious_mental_illness":1.164,"stroke_tia":2.061}},{"ods":"J81609","name":"PRINCE OF WALES SURGERY","pcn":"U38731","lat":50.70977,"lng":-2.489653,"list":9921,"gp_fte":7.0754666668,"rating":"Good","prev":{"asthma":9.366,"atrial_fibrillation":4.38,"copd":2.007,"coronary_heart_disease":4.971,"dementia":1.345,"depression":12.047,"diabetes":7.928,"hypertension":22.176,"obesity":11.89,"serious_mental_illness":1.09,"stroke_tia":3.188}},{"ods":"J81612","name":"CORFE CASTLE SURGERY","pcn":"U32760","lat":50.63356,"lng":-2.028337,"list":3248,"gp_fte":2.5200000001,"rating":"Outstanding","prev":{"asthma":9.183,"atrial_fibrillation":4.873,"copd":2.861,"coronary_heart_disease":5.533,"dementia":0.943,"depression":11.493,"diabetes":8.222,"hypertension":24.08,"obesity":14.714,"serious_mental_illness":1.006,"stroke_tia":3.018}},{"ods":"J81616","name":"PUDDLETOWN SURGERY","pcn":"U38731","lat":50.759293,"lng":-2.342249,"list":4300,"gp_fte":2.7333333333,"rating":"Good","prev":{"asthma":9.684,"atrial_fibrillation":3.718,"copd":1.59,"coronary_heart_disease":4.139,"dementia":0.889,"depression":6.804,"diabetes":6.737,"hypertension":21.352,"obesity":15.482,"serious_mental_illness":0.398,"stroke_tia":2.689}},{"ods":"J81620","name":"BLACKMORE VALE PARTNERSHIP","pcn":"U51429","lat":50.976252,"lng":-2.250052,"list":26884,"gp_fte":10.8621333334,"rating":"Good","prev":{"asthma":7.447,"atrial_fibrillation":3.975,"copd":2.151,"coronary_heart_disease":4.604,"dementia":0.968,"depression":12.937,"diabetes":8.072,"hypertension":22.212,"obesity":17.204,"serious_mental_illness":1.042,"stroke_tia":2.907}},{"ods":"J81621","name":"THE BARCELLOS FAMILY PRACTICE","pcn":"U34826","lat":50.801575,"lng":-1.879382,"list":8897,"gp_fte":4.7733333333,"rating":"Good","prev":{"asthma":8.484,"atrial_fibrillation":3.431,"copd":2.582,"coronary_heart_disease":4.78,"dementia":1.431,"depression":12.603,"diabetes":8.509,"hypertension":20.109,"obesity":11.647,"serious_mental_illness":0.675,"stroke_tia":3.268}},{"ods":"J81625","name":"DENMARK ROAD MEDICAL CENTRE","pcn":"U89143","lat":50.749259,"lng":-1.875801,"list":14648,"gp_fte":3.8826666667,"rating":"Good","prev":{"asthma":7.402,"atrial_fibrillation":2.134,"copd":1.584,"coronary_heart_disease":3.147,"dementia":0.537,"depression":12.1,"diabetes":6.372,"hypertension":14.865,"obesity":9.62,"serious_mental_illness":1.289,"stroke_tia":2.201}},{"ods":"J81626","name":"FORDINGTON SURGERY","pcn":"U38731","lat":50.714805,"lng":-2.432653,"list":5367,"gp_fte":4.9333333334,"rating":"Good","prev":{"asthma":9.131,"atrial_fibrillation":4.038,"copd":2.622,"coronary_heart_disease":4.612,"dementia":1.952,"depression":23.314,"diabetes":8.485,"hypertension":21.489,"obesity":14.842,"serious_mental_illness":1.359,"stroke_tia":2.775}},{"ods":"J81631","name":"SANDFORD SURGERY","pcn":"U32760","lat":50.708364,"lng":-2.115049,"list":1975,"gp_fte":null,"rating":"Good","prev":{"asthma":9.785,"atrial_fibrillation":3.306,"copd":3.306,"coronary_heart_disease":6.037,"dementia":0.862,"depression":12.787,"diabetes":9.247,"hypertension":22.712,"obesity":10.768,"serious_mental_illness":0.767,"stroke_tia":2.827}},{"ods":"J81633","name":"WOODLEA HOUSE SURGERY","pcn":"U89143","lat":50.751981,"lng":-1.846093,"list":6849,"gp_fte":4.5533333334,"rating":"Good","prev":{"asthma":8.426,"atrial_fibrillation":2.46,"copd":3.25,"coronary_heart_disease":3.727,"dementia":0.865,"depression":12.679,"diabetes":8.835,"hypertension":21.661,"obesity":13.517,"serious_mental_illness":1.357,"stroke_tia":2.668}},{"ods":"J81634","name":"CRESCENT PROVIDENCE SURGERY","pcn":"U89143","lat":50.736646,"lng":-1.849515,"list":14039,"gp_fte":5.1266666668,"rating":"Outstanding","prev":{"asthma":5.029,"atrial_fibrillation":1.274,"copd":2.353,"coronary_heart_disease":1.838,"dementia":0.473,"depression":11.966,"diabetes":4.805,"hypertension":9.908,"obesity":7.359,"serious_mental_illness":2.082,"stroke_tia":1.191}},{"ods":"J81646","name":"GROVE SURGERY","pcn":"U89143","lat":50.750577,"lng":-1.797533,"list":6681,"gp_fte":6.1533333335,"rating":"Good","prev":{"asthma":7.813,"atrial_fibrillation":4.361,"copd":2.188,"coronary_heart_disease":5.004,"dementia":2.158,"depression":12.177,"diabetes":8.263,"hypertension":20.49,"obesity":10.745,"serious_mental_illness":0.995,"stroke_tia":3.321}},{"ods":"J81647","name":"LYME BAY MEDICAL PRACTICE","pcn":"U58840","lat":50.748002,"lng":-2.938752,"list":8754,"gp_fte":3.1733333334,"rating":null,"prev":{"asthma":8.582,"atrial_fibrillation":5.132,"copd":2.112,"coronary_heart_disease":5.881,"dementia":1.499,"depression":13.487,"diabetes":6.918,"hypertension":22.548,"obesity":12.256,"serious_mental_illness":1.147,"stroke_tia":3.44}},{"ods":"J81648","name":"THE NEWMAN PRACTICE (DR NEWMANS SURGERY)","pcn":"U80758","lat":50.73245,"lng":-1.967114,"list":5532,"gp_fte":3.8933333333,"rating":"Good","prev":{"asthma":7.838,"atrial_fibrillation":2.98,"copd":2.126,"coronary_heart_disease":4.106,"dementia":0.927,"depression":11.254,"diabetes":7.221,"hypertension":15.28,"obesity":13.173,"serious_mental_illness":0.927,"stroke_tia":2.507}}]