[{"ods":"C82040","name":"ORCHARD SURGERY","pcn":"U12563","lat":52.842282,"lng":-1.259059,"list":9221,"gp_fte":3.1333333333,"rating":"Good","prev":{"asthma":7.934,"atrial_fibrillation":2.682,"copd":1.379,"coronary_heart_disease":2.682,"dementia":0.717,"depression":12.882,"diabetes":5.894,"hypertension":16.319,"obesity":13.325,"serious_mental_illness":0.619,"stroke_tia":2.269}},{"ods":"C84001","name":"LARWOOD SURGERY","pcn":"U05001","lat":53.334343,"lng":-1.12097,"list":31361,"gp_fte":15.1253333334,"rating":"Outstanding","prev":{"asthma":7.167,"atrial_fibrillation":2.867,"copd":3.082,"coronary_heart_disease":3.427,"dementia":1.171,"depression":20.306,"diabetes":9.377,"hypertension":18.327,"obesity":15.956,"serious_mental_illness":0.84,"stroke_tia":2.281}},{"ods":"C84004","name":"ST ALBANS MEDICAL CENTRE","pcn":"U63129","lat":53.00269,"lng":-1.187985,"list":9732,"gp_fte":2.1333333334,"rating":"Good","prev":{"asthma":6.183,"atrial_fibrillation":1.514,"copd":3.038,"coronary_heart_disease":2.987,"dementia":0.494,"depression":13.997,"diabetes":8.377,"hypertension":15.932,"obesity":12.286,"serious_mental_illness":1.03,"stroke_tia":1.771}},{"ods":"C84005","name":"VILLAGE HEALTH GROUP","pcn":"U12563","lat":52.851003,"lng":-1.139273,"list":28192,"gp_fte":15.746666667,"rating":"Outstanding","prev":{"asthma":7.331,"atrial_fibrillation":3.335,"copd":1.32,"coronary_heart_disease":3.335,"dementia":0.795,"depression":11.221,"diabetes":6.263,"hypertension":16.924,"obesity":13.138,"serious_mental_illness":0.532,"stroke_tia":2.471}},{"ods":"C84008","name":"TUXFORD MEDICAL CENTRE","pcn":"U82499","lat":53.234013,"lng":-0.887757,"list":6238,"gp_fte":4.0,"rating":"Good","prev":{"asthma":6.141,"atrial_fibrillation":3.468,"copd":2.666,"coronary_heart_disease":3.386,"dementia":1.014,"depression":14.918,"diabetes":9.006,"hypertension":17.716,"obesity":15.464,"serious_mental_illness":0.671,"stroke_tia":2.257}},{"ods":"C84009","name":"BARNBY GATE SURGERY","pcn":"U65095","lat":53.069442,"lng":-0.798274,"list":13643,"gp_fte":4.6533333332,"rating":"Good","prev":{"asthma":7.254,"atrial_fibrillation":2.641,"copd":2.127,"coronary_heart_disease":3.893,"dementia":0.847,"depression":12.948,"diabetes":7.731,"hypertension":17.437,"obesity":19.522,"serious_mental_illness":0.868,"stroke_tia":2.286}},{"ods":"C84010","name":"TRENTSIDE MEDICAL GROUP","pcn":"U12949","lat":52.968002,"lng":-1.091568,"list":18794,"gp_fte":8.7293333333,"rating":"Good","prev":{"asthma":6.956,"atrial_fibrillation":2.363,"copd":1.807,"coronary_heart_disease":2.882,"dementia":0.932,"depression":14.118,"diabetes":7.337,"hypertension":14.83,"obesity":15.118,"serious_mental_illness":1.219,"stroke_tia":2.024}},{"ods":"C84011","name":"ELMSWOOD SURGERY","pcn":"U44561","lat":52.984188,"lng":-1.145006,"list":8978,"gp_fte":3.7333333333,"rating":"Good","prev":{"asthma":7.796,"atrial_fibrillation":2.376,"copd":1.771,"coronary_heart_disease":2.927,"dementia":0.843,"depression":12.765,"diabetes":7.015,"hypertension":14.074,"obesity":9.83,"serious_mental_illness":1.21,"stroke_tia":2.43}},{"ods":"C84012","name":"WILLOWBROOK MEDICAL PRACTICE","pcn":"U85198","lat":53.126228,"lng":-1.259868,"list":11950,"gp_fte":5.4666666668,"rating":"Good","prev":{"asthma":8.249,"atrial_fibrillation":3.122,"copd":3.056,"coronary_heart_disease":4.411,"dementia":1.298,"depression":19.368,"diabetes":10.792,"hypertension":20.956,"obesity":17.115,"serious_mental_illness":1.093,"stroke_tia":2.941}},{"ods":"C84013","name":"KINGFISHER FAMILY PRACTICE","pcn":"U82499","lat":53.321832,"lng":-0.946061,"list":15889,"gp_fte":9.0816,"rating":"Good","prev":{"asthma":8.346,"atrial_fibrillation":3.157,"copd":2.708,"coronary_heart_disease":3.523,"dementia":0.783,"depression":15.097,"diabetes":9.316,"hypertension":19.834,"obesity":15.44,"serious_mental_illness":0.667,"stroke_tia":2.291}},{"ods":"C84014","name":"WOODLANDS MEDICAL PRACTICE","pcn":"U85198","lat":53.123591,"lng":-1.263205,"list":11794,"gp_fte":7.3413333333,"rating":"Outstanding","prev":{"asthma":7.433,"atrial_fibrillation":2.581,"copd":1.735,"coronary_heart_disease":3.845,"dementia":0.933,"depression":17.604,"diabetes":8.971,"hypertension":16.314,"obesity":22.121,"serious_mental_illness":0.523,"stroke_tia":1.988}},{"ods":"C84016","name":"OAKWOOD SURGERY","pcn":"U32323","lat":53.165375,"lng":-1.192726,"list":15874,"gp_fte":7.7439999999,"rating":"Good","prev":{"asthma":6.788,"atrial_fibrillation":3.061,"copd":3.236,"coronary_heart_disease":4.237,"dementia":1.195,"depression":12.285,"diabetes":10.623,"hypertension":20.229,"obesity":18.84,"serious_mental_illness":0.977,"stroke_tia":2.209}},{"ods":"C84017","name":"BELVOIR HEALTH GROUP","pcn":"U12563","lat":52.930257,"lng":-0.980519,"list":26838,"gp_fte":11.4533333334,"rating":"Good","prev":{"asthma":6.87,"atrial_fibrillation":3.037,"copd":1.96,"coronary_heart_disease":3.372,"dementia":1.14,"depression":11.627,"diabetes":6.643,"hypertension":17.056,"obesity":13.972,"serious_mental_illness":0.604,"stroke_tia":2.165}},{"ods":"C84018","name":"THE FAMILY MEDICAL CENTRE","pcn":"U47242","lat":52.96265,"lng":-1.124079,"list":12374,"gp_fte":7.4,"rating":"Outstanding","prev":{"asthma":6.334,"atrial_fibrillation":1.16,"copd":2.456,"coronary_heart_disease":2.512,"dementia":0.704,"depression":14.121,"diabetes":7.324,"hypertension":11.145,"obesity":11.614,"serious_mental_illness":1.576,"stroke_tia":1.616}},{"ods":"C84019","name":"FOUNTAIN MEDICAL CENTRE","pcn":"U65095","lat":53.068269,"lng":-0.79852,"list":12246,"gp_fte":6.6266666668,"rating":"Good","prev":{"asthma":6.981,"atrial_fibrillation":2.924,"copd":1.72,"coronary_heart_disease":3.384,"dementia":1.022,"depression":12.58,"diabetes":8.376,"hypertension":18.489,"obesity":16.511,"serious_mental_illness":0.761,"stroke_tia":2.314}},{"ods":"C84020","name":"CHURCHSIDE MEDICAL PRACTICE","pcn":"U18267","lat":53.14745,"lng":-1.193117,"list":6900,"gp_fte":2.36,"rating":"Good","prev":{"asthma":7.374,"atrial_fibrillation":2.127,"copd":2.308,"coronary_heart_disease":2.739,"dementia":0.584,"depression":16.675,"diabetes":7.51,"hypertension":13.821,"obesity":12.342,"serious_mental_illness":1.14,"stroke_tia":1.669}},{"ods":"C84021","name":"MIDDLETON LODGE PRACTICE","pcn":"U90349","lat":53.207383,"lng":-1.010033,"list":13063,"gp_fte":3.2622133333,"rating":"Good","prev":{"asthma":8.026,"atrial_fibrillation":2.756,"copd":2.884,"coronary_heart_disease":4.262,"dementia":0.836,"depression":15.219,"diabetes":10.685,"hypertension":19.864,"obesity":12.474,"serious_mental_illness":0.761,"stroke_tia":2.846}},{"ods":"C84023","name":"THE UNIV OF NOTTINGHAM HEALTH SERV","pcn":"U59216","lat":52.926031,"lng":-1.176286,"list":40441,"gp_fte":15.5093333337,"rating":"Outstanding","prev":{"asthma":2.976,"atrial_fibrillation":0.166,"copd":0.063,"coronary_heart_disease":0.151,"dementia":0.022,"depression":8.595,"diabetes":0.617,"hypertension":1.429,"obesity":4.271,"serious_mental_illness":0.273,"stroke_tia":0.11}},{"ods":"C84024","name":"NEWGATE MEDICAL GROUP","pcn":"U10748","lat":53.313116,"lng":-1.123208,"list":29574,"gp_fte":9.0,"rating":"Good","prev":{"asthma":6.312,"atrial_fibrillation":2.901,"copd":3.383,"coronary_heart_disease":3.208,"dementia":1.194,"depression":11.679,"diabetes":9.158,"hypertension":16.778,"obesity":13.485,"serious_mental_illness":0.972,"stroke_tia":2.031}},{"ods":"C84025","name":"EAST BRIDGFORD MED CENTRE","pcn":"U12563","lat":52.982358,"lng":-0.929033,"list":8140,"gp_fte":3.5733333334,"rating":"Good","prev":{"asthma":7.249,"atrial_fibrillation":3.431,"copd":1.258,"coronary_heart_disease":3.761,"dementia":0.915,"depression":9.639,"diabetes":5.524,"hypertension":18.234,"obesity":10.065,"serious_mental_illness":0.432,"stroke_tia":2.719}},{"ods":"C84026","name":"STENHOUSE MEDICAL CENTRE","pcn":"U51200","lat":53.004511,"lng":-1.121976,"list":12748,"gp_fte":8.1733333333,"rating":"Good","prev":{"asthma":8.484,"atrial_fibrillation":2.86,"copd":2.633,"coronary_heart_disease":3.446,"dementia":1.0,"depression":8.542,"diabetes":7.863,"hypertension":20.275,"obesity":15.184,"serious_mental_illness":1.024,"stroke_tia":2.828}},{"ods":"C84028","name":"THE RUDDINGTON MED CENTRE","pcn":"U12563","lat":52.894396,"lng":-1.147746,"list":7729,"gp_fte":3.4933333334,"rating":"Good","prev":{"asthma":6.149,"atrial_fibrillation":2.789,"copd":1.579,"coronary_heart_disease":3.0,"dementia":1.868,"depression":14.113,"diabetes":6.259,"hypertension":16.395,"obesity":14.179,"serious_mental_illness":0.829,"stroke_tia":2.145}},{"ods":"C84029","name":"LOMBARD MEDICAL CENTRE","pcn":"U65095","lat":53.068607,"lng":-0.803826,"list":22470,"gp_fte":9.1533333334,"rating":"Good","prev":{"asthma":6.145,"atrial_fibrillation":2.556,"copd":2.038,"coronary_heart_disease":3.262,"dementia":0.72,"depression":11.744,"diabetes":7.581,"hypertension":15.146,"obesity":17.583,"serious_mental_illness":0.855,"stroke_tia":2.043}},{"ods":"C84030","name":"THE OAKS MEDICAL CENTRE","pcn":"U99463","lat":52.924735,"lng":-1.215843,"list":12076,"gp_fte":6.1866666665,"rating":"Outstanding","prev":{"asthma":6.912,"atrial_fibrillation":2.107,"copd":1.881,"coronary_heart_disease":2.385,"dementia":0.966,"depression":10.814,"diabetes":6.131,"hypertension":13.594,"obesity":13.173,"serious_mental_illness":1.083,"stroke_tia":1.662}},{"ods":"C84032","name":"EASTWOOD PRIMARY CARE CENTRE, CHURCH STREET SITE","pcn":"U99463","lat":53.018715,"lng":-1.295165,"list":17787,"gp_fte":6.9066666666,"rating":"Outstanding","prev":{"asthma":7.884,"atrial_fibrillation":3.708,"copd":2.985,"coronary_heart_disease":4.66,"dementia":1.131,"depression":18.693,"diabetes":9.512,"hypertension":20.662,"obesity":19.788,"serious_mental_illness":0.903,"stroke_tia":2.936}},{"ods":"C84033","name":"WESTDALE LANE SURGERY","pcn":"U47851","lat":52.975303,"lng":-1.088714,"list":9376,"gp_fte":2.7466666667,"rating":"Good","prev":{"asthma":7.462,"atrial_fibrillation":2.628,"copd":1.771,"coronary_heart_disease":2.884,"dementia":1.002,"depression":11.111,"diabetes":7.776,"hypertension":17.55,"obesity":13.091,"serious_mental_illness":0.902,"stroke_tia":1.993}},{"ods":"C84034","name":"CHURCHFIELDS MEDICAL PRACTICE","pcn":"U55117","lat":52.983911,"lng":-1.183784,"list":8720,"gp_fte":3.7786666666,"rating":"Good","prev":{"asthma":6.572,"atrial_fibrillation":1.969,"copd":3.417,"coronary_heart_disease":3.213,"dementia":0.509,"depression":14.728,"diabetes":9.229,"hypertension":18.601,"obesity":18.837,"serious_mental_illness":1.516,"stroke_tia":2.308}},{"ods":"C84035","name":"CROWN HOUSE SURGERY","pcn":"U82499","lat":53.321024,"lng":-0.943473,"list":11465,"gp_fte":9.1199999998,"rating":"Good","prev":{"asthma":6.797,"atrial_fibrillation":3.823,"copd":2.998,"coronary_heart_disease":3.496,"dementia":0.893,"depression":12.109,"diabetes":8.765,"hypertension":20.247,"obesity":23.352,"serious_mental_illness":0.704,"stroke_tia":2.577}},{"ods":"C84036","name":"FOREST MEDICAL","pcn":"U18267","lat":53.146724,"lng":-1.189769,"list":19045,"gp_fte":8.8533333333,"rating":"Good","prev":{"asthma":6.629,"atrial_fibrillation":2.218,"copd":2.914,"coronary_heart_disease":3.08,"dementia":0.798,"depression":12.168,"diabetes":8.859,"hypertension":14.806,"obesity":15.443,"serious_mental_illness":0.852,"stroke_tia":1.945}},{"ods":"C84037","name":"ABBEY MEDICAL GROUP","pcn":"U90349","lat":53.093109,"lng":-1.141087,"list":12673,"gp_fte":5.8666666667,"rating":"Good","prev":{"asthma":6.993,"atrial_fibrillation":3.396,"copd":1.884,"coronary_heart_disease":3.871,"dementia":0.871,"depression":12.753,"diabetes":8.054,"hypertension":20.019,"obesity":14.916,"serious_mental_illness":0.784,"stroke_tia":2.525}},{"ods":"C84039","name":"DERBY ROAD HEALTH CENTRE","pcn":"U29053","lat":52.948545,"lng":-1.177452,"list":12165,"gp_fte":5.0399999999,"rating":"Good","prev":{"asthma":5.861,"atrial_fibrillation":1.322,"copd":1.329,"coronary_heart_disease":2.356,"dementia":0.451,"depression":8.391,"diabetes":5.664,"hypertension":9.983,"obesity":10.551,"serious_mental_illness":1.019,"stroke_tia":1.384}},{"ods":"C84042","name":"SAXON CROSS SURGERY","pcn":"U99463","lat":52.929601,"lng":-1.275917,"list":7136,"gp_fte":3.3039999999,"rating":"Outstanding","prev":{"asthma":7.931,"atrial_fibrillation":2.367,"copd":2.844,"coronary_heart_disease":3.374,"dementia":0.721,"depression":9.334,"diabetes":8.138,"hypertension":17.224,"obesity":15.43,"serious_mental_illness":0.83,"stroke_tia":2.19}},{"ods":"C84043","name":"LEEN VIEW SURGERY","pcn":"U63129","lat":52.999105,"lng":-1.198515,"list":12660,"gp_fte":5.2266666668,"rating":"Good","prev":{"asthma":5.978,"atrial_fibrillation":1.902,"copd":3.212,"coronary_heart_disease":2.814,"dementia":1.037,"depression":24.371,"diabetes":9.59,"hypertension":15.888,"obesity":18.946,"serious_mental_illness":1.208,"stroke_tia":2.121}},{"ods":"C84044","name":"DEER PARK FAMILY MEDICAL PRACTICE","pcn":"U29053","lat":52.948579,"lng":-1.230804,"list":10545,"gp_fte":5.0666666666,"rating":"Good","prev":{"asthma":5.414,"atrial_fibrillation":2.569,"copd":1.063,"coronary_heart_disease":3.379,"dementia":0.583,"depression":6.533,"diabetes":6.667,"hypertension":15.566,"obesity":10.301,"serious_mental_illness":0.678,"stroke_tia":2.136}},{"ods":"C84045","name":"COLLINGHAM MEDICAL CENTRE","pcn":"U65095","lat":53.152658,"lng":-0.727768,"list":8020,"gp_fte":3.2266666666,"rating":"Good","prev":{"asthma":7.534,"atrial_fibrillation":4.438,"copd":2.288,"coronary_heart_disease":3.897,"dementia":0.842,"depression":12.591,"diabetes":8.544,"hypertension":21.901,"obesity":19.295,"serious_mental_illness":0.842,"stroke_tia":2.728}},{"ods":"C84046","name":"CLIFTON MEDICAL PRACTICE","pcn":"U19169","lat":52.903408,"lng":-1.181241,"list":9175,"gp_fte":4.2933333335,"rating":"Good","prev":{"asthma":6.487,"atrial_fibrillation":2.507,"copd":3.041,"coronary_heart_disease":3.465,"dementia":1.404,"depression":16.304,"diabetes":9.187,"hypertension":17.758,"obesity":13.406,"serious_mental_illness":0.902,"stroke_tia":2.351}},{"ods":"C84047","name":"THE CALVERTON PRACTICE","pcn":"U51200","lat":53.04058,"lng":-1.083756,"list":10640,"gp_fte":5.52,"rating":"Good","prev":{"asthma":7.771,"atrial_fibrillation":3.547,"copd":2.308,"coronary_heart_disease":3.681,"dementia":1.02,"depression":11.893,"diabetes":7.312,"hypertension":17.25,"obesity":18.009,"serious_mental_illness":0.563,"stroke_tia":2.784}},{"ods":"C84049","name":"SOUTHWELL MEDICAL CENTRE","pcn":"U65095","lat":53.078133,"lng":-0.950797,"list":12136,"gp_fte":5.2000000001,"rating":"Good","prev":{"asthma":7.671,"atrial_fibrillation":3.866,"copd":1.237,"coronary_heart_disease":3.686,"dementia":1.048,"depression":6.763,"diabetes":6.236,"hypertension":18.439,"obesity":9.969,"serious_mental_illness":0.442,"stroke_tia":2.711}},{"ods":"C84051","name":"ORCHARD MEDICAL PRACTICE","pcn":"U32323","lat":53.142536,"lng":-1.193749,"list":19093,"gp_fte":8.2000000001,"rating":"Outstanding","prev":{"asthma":6.405,"atrial_fibrillation":2.47,"copd":2.053,"coronary_heart_disease":3.444,"dementia":0.776,"depression":15.134,"diabetes":7.548,"hypertension":17.95,"obesity":11.622,"serious_mental_illness":0.709,"stroke_tia":1.907}},{"ods":"C84053","name":"TORKARD HILL MEDICAL CTRE","pcn":"U06437","lat":53.033299,"lng":-1.208076,"list":16876,"gp_fte":7.2800000002,"rating":"Good","prev":{"asthma":8.047,"atrial_fibrillation":2.583,"copd":2.043,"coronary_heart_disease":3.402,"dementia":1.259,"depression":12.002,"diabetes":8.493,"hypertension":17.159,"obesity":22.877,"serious_mental_illness":0.855,"stroke_tia":2.185}},{"ods":"C84055","name":"HIGHCROFT SURGERY","pcn":"U51200","lat":53.004354,"lng":-1.12263,"list":11182,"gp_fte":5.9066666667,"rating":"Requires improvement","prev":{"asthma":7.755,"atrial_fibrillation":2.634,"copd":1.676,"coronary_heart_disease":3.299,"dementia":0.878,"depression":10.336,"diabetes":7.525,"hypertension":13.712,"obesity":14.957,"serious_mental_illness":0.949,"stroke_tia":2.412}},{"ods":"C84057","name":"PLEASLEY SURGERY","pcn":"U32323","lat":53.171204,"lng":-1.233549,"list":4418,"gp_fte":1.7066666667,"rating":"Good","prev":{"asthma":7.828,"atrial_fibrillation":2.323,"copd":2.37,"coronary_heart_disease":3.346,"dementia":0.627,"depression":9.109,"diabetes":9.684,"hypertension":17.333,"obesity":21.024,"serious_mental_illness":0.72,"stroke_tia":2.021}},{"ods":"C84059","name":"SHERWOOD MEDICAL PARTNERSHIP","pcn":"U90349","lat":53.160463,"lng":-1.137681,"list":13063,"gp_fte":5.3751999999,"rating":"Good","prev":{"asthma":7.625,"atrial_fibrillation":2.222,"copd":3.128,"coronary_heart_disease":3.766,"dementia":0.898,"depression":21.429,"diabetes":8.689,"hypertension":17.665,"obesity":18.487,"serious_mental_illness":0.685,"stroke_tia":1.812}},{"ods":"C84060","name":"RIVERGREEN MEDICAL CENTRE","pcn":"U19169","lat":52.906107,"lng":-1.178889,"list":8567,"gp_fte":4.9945085365,"rating":"Good","prev":{"asthma":7.395,"atrial_fibrillation":2.7,"copd":3.623,"coronary_heart_disease":3.692,"dementia":1.408,"depression":19.733,"diabetes":9.619,"hypertension":19.707,"obesity":17.119,"serious_mental_illness":1.177,"stroke_tia":3.161}},{"ods":"C84061","name":"KING'S MEDICAL CENTRE","pcn":"U85198","lat":53.12883,"lng":-1.254492,"list":9643,"gp_fte":3.9466666666,"rating":"Good","prev":{"asthma":6.169,"atrial_fibrillation":2.03,"copd":2.724,"coronary_heart_disease":2.959,"dementia":0.867,"depression":16.52,"diabetes":8.76,"hypertension":15.866,"obesity":20.131,"serious_mental_illness":0.959,"stroke_tia":1.867}},{"ods":"C84063","name":"GREENDALE PRIMARY CARE CENTRE","pcn":"U47242","lat":52.956389,"lng":-1.118277,"list":8552,"gp_fte":5.9999999999,"rating":"Good","prev":{"asthma":6.649,"atrial_fibrillation":1.411,"copd":2.228,"coronary_heart_disease":2.823,"dementia":0.653,"depression":13.545,"diabetes":10.193,"hypertension":13.344,"obesity":16.893,"serious_mental_illness":1.26,"stroke_tia":1.645}},{"ods":"C84064","name":"PARKSIDE MEDICAL CENTRE","pcn":"U63129","lat":52.997,"lng":-1.195817,"list":10597,"gp_fte":4.1333333333,"rating":"Good","prev":{"asthma":7.653,"atrial_fibrillation":1.59,"copd":2.596,"coronary_heart_disease":2.49,"dementia":0.967,"depression":17.67,"diabetes":7.96,"hypertension":13.016,"obesity":17.132,"serious_mental_illness":1.207,"stroke_tia":1.667}},{"ods":"C84065","name":"ABBEY MEDICAL CENTRE","pcn":"U99463","lat":52.932278,"lng":-1.222195,"list":5209,"gp_fte":2.2266666667,"rating":"Good","prev":{"asthma":6.632,"atrial_fibrillation":2.292,"copd":1.978,"coronary_heart_disease":2.547,"dementia":0.901,"depression":9.958,"diabetes":7.561,"hypertension":15.475,"obesity":19.469,"serious_mental_illness":1.038,"stroke_tia":1.978}},{"ods":"C84066","name":"DAYBROOK MEDICAL PRACTICE","pcn":"U47851","lat":53.003076,"lng":-1.137512,"list":10532,"gp_fte":6.5333333333,"rating":"Good","prev":{"asthma":8.891,"atrial_fibrillation":2.83,"copd":2.849,"coronary_heart_disease":3.9,"dementia":1.07,"depression":12.286,"diabetes":8.597,"hypertension":17.238,"obesity":16.28,"serious_mental_illness":1.126,"stroke_tia":2.367}},{"ods":"C84067","name":"ASHFIELD HOUSE (ANNESLEY)","pcn":"U53963","lat":53.080339,"lng":-1.246253,"list":5575,"gp_fte":1.9466666667,"rating":"Good","prev":{"asthma":6.87,"atrial_fibrillation":2.658,"copd":3.136,"coronary_heart_disease":3.721,"dementia":1.01,"depression":12.9,"diabetes":10.911,"hypertension":19.773,"obesity":13.658,"serious_mental_illness":0.85,"stroke_tia":2.711}},{"ods":"C84069","name":"ROUNDWOOD SURGERY","pcn":"U18267","lat":53.147041,"lng":-1.188485,"list":13099,"gp_fte":5.5466666667,"rating":"Outstanding","prev":{"asthma":6.068,"atrial_fibrillation":2.772,"copd":2.639,"coronary_heart_disease":3.941,"dementia":0.843,"depression":9.893,"diabetes":8.2,"hypertension":13.899,"obesity":15.903,"serious_mental_illness":0.954,"stroke_tia":2.203}},{"ods":"C84072","name":"THE WELLSPRING SURGERY","pcn":"U47242","lat":52.964498,"lng":-1.133969,"list":10538,"gp_fte":4.5013333333,"rating":"Good","prev":{"asthma":4.257,"atrial_fibrillation":1.114,"copd":1.662,"coronary_heart_disease":1.799,"dementia":0.438,"depression":11.969,"diabetes":7.655,"hypertension":11.883,"obesity":11.096,"serious_mental_illness":1.644,"stroke_tia":1.434}},{"ods":"C84074","name":"FAMILY MEDICAL CENTRE (KIRKBY)","pcn":"U53963","lat":53.097771,"lng":-1.247234,"list":5380,"gp_fte":1.3411752032,"rating":"Good","prev":{"asthma":6.182,"atrial_fibrillation":2.042,"copd":3.171,"coronary_heart_disease":3.851,"dementia":0.875,"depression":9.796,"diabetes":10.265,"hypertension":17.72,"obesity":17.031,"serious_mental_illness":0.934,"stroke_tia":2.587}},{"ods":"C84076","name":"KIRKBY HEALTH CENTRE","pcn":"U53963","lat":53.098578,"lng":-1.247715,"list":4083,"gp_fte":3.3066666667,"rating":"Good","prev":{"asthma":7.333,"atrial_fibrillation":2.423,"copd":2.325,"coronary_heart_disease":3.744,"dementia":0.857,"depression":15.801,"diabetes":10.276,"hypertension":17.597,"obesity":14.707,"serious_mental_illness":0.538,"stroke_tia":2.276}},{"ods":"C84077","name":"BRIERLEY PARK MEDICAL GROUP","pcn":"U85198","lat":53.131926,"lng":-1.276753,"list":18847,"gp_fte":8.8533333335,"rating":"Good","prev":{"asthma":7.17,"atrial_fibrillation":2.676,"copd":2.933,"coronary_heart_disease":3.609,"dementia":1.014,"depression":16.279,"diabetes":9.32,"hypertension":17.975,"obesity":19.391,"serious_mental_illness":0.906,"stroke_tia":2.209}},{"ods":"C84078","name":"HUCKNALL ROAD MEDICAL CENTRE","pcn":"U44561","lat":52.992199,"lng":-1.167055,"list":12979,"gp_fte":9.8034666666,"rating":"Good","prev":{"asthma":6.913,"atrial_fibrillation":1.861,"copd":2.517,"coronary_heart_disease":3.256,"dementia":1.379,"depression":12.75,"diabetes":8.648,"hypertension":16.271,"obesity":16.337,"serious_mental_illness":1.04,"stroke_tia":2.17}},{"ods":"C84080","name":"THE MANOR SURGERY","pcn":"U99463","lat":52.923164,"lng":-1.219208,"list":13585,"gp_fte":6.4,"rating":"Outstanding","prev":{"asthma":6.655,"atrial_fibrillation":2.871,"copd":1.63,"coronary_heart_disease":3.051,"dementia":1.435,"depression":12.781,"diabetes":7.267,"hypertension":16.1,"obesity":14.643,"serious_mental_illness":1.017,"stroke_tia":2.431}},{"ods":"C84081","name":"JOHN RYLE MEDICAL PRACTICE","pcn":"U19169","lat":52.903628,"lng":-1.180627,"list":6949,"gp_fte":2.5466666667,"rating":"Good","prev":{"asthma":6.771,"atrial_fibrillation":2.261,"copd":3.087,"coronary_heart_disease":3.348,"dementia":1.087,"depression":9.079,"diabetes":9.313,"hypertension":15.249,"obesity":12.938,"serious_mental_illness":1.16,"stroke_tia":2.319}},{"ods":"C84084","name":"RADCLIFFE-ON-TRENT. HEALTH CENTRE","pcn":"U12563","lat":52.949676,"lng":-1.026639,"list":8592,"gp_fte":5.4666666668,"rating":"Good","prev":{"asthma":6.761,"atrial_fibrillation":4.067,"copd":2.063,"coronary_heart_disease":3.792,"dementia":1.157,"depression":12.099,"diabetes":6.594,"hypertension":17.841,"obesity":13.021,"serious_mental_illness":0.68,"stroke_tia":3.22}},{"ods":"C84085","name":"VICTORIA AND MAPPERLEY PRACTICE","pcn":"U47242","lat":52.968521,"lng":-1.136154,"list":10806,"gp_fte":6.8922666666,"rating":"Good","prev":{"asthma":6.168,"atrial_fibrillation":1.588,"copd":1.626,"coronary_heart_disease":2.254,"dementia":0.571,"depression":13.339,"diabetes":6.534,"hypertension":12.477,"obesity":10.709,"serious_mental_illness":1.693,"stroke_tia":1.712}},{"ods":"C84086","name":"ST GEORGES MED PRACTICE","pcn":"U12563","lat":52.925094,"lng":-1.125073,"list":15120,"gp_fte":8.7999999999,"rating":"Good","prev":{"asthma":6.158,"atrial_fibrillation":2.116,"copd":0.913,"coronary_heart_disease":2.09,"dementia":0.879,"depression":10.623,"diabetes":4.804,"hypertension":11.578,"obesity":7.61,"serious_mental_illness":0.741,"stroke_tia":1.508}},{"ods":"C84087","name":"RAINWORTH HEALTH CENTRE","pcn":"U90349","lat":53.119665,"lng":-1.132751,"list":5602,"gp_fte":2.6,"rating":"Good","prev":{"asthma":8.15,"atrial_fibrillation":2.731,"copd":2.923,"coronary_heart_disease":4.036,"dementia":0.592,"depression":15.408,"diabetes":9.521,"hypertension":17.589,"obesity":15.923,"serious_mental_illness":0.47,"stroke_tia":2.749}},{"ods":"C84090","name":"MUSTERS MEDICAL PRACTICE","pcn":"U12563","lat":52.921304,"lng":-1.133006,"list":9287,"gp_fte":5.6800000001,"rating":"Good","prev":{"asthma":7.535,"atrial_fibrillation":2.314,"copd":0.855,"coronary_heart_disease":2.502,"dementia":0.865,"depression":12.668,"diabetes":5.448,"hypertension":14.116,"obesity":7.789,"serious_mental_illness":0.646,"stroke_tia":1.887}},{"ods":"C84091","name":"ASPLEY MEDICAL CENTRE","pcn":"U78528","lat":52.973802,"lng":-1.206589,"list":8791,"gp_fte":2.8666666667,"rating":"Good","prev":{"asthma":6.675,"atrial_fibrillation":1.928,"copd":2.803,"coronary_heart_disease":2.848,"dementia":0.886,"depression":13.204,"diabetes":9.258,"hypertension":14.99,"obesity":15.376,"serious_mental_illness":0.998,"stroke_tia":2.254}},{"ods":"C84092","name":"BRIDGEWAY PRACTICE","pcn":"U19169","lat":52.939889,"lng":-1.149838,"list":5284,"gp_fte":3.6,"rating":"Good","prev":{"asthma":5.241,"atrial_fibrillation":1.21,"copd":1.526,"coronary_heart_disease":2.215,"dementia":0.372,"depression":13.325,"diabetes":8.062,"hypertension":12.302,"obesity":23.868,"serious_mental_illness":1.638,"stroke_tia":1.452}},{"ods":"C84094","name":"RIVERSIDE HEALTH CENTRE","pcn":"U82499","lat":53.379198,"lng":-0.958127,"list":24357,"gp_fte":12.5493333334,"rating":"Good","prev":{"asthma":7.096,"atrial_fibrillation":2.695,"copd":2.571,"coronary_heart_disease":3.125,"dementia":1.273,"depression":15.396,"diabetes":8.767,"hypertension":16.394,"obesity":17.352,"serious_mental_illness":0.762,"stroke_tia":2.137}},{"ods":"C84095","name":"OAKENHALL MEDICAL PRACT","pcn":"U06437","lat":53.033896,"lng":-1.201543,"list":7051,"gp_fte":2.1653333333,"rating":"Good","prev":{"asthma":7.372,"atrial_fibrillation":2.86,"copd":3.28,"coronary_heart_disease":3.406,"dementia":1.444,"depression":14.085,"diabetes":9.616,"hypertension":16.092,"obesity":14.709,"serious_mental_illness":0.841,"stroke_tia":2.075}},{"ods":"C84101","name":"BAWTRY AND BLYTH MEDICAL","pcn":"U05001","lat":53.422522,"lng":-1.02167,"list":3705,"gp_fte":2.3333333333,"rating":"Good","prev":{"asthma":6.83,"atrial_fibrillation":2.833,"copd":2.406,"coronary_heart_disease":3.154,"dementia":1.016,"depression":9.871,"diabetes":8.586,"hypertension":20.904,"obesity":9.24,"serious_mental_illness":0.695,"stroke_tia":2.406}},{"ods":"C84105","name":"FAIRFIELDS PRACTICE","pcn":"U94342","lat":52.967632,"lng":-1.176133,"list":7401,"gp_fte":5.168,"rating":"Good","prev":{"asthma":6.58,"atrial_fibrillation":0.745,"copd":1.425,"coronary_heart_disease":2.209,"dementia":0.314,"depression":12.925,"diabetes":9.748,"hypertension":13.479,"obesity":17.564,"serious_mental_illness":1.15,"stroke_tia":1.268}},{"ods":"C84106","name":"MILLVIEW SURGERY","pcn":"U18267","lat":53.140413,"lng":-1.192745,"list":8203,"gp_fte":4.2933333333,"rating":"Good","prev":{"asthma":6.663,"atrial_fibrillation":2.688,"copd":2.524,"coronary_heart_disease":3.389,"dementia":0.865,"depression":13.739,"diabetes":8.25,"hypertension":17.062,"obesity":14.896,"serious_mental_illness":1.005,"stroke_tia":2.162}},{"ods":"C84107","name":"THE LINDEN MEDICAL GROUP","pcn":"U99463","lat":52.933469,"lng":-1.268828,"list":6916,"gp_fte":3.1999999999,"rating":"Good","prev":{"asthma":6.414,"atrial_fibrillation":3.278,"copd":1.964,"coronary_heart_disease":3.547,"dementia":0.82,"depression":9.5,"diabetes":8.79,"hypertension":19.754,"obesity":17.703,"serious_mental_illness":0.82,"stroke_tia":2.6}},{"ods":"C84112","name":"BRAMCOTE SURGERY","pcn":"U99463","lat":52.938294,"lng":-1.244431,"list":3822,"gp_fte":1.76,"rating":"Outstanding","prev":{"asthma":6.187,"atrial_fibrillation":2.803,"copd":1.1,"coronary_heart_disease":2.987,"dementia":0.812,"depression":7.818,"diabetes":7.318,"hypertension":16.898,"obesity":13.183,"serious_mental_illness":1.074,"stroke_tia":1.834}},{"ods":"C84113","name":"MAJOR OAK MEDICAL PRACTICE","pcn":"U90349","lat":53.195058,"lng":-1.055173,"list":7454,"gp_fte":2.0,"rating":"Good","prev":{"asthma":6.013,"atrial_fibrillation":3.254,"copd":2.661,"coronary_heart_disease":3.405,"dementia":1.2,"depression":18.61,"diabetes":9.532,"hypertension":20.557,"obesity":18.56,"serious_mental_illness":0.496,"stroke_tia":2.385}},{"ods":"C84115","name":"PLAINS VIEW SURGERY","pcn":"U47851","lat":52.989837,"lng":-1.106277,"list":10019,"gp_fte":3.9466666666,"rating":"Good","prev":{"asthma":6.939,"atrial_fibrillation":2.255,"copd":1.021,"coronary_heart_disease":2.617,"dementia":0.766,"depression":8.921,"diabetes":5.309,"hypertension":16.021,"obesity":14.702,"serious_mental_illness":0.713,"stroke_tia":2.085}},{"ods":"C84116","name":"MELBOURNE PARK MEDICAL CENTRE","pcn":"U78528","lat":52.977339,"lng":-1.199658,"list":8313,"gp_fte":4.8133333334,"rating":"Good","prev":{"asthma":6.227,"atrial_fibrillation":1.949,"copd":2.28,"coronary_heart_disease":3.048,"dementia":0.603,"depression":15.934,"diabetes":9.627,"hypertension":16.186,"obesity":13.553,"serious_mental_illness":0.744,"stroke_tia":1.76}},{"ods":"C84117","name":"RADFORD MEDICAL PRACTICE (KAUR)","pcn":"U94342","lat":52.938012,"lng":-1.151309,"list":19691,"gp_fte":5.08,"rating":"Good","prev":{"asthma":2.657,"atrial_fibrillation":0.183,"copd":0.356,"coronary_heart_disease":0.529,"dementia":0.067,"depression":9.015,"diabetes":2.02,"hypertension":2.931,"obesity":6.494,"serious_mental_illness":0.548,"stroke_tia":0.283}},{"ods":"C84120","name":"CHILWELL VALLEY AND MEADOWS PRACTICE","pcn":"U99463","lat":52.914571,"lng":-1.24544,"list":15753,"gp_fte":10.1533333332,"rating":"Outstanding","prev":{"asthma":7.213,"atrial_fibrillation":2.805,"copd":1.633,"coronary_heart_disease":3.026,"dementia":1.33,"depression":11.053,"diabetes":6.791,"hypertension":16.17,"obesity":11.045,"serious_mental_illness":0.785,"stroke_tia":2.197}},{"ods":"C84122","name":"WOLLATON PARK MEDICAL CENTRE","pcn":"U29053","lat":52.953284,"lng":-1.205085,"list":10840,"gp_fte":6.6666666667,"rating":"Good","prev":{"asthma":6.671,"atrial_fibrillation":1.936,"copd":1.247,"coronary_heart_disease":2.55,"dementia":0.549,"depression":8.596,"diabetes":7.161,"hypertension":13.67,"obesity":11.066,"serious_mental_illness":0.782,"stroke_tia":1.535}},{"ods":"C84123","name":"BILSTHORPE SURGERY","pcn":"U90349","lat":53.147887,"lng":-1.04431,"list":4395,"gp_fte":2.8133333333,"rating":"Good","prev":{"asthma":9.048,"atrial_fibrillation":3.09,"copd":3.675,"coronary_heart_disease":4.565,"dementia":0.796,"depression":19.394,"diabetes":10.647,"hypertension":19.148,"obesity":24.993,"serious_mental_illness":0.492,"stroke_tia":2.481}},{"ods":"C84129","name":"RISE PARK SURGERY","pcn":"U63129","lat":53.010781,"lng":-1.169169,"list":9811,"gp_fte":5.1999999999,"rating":"Good","prev":{"asthma":6.775,"atrial_fibrillation":2.62,"copd":2.383,"coronary_heart_disease":3.486,"dementia":1.227,"depression":12.659,"diabetes":8.991,"hypertension":17.72,"obesity":14.814,"serious_mental_illness":0.949,"stroke_tia":2.63}},{"ods":"C84131","name":"NEWTHORPE MEDICAL PRACTICE","pcn":"U99463","lat":53.010267,"lng":-1.285168,"list":8672,"gp_fte":2.9866666666,"rating":"Good","prev":{"asthma":7.15,"atrial_fibrillation":2.935,"copd":2.249,"coronary_heart_disease":3.656,"dementia":0.65,"depression":11.23,"diabetes":8.61,"hypertension":18.018,"obesity":15.812,"serious_mental_illness":0.722,"stroke_tia":2.201}},{"ods":"C84136","name":"ST. LUKE'S SURGERY","pcn":"U78528","lat":52.958715,"lng":-1.176521,"list":4820,"gp_fte":2.0266666667,"rating":"Good","prev":{"asthma":5.514,"atrial_fibrillation":1.045,"copd":1.341,"coronary_heart_disease":2.071,"dementia":0.473,"depression":9.347,"diabetes":9.51,"hypertension":10.434,"obesity":13.205,"serious_mental_illness":1.479,"stroke_tia":1.361}},{"ods":"C84140","name":"LOWMOOR ROAD SURGERY","pcn":"U53963","lat":53.099742,"lng":-1.249798,"list":4960,"gp_fte":2.0,"rating":"Good","prev":{"asthma":8.134,"atrial_fibrillation":2.406,"copd":3.074,"coronary_heart_disease":4.53,"dementia":0.688,"depression":9.172,"diabetes":8.93,"hypertension":14.216,"obesity":16.457,"serious_mental_illness":0.647,"stroke_tia":1.82}},{"ods":"C84142","name":"SELSTON SURGERY","pcn":"U53963","lat":53.072402,"lng":-1.303705,"list":5229,"gp_fte":1.6,"rating":"Good","prev":{"asthma":5.931,"atrial_fibrillation":2.553,"copd":2.667,"coronary_heart_disease":4.067,"dementia":1.059,"depression":14.107,"diabetes":9.343,"hypertension":16.607,"obesity":23.034,"serious_mental_illness":0.832,"stroke_tia":2.024}},{"ods":"C84144","name":"THE MEADOWS HEALTH CENTRE","pcn":"U19169","lat":52.939924,"lng":-1.149093,"list":5103,"gp_fte":2.4,"rating":"Good","prev":{"asthma":4.594,"atrial_fibrillation":0.913,"copd":1.787,"coronary_heart_disease":1.787,"dementia":0.253,"depression":7.984,"diabetes":7.029,"hypertension":10.625,"obesity":13.48,"serious_mental_illness":1.01,"stroke_tia":1.224}},{"ods":"C84150","name":"UNITY SURGERY","pcn":"U47851","lat":52.980368,"lng":-1.103408,"list":4870,"gp_fte":1.3066666667,"rating":"Good","prev":{"asthma":6.673,"atrial_fibrillation":1.913,"copd":1.666,"coronary_heart_disease":2.88,"dementia":0.926,"depression":13.272,"diabetes":5.742,"hypertension":14.071,"obesity":12.124,"serious_mental_illness":0.658,"stroke_tia":2.037}},{"ods":"C84151","name":"THE MEDICAL CENTRE - ZULU ROAD","pcn":"U44561","lat":52.976644,"lng":-1.171707,"list":3556,"gp_fte":2.0,"rating":"Good","prev":{"asthma":4.48,"atrial_fibrillation":0.822,"copd":1.151,"coronary_heart_disease":1.343,"dementia":0.247,"depression":9.894,"diabetes":6.136,"hypertension":10.277,"obesity":9.931,"serious_mental_illness":1.562,"stroke_tia":0.767}},{"ods":"C84605","name":"CASTLE HEALTHCARE PRACTICE","pcn":"U12563","lat":52.92211,"lng":-1.135724,"list":17723,"gp_fte":11.6533333334,"rating":"Outstanding","prev":{"asthma":6.93,"atrial_fibrillation":2.62,"copd":1.083,"coronary_heart_disease":2.935,"dementia":0.825,"depression":10.45,"diabetes":6.021,"hypertension":14.893,"obesity":11.051,"serious_mental_illness":0.751,"stroke_tia":2.109}},{"ods":"C84613","name":"JUBILEE PARK MEDICAL PARTNERSHIP","pcn":"U12949","lat":52.980199,"lng":-1.072094,"list":12213,"gp_fte":5.9200000001,"rating":"Good","prev":{"asthma":8.727,"atrial_fibrillation":2.402,"copd":1.994,"coronary_heart_disease":3.138,"dementia":0.597,"depression":11.457,"diabetes":7.322,"hypertension":16.171,"obesity":17.719,"serious_mental_illness":1.021,"stroke_tia":2.116}},{"ods":"C84619","name":"TUDOR HOUSE MEDICAL PRACTICE","pcn":"U44561","lat":52.993651,"lng":-1.15325,"list":6840,"gp_fte":2.3066666667,"rating":"Good","prev":{"asthma":6.117,"atrial_fibrillation":1.357,"copd":1.487,"coronary_heart_disease":2.497,"dementia":0.534,"depression":17.515,"diabetes":6.881,"hypertension":11.735,"obesity":16.308,"serious_mental_illness":0.924,"stroke_tia":1.674}},{"ods":"C84621","name":"WEST BRIDGFORD MEDICAL CENTRE","pcn":"U12563","lat":52.924644,"lng":-1.128812,"list":5311,"gp_fte":2.4800000001,"rating":"Good","prev":{"asthma":5.431,"atrial_fibrillation":1.611,"copd":0.864,"coronary_heart_disease":1.749,"dementia":0.707,"depression":7.656,"diabetes":4.826,"hypertension":10.0,"obesity":10.382,"serious_mental_illness":1.1,"stroke_tia":1.316}},{"ods":"C84624","name":"HAMA MEDICAL CENTRE","pcn":"U99463","lat":52.998687,"lng":-1.256417,"list":5708,"gp_fte":1.3866666667,"rating":"Good","prev":{"asthma":6.062,"atrial_fibrillation":2.441,"copd":2.031,"coronary_heart_disease":2.922,"dementia":0.641,"depression":18.22,"diabetes":7.089,"hypertension":15.999,"obesity":15.473,"serious_mental_illness":0.713,"stroke_tia":1.621}},{"ods":"C84628","name":"SHERWOOD RISE MEDICAL CENTRE","pcn":"U44561","lat":52.971428,"lng":-1.16303,"list":8066,"gp_fte":2.36,"rating":"Good","prev":{"asthma":4.66,"atrial_fibrillation":0.443,"copd":0.924,"coronary_heart_disease":1.923,"dementia":0.531,"depression":15.194,"diabetes":9.228,"hypertension":10.313,"obesity":12.203,"serious_mental_illness":1.265,"stroke_tia":1.088}},{"ods":"C84629","name":"HEALTH CARE COMPLEX, KIRKBY","pcn":"U53963","lat":53.101426,"lng":-1.248905,"list":4324,"gp_fte":1.6133333334,"rating":null,"prev":{"asthma":6.737,"atrial_fibrillation":1.983,"copd":3.275,"coronary_heart_disease":3.052,"dementia":0.579,"depression":31.401,"diabetes":9.818,"hypertension":16.128,"obesity":12.674,"serious_mental_illness":0.802,"stroke_tia":2.228}},{"ods":"C84637","name":"SANDY LANE SURGERY","pcn":"U32323","lat":53.144437,"lng":-1.182848,"list":9718,"gp_fte":2.2,"rating":"Good","prev":{"asthma":6.412,"atrial_fibrillation":1.843,"copd":2.513,"coronary_heart_disease":3.584,"dementia":0.978,"depression":11.292,"diabetes":9.713,"hypertension":16.61,"obesity":18.052,"serious_mental_illness":1.019,"stroke_tia":1.854}},{"ods":"C84646","name":"THE IVY MEDICAL GROUP","pcn":"U47851","lat":52.992005,"lng":-1.034678,"list":6369,"gp_fte":1.8400000001,"rating":"Good","prev":{"asthma":6.555,"atrial_fibrillation":3.82,"copd":1.222,"coronary_heart_disease":3.728,"dementia":1.07,"depression":10.673,"diabetes":5.868,"hypertension":19.144,"obesity":8.655,"serious_mental_illness":0.458,"stroke_tia":2.429}},{"ods":"C84654","name":"JACKSDALE MEDICAL CENTRE","pcn":"U53963","lat":53.061389,"lng":-1.321116,"list":4622,"gp_fte":2.4533333333,"rating":null,"prev":{"asthma":8.125,"atrial_fibrillation":2.853,"copd":2.921,"coronary_heart_disease":3.668,"dementia":1.2,"depression":14.888,"diabetes":8.777,"hypertension":18.633,"obesity":18.128,"serious_mental_illness":0.634,"stroke_tia":2.49}},{"ods":"C84656","name":"HILL VIEW SURGERY","pcn":"U90349","lat":53.113909,"lng":-1.081831,"list":8658,"gp_fte":3.4266666667,"rating":"Good","prev":{"asthma":7.895,"atrial_fibrillation":3.046,"copd":2.592,"coronary_heart_disease":3.859,"dementia":0.681,"depression":15.373,"diabetes":8.392,"hypertension":18.946,"obesity":13.382,"serious_mental_illness":1.015,"stroke_tia":2.497}},{"ods":"C84658","name":"MEDEN MEDICAL SERVICES","pcn":"U32323","lat":53.205406,"lng":-1.149585,"list":10478,"gp_fte":2.1333333334,"rating":"Good","prev":{"asthma":8.184,"atrial_fibrillation":2.401,"copd":3.651,"coronary_heart_disease":3.292,"dementia":0.736,"depression":13.613,"diabetes":9.917,"hypertension":17.517,"obesity":17.517,"serious_mental_illness":0.717,"stroke_tia":2.179}},{"ods":"C84660","name":"HOUNSFIELD SURGERY","pcn":"U65095","lat":53.177979,"lng":-0.842002,"list":4521,"gp_fte":3.4933333334,"rating":"Good","prev":{"asthma":7.15,"atrial_fibrillation":3.592,"copd":1.084,"coronary_heart_disease":3.727,"dementia":0.384,"depression":7.993,"diabetes":7.122,"hypertension":17.145,"obesity":16.531,"serious_mental_illness":0.542,"stroke_tia":2.327}},{"ods":"C84664","name":"WELBECK SURGERY","pcn":"U44561","lat":52.979106,"lng":-1.152619,"list":5011,"gp_fte":2.1066666667,"rating":"Good","prev":{"asthma":6.029,"atrial_fibrillation":1.096,"copd":1.279,"coronary_heart_disease":1.79,"dementia":0.53,"depression":11.84,"diabetes":5.061,"hypertension":10.267,"obesity":12.042,"serious_mental_illness":1.425,"stroke_tia":1.352}},{"ods":"C84667","name":"GILTBROOK SURGERY","pcn":"U99463","lat":53.003816,"lng":-1.278022,"list":6122,"gp_fte":1.84,"rating":"Outstanding","prev":{"asthma":7.203,"atrial_fibrillation":2.411,"copd":1.963,"coronary_heart_disease":2.979,"dementia":0.689,"depression":11.49,"diabetes":7.827,"hypertension":16.411,"obesity":16.99,"serious_mental_illness":0.534,"stroke_tia":1.825}},{"ods":"C84676","name":"GREENFIELDS MEDICAL PRACTICE","pcn":"U55117","lat":52.968191,"lng":-1.173784,"list":8380,"gp_fte":0.8,"rating":"Good","prev":{"asthma":5.087,"atrial_fibrillation":0.618,"copd":1.224,"coronary_heart_disease":1.926,"dementia":0.309,"depression":11.099,"diabetes":8.587,"hypertension":10.663,"obesity":13.745,"serious_mental_illness":1.486,"stroke_tia":0.939}},{"ods":"C84679","name":"ACORN MEDICAL PRACTICE","pcn":"U18267","lat":53.146943,"lng":-1.196029,"list":4478,"gp_fte":3.3066666666,"rating":"Good","prev":{"asthma":5.132,"atrial_fibrillation":1.246,"copd":2.181,"coronary_heart_disease":3.071,"dementia":0.49,"depression":13.643,"diabetes":8.384,"hypertension":14.979,"obesity":9.892,"serious_mental_illness":0.957,"stroke_tia":1.447}},{"ods":"C84682","name":"SHERRINGTON PARK MEDICAL PRACTICE","pcn":"U44561","lat":52.974618,"lng":-1.150987,"list":5052,"gp_fte":1.8888,"rating":"Outstanding","prev":{"asthma":6.021,"atrial_fibrillation":1.262,"copd":0.977,"coronary_heart_disease":2.015,"dementia":0.509,"depression":8.846,"diabetes":5.016,"hypertension":9.058,"obesity":10.329,"serious_mental_illness":1.384,"stroke_tia":1.547}},{"ods":"C84683","name":"THE WINDMILL PRACTICE","pcn":"U47242","lat":52.954249,"lng":-1.124177,"list":11445,"gp_fte":4.6133333335,"rating":"Good","prev":{"asthma":6.517,"atrial_fibrillation":1.15,"copd":1.914,"coronary_heart_disease":1.993,"dementia":0.281,"depression":14.317,"diabetes":7.043,"hypertension":10.885,"obesity":14.58,"serious_mental_illness":1.852,"stroke_tia":1.44}},{"ods":"C84691","name":"HIGH GREEN MEDICAL PRACTICE","pcn":"U94342","lat":52.96554,"lng":-1.172771,"list":8994,"gp_fte":2.6,"rating":"Good","prev":{"asthma":4.099,"atrial_fibrillation":0.555,"copd":0.789,"coronary_heart_disease":1.76,"dementia":0.491,"depression":8.479,"diabetes":8.244,"hypertension":7.86,"obesity":9.751,"serious_mental_illness":1.397,"stroke_tia":1.077}},{"ods":"C84692","name":"NORTH LEVERTON SURGERY","pcn":"U82499","lat":53.327274,"lng":-0.827778,"list":2699,"gp_fte":1.6,"rating":"Good","prev":{"asthma":7.63,"atrial_fibrillation":3.574,"copd":3.202,"coronary_heart_disease":4.058,"dementia":1.005,"depression":12.352,"diabetes":10.035,"hypertension":22.822,"obesity":19.824,"serious_mental_illness":0.298,"stroke_tia":2.681}},{"ods":"C84693","name":"BAKERSFIELD MEDICAL CENTRE","pcn":"U47242","lat":52.963156,"lng":-1.108907,"list":5199,"gp_fte":2.0,"rating":"Good","prev":{"asthma":6.329,"atrial_fibrillation":1.375,"copd":1.452,"coronary_heart_disease":2.369,"dementia":0.764,"depression":12.882,"diabetes":8.804,"hypertension":13.983,"obesity":15.32,"serious_mental_illness":0.649,"stroke_tia":2.025}},{"ods":"C84694","name":"LIME TREE SURGERY","pcn":"U55117","lat":52.982643,"lng":-1.205711,"list":4717,"gp_fte":1.0666666667,"rating":"Outstanding","prev":{"asthma":6.005,"atrial_fibrillation":1.723,"copd":2.518,"coronary_heart_disease":2.827,"dementia":0.53,"depression":15.517,"diabetes":7.159,"hypertension":13.052,"obesity":10.394,"serious_mental_illness":0.707,"stroke_tia":1.833}},{"ods":"C84695","name":"THE ALICE MEDICAL CENTRE","pcn":"U44561","lat":52.998164,"lng":-1.16333,"list":4516,"gp_fte":1.5112,"rating":"Good","prev":{"asthma":6.731,"atrial_fibrillation":1.479,"copd":2.376,"coronary_heart_disease":2.062,"dementia":1.098,"depression":19.409,"diabetes":7.628,"hypertension":13.517,"obesity":16.632,"serious_mental_illness":1.345,"stroke_tia":1.569}},{"ods":"C84696","name":"WEST OAK SURGERY","pcn":"U12949","lat":52.977904,"lng":-1.103342,"list":4863,"gp_fte":2.5706666666,"rating":"Good","prev":{"asthma":7.514,"atrial_fibrillation":2.614,"copd":1.629,"coronary_heart_disease":2.996,"dementia":0.784,"depression":10.242,"diabetes":6.872,"hypertension":15.785,"obesity":10.615,"serious_mental_illness":0.664,"stroke_tia":1.93}},{"ods":"C84703","name":"THE GAMSTON MEDICAL CTR.","pcn":"U12563","lat":52.922024,"lng":-1.107504,"list":6923,"gp_fte":2.24,"rating":"Good","prev":{"asthma":6.989,"atrial_fibrillation":1.784,"copd":0.958,"coronary_heart_disease":2.212,"dementia":0.811,"depression":10.739,"diabetes":5.832,"hypertension":13.049,"obesity":11.798,"serious_mental_illness":0.605,"stroke_tia":1.799}},{"ods":"C84704","name":"JRB HEALTHCARE BEECHDALE SURGERY","pcn":"U55117","lat":52.968962,"lng":-1.199086,"list":8201,"gp_fte":2.0666666667,"rating":"Good","prev":{"asthma":7.122,"atrial_fibrillation":1.476,"copd":2.43,"coronary_heart_disease":3.385,"dementia":1.031,"depression":17.173,"diabetes":10.868,"hypertension":18.743,"obesity":28.727,"serious_mental_illness":1.552,"stroke_tia":2.163}},{"ods":"C84705","name":"HICKINGS LANE MEDICAL CTR","pcn":"U99463","lat":52.935456,"lng":-1.267455,"list":8090,"gp_fte":2.1066666667,"rating":null,"prev":{"asthma":7.356,"atrial_fibrillation":1.91,"copd":2.05,"coronary_heart_disease":2.203,"dementia":0.433,"depression":15.347,"diabetes":7.762,"hypertension":15.994,"obesity":15.429,"serious_mental_illness":0.853,"stroke_tia":1.49}},{"ods":"C84714","name":"SUNRISE MEDICAL PRACTICE","pcn":"U59216","lat":52.915446,"lng":-1.153588,"list":6005,"gp_fte":2.7733333333,"rating":"Good","prev":{"asthma":2.311,"atrial_fibrillation":0.015,"copd":0.0,"coronary_heart_disease":0.045,"dementia":0.0,"depression":9.142,"diabetes":0.522,"hypertension":0.566,"obesity":6.339,"serious_mental_illness":0.104,"stroke_tia":0.03}},{"ods":"C84720","name":"NOTSPAR","pcn":"Unaligned","lat":53.048537,"lng":-1.149589,"list":33,"gp_fte":null,"rating":null,"prev":{}},{"ods":"Y00026","name":"THE OM SURGERY","pcn":"U06437","lat":53.036451,"lng":-1.205582,"list":2850,"gp_fte":0.4,"rating":"Good","prev":{"asthma":5.858,"atrial_fibrillation":1.176,"copd":1.556,"coronary_heart_disease":2.846,"dementia":0.455,"depression":12.112,"diabetes":6.819,"hypertension":12.979,"obesity":13.711,"serious_mental_illness":0.569,"stroke_tia":1.935}},{"ods":"Y02847","name":"PARLIAMENT STREET MEDICAL CENTRE","pcn":"U47242","lat":52.948004,"lng":-1.145829,"list":10980,"gp_fte":3.7074666667,"rating":null,"prev":{"asthma":3.793,"atrial_fibrillation":0.429,"copd":1.026,"coronary_heart_disease":0.747,"dementia":0.1,"depression":11.598,"diabetes":2.563,"hypertension":3.737,"obesity":6.97,"serious_mental_illness":1.335,"stroke_tia":0.448}},{"ods":"Y03124","name":"GRANGE FARM MEDICAL CENTRE","pcn":"U78528","lat":52.963418,"lng":-1.228041,"list":5478,"gp_fte":2.0712,"rating":"Requires improvement","prev":{"asthma":9.161,"atrial_fibrillation":2.158,"copd":3.088,"coronary_heart_disease":3.457,"dementia":1.0,"depression":16.076,"diabetes":9.053,"hypertension":16.371,"obesity":18.597,"serious_mental_illness":0.737,"stroke_tia":2.053}},{"ods":"Y05346","name":"WESTWOOD PRIMARY CARE CENTRE","pcn":"U05001","lat":53.307926,"lng":-1.111793,"list":3594,"gp_fte":1.1,"rating":"Outstanding","prev":{"asthma":6.472,"atrial_fibrillation":1.586,"copd":3.979,"coronary_heart_disease":2.588,"dementia":0.501,"depression":18.784,"diabetes":8.498,"hypertension":12.577,"obesity":15.269,"serious_mental_illness":0.807,"stroke_tia":1.503}},{"ods":"Y05369","name":"BALDERTON SURGERY","pcn":"U65095","lat":53.052019,"lng":-0.782659,"list":6886,"gp_fte":1.9157333333,"rating":"Good","prev":{"asthma":5.774,"atrial_fibrillation":2.035,"copd":1.458,"coronary_heart_disease":2.855,"dementia":0.79,"depression":15.815,"diabetes":7.995,"hypertension":16.236,"obesity":16.498,"serious_mental_illness":0.881,"stroke_tia":2.005}},{"ods":"Y05622","name":"SOUTHGLADE MEDICAL PRACTICE","pcn":"U63129","lat":52.999141,"lng":-1.168008,"list":5644,"gp_fte":2.24,"rating":"Requires improvement","prev":{"asthma":5.142,"atrial_fibrillation":0.873,"copd":1.5,"coronary_heart_disease":1.633,"dementia":0.399,"depression":16.614,"diabetes":6.292,"hypertension":9.664,"obesity":17.156,"serious_mental_illness":1.272,"stroke_tia":1.025}},{"ods":"Y05690","name":"KIRKBY COMMUNITY PRIMARY CARE CENTRE (3)","pcn":"U53963","lat":53.097907,"lng":-1.25016,"list":7225,"gp_fte":2.4159999999,"rating":"Good","prev":{"asthma":7.823,"atrial_fibrillation":1.539,"copd":2.463,"coronary_heart_disease":2.309,"dementia":1.329,"depression":20.228,"diabetes":8.22,"hypertension":12.103,"obesity":12.534,"serious_mental_illness":0.937,"stroke_tia":1.539}},{"ods":"Y05960","name":"NC GPA PLUS","pcn":"Unaligned","lat":null,"lng":null,"list":null,"gp_fte":null,"rating":null,"prev":{}},{"ods":"Y06356","name":"BILBOROUGH MEDICAL CENTRE","pcn":"U78528","lat":52.972503,"lng":-1.224637,"list":9268,"gp_fte":3.0,"rating":"Good","prev":{"asthma":7.932,"atrial_fibrillation":1.975,"copd":2.92,"coronary_heart_disease":3.461,"dementia":1.32,"depression":14.765,"diabetes":9.654,"hypertension":15.506,"obesity":14.069,"serious_mental_illness":0.842,"stroke_tia":1.943}},{"ods":"Y06443","name":"WHYBURN MEDICAL PRACTICE","pcn":"U06437","lat":53.034865,"lng":-1.207764,"list":12765,"gp_fte":2.3466666667,"rating":"Good","prev":{"asthma":7.36,"atrial_fibrillation":2.327,"copd":2.57,"coronary_heart_disease":3.194,"dementia":0.945,"depression":14.925,"diabetes":7.651,"hypertension":15.831,"obesity":18.29,"serious_mental_illness":0.695,"stroke_tia":2.21}},{"ods":"Y06792","name":"BROAD OAK MEDICAL PRACTICE","pcn":"U78528","lat":52.97566,"lng":-1.219795,"list":7843,"gp_fte":1.8666666667,"rating":"Good","prev":{"asthma":6.335,"atrial_fibrillation":0.909,"copd":2.245,"coronary_heart_disease":1.751,"dementia":0.441,"depression":15.889,"diabetes":7.743,"hypertension":10.746,"obesity":9.557,"serious_mental_illness":1.043,"stroke_tia":1.203}},{"ods":"Y08082","name":"BASSETLAW SAS PRACTICE","pcn":"","lat":53.28266,"lng":-1.079402,"list":5,"gp_fte":null,"rating":null,"prev":{}}]