[{"ods":"F81001","name":"DR KHAN & PARTNERS","pcn":"U27924","lat":51.565461,"lng":0.561761,"list":13546,"gp_fte":7.4,"rating":"Good","prev":{"asthma":7.041,"atrial_fibrillation":2.84,"copd":1.803,"coronary_heart_disease":3.673,"dementia":1.292,"depression":17.612,"diabetes":8.157,"hypertension":16.977,"obesity":11.556,"serious_mental_illness":0.699,"stroke_tia":2.366}},{"ods":"F81003","name":"DR F KHAN CARNAVON ROAD SURGERY","pcn":"U17794","lat":51.55044,"lng":0.699932,"list":5929,"gp_fte":3.1199999999,"rating":"Good","prev":{"asthma":6.236,"atrial_fibrillation":1.354,"copd":2.006,"coronary_heart_disease":2.229,"dementia":0.637,"depression":12.537,"diabetes":6.964,"hypertension":13.822,"obesity":9.279,"serious_mental_illness":1.131,"stroke_tia":1.369}},{"ods":"F81006","name":"CLAYHILL MEDICAL PRACTICE","pcn":"U55146","lat":51.568026,"lng":0.478946,"list":5241,"gp_fte":1.0666666667,"rating":null,"prev":{"asthma":5.805,"atrial_fibrillation":1.017,"copd":2.052,"coronary_heart_disease":2.197,"dementia":0.599,"depression":18.786,"diabetes":7.636,"hypertension":12.818,"obesity":13.584,"serious_mental_illness":1.38,"stroke_tia":1.507}},{"ods":"F81007","name":"DR PUZEY,DR KOTHARI AND DR NANDA","pcn":"U49929","lat":51.58664,"lng":0.69527,"list":19710,"gp_fte":6.4933333332,"rating":"Good","prev":{"asthma":7.298,"atrial_fibrillation":2.501,"copd":2.021,"coronary_heart_disease":3.343,"dementia":1.075,"depression":14.081,"diabetes":7.988,"hypertension":16.161,"obesity":11.102,"serious_mental_illness":0.802,"stroke_tia":1.897}},{"ods":"F81010","name":"AVELEY MEDICAL CENTRE","pcn":"U28765","lat":51.504367,"lng":0.262746,"list":12295,"gp_fte":2.64,"rating":"Good","prev":{"asthma":5.39,"atrial_fibrillation":1.753,"copd":2.262,"coronary_heart_disease":2.351,"dementia":0.622,"depression":12.127,"diabetes":8.767,"hypertension":14.365,"obesity":14.024,"serious_mental_illness":0.848,"stroke_tia":1.543}},{"ods":"F81011","name":"KELVEDON & FEERING HEALTH CENTRE","pcn":"U84465","lat":51.837169,"lng":0.709807,"list":8210,"gp_fte":2.1333333334,"rating":"Good","prev":{"asthma":8.232,"atrial_fibrillation":2.589,"copd":1.601,"coronary_heart_disease":3.052,"dementia":0.65,"depression":12.496,"diabetes":7.239,"hypertension":16.175,"obesity":13.119,"serious_mental_illness":0.826,"stroke_tia":1.776}},{"ods":"F81013","name":"WESTERN ROAD SURGERY","pcn":"U91979","lat":51.627149,"lng":0.421023,"list":12980,"gp_fte":5.76,"rating":"Good","prev":{"asthma":6.503,"atrial_fibrillation":2.663,"copd":1.198,"coronary_heart_disease":2.82,"dementia":0.67,"depression":12.834,"diabetes":5.251,"hypertension":15.245,"obesity":8.943,"serious_mental_illness":0.544,"stroke_tia":2.3}},{"ods":"F81014","name":"CHURCH LANE SURGERY","pcn":"Unaligned","lat":51.883998,"lng":0.556525,"list":11839,"gp_fte":3.7800000001,"rating":"Good","prev":{"asthma":6.536,"atrial_fibrillation":1.957,"copd":1.825,"coronary_heart_disease":2.588,"dementia":1.377,"depression":11.926,"diabetes":8.175,"hypertension":14.514,"obesity":11.182,"serious_mental_illness":0.829,"stroke_tia":1.692}},{"ods":"F81020","name":"THE FRESHFORD PRACTICE","pcn":"U84465","lat":51.950052,"lng":0.481609,"list":8290,"gp_fte":4.9333333333,"rating":"Outstanding","prev":{"asthma":7.524,"atrial_fibrillation":3.436,"copd":1.921,"coronary_heart_disease":3.51,"dementia":0.443,"depression":10.674,"diabetes":7.629,"hypertension":18.931,"obesity":11.405,"serious_mental_illness":0.616,"stroke_tia":2.266}},{"ods":"F81022","name":"LONGFIELD MEDICAL CENTRE","pcn":"U18990","lat":51.733792,"lng":0.682853,"list":16271,"gp_fte":5.2266666667,"rating":"Good","prev":{"asthma":7.996,"atrial_fibrillation":2.912,"copd":1.773,"coronary_heart_disease":3.595,"dementia":1.428,"depression":13.289,"diabetes":8.092,"hypertension":18.209,"obesity":10.272,"serious_mental_illness":0.868,"stroke_tia":2.308}},{"ods":"F81023","name":"BEECHWOOD SURGERY","pcn":"U79723","lat":51.610912,"lng":0.298651,"list":13785,"gp_fte":6.3333333333,"rating":"Good","prev":{"asthma":4.814,"atrial_fibrillation":1.659,"copd":1.004,"coronary_heart_disease":1.926,"dementia":0.826,"depression":10.054,"diabetes":6.099,"hypertension":12.101,"obesity":9.639,"serious_mental_illness":0.759,"stroke_tia":1.391}},{"ods":"F81025","name":"DR GC CHAJED'S PRACTICE","pcn":"U72156","lat":51.567127,"lng":0.465878,"list":10383,"gp_fte":4.5360000001,"rating":"Good","prev":{"asthma":6.183,"atrial_fibrillation":1.743,"copd":1.571,"coronary_heart_disease":2.28,"dementia":0.469,"depression":12.828,"diabetes":7.931,"hypertension":14.713,"obesity":14.74,"serious_mental_illness":0.785,"stroke_tia":1.686}},{"ods":"F81029","name":"THE KNARES MEDICAL PRACTICE","pcn":"U72156","lat":51.5679,"lng":0.449505,"list":8222,"gp_fte":1.6,"rating":"Good","prev":{"asthma":6.423,"atrial_fibrillation":1.422,"copd":1.789,"coronary_heart_disease":1.949,"dementia":0.282,"depression":14.837,"diabetes":7.192,"hypertension":13.088,"obesity":8.137,"serious_mental_illness":0.772,"stroke_tia":1.507}},{"ods":"F81030","name":"FERN HOUSE SURGERY","pcn":"U18990","lat":51.799061,"lng":0.636915,"list":17204,"gp_fte":6.4993897526,"rating":"Good","prev":{"asthma":8.414,"atrial_fibrillation":2.748,"copd":2.152,"coronary_heart_disease":3.361,"dementia":0.79,"depression":17.665,"diabetes":9.57,"hypertension":18.131,"obesity":12.993,"serious_mental_illness":0.755,"stroke_tia":1.869}},{"ods":"F81031","name":"MURREE MEDICAL GROUP","pcn":"Unaligned","lat":51.576814,"lng":0.492856,"list":7554,"gp_fte":1.0,"rating":"Good","prev":{"asthma":8.122,"atrial_fibrillation":1.484,"copd":2.393,"coronary_heart_disease":3.058,"dementia":1.42,"depression":18.299,"diabetes":9.253,"hypertension":14.997,"obesity":12.553,"serious_mental_illness":1.484,"stroke_tia":2.06}},{"ods":"F81032","name":"GRACE HOUSE SURGERY","pcn":"U27924","lat":51.566947,"lng":0.57709,"list":3123,"gp_fte":0.0,"rating":"Good","prev":{"asthma":6.078,"atrial_fibrillation":2.354,"copd":1.852,"coronary_heart_disease":4.3,"dementia":1.507,"depression":10.429,"diabetes":6.999,"hypertension":16.196,"obesity":8.191,"serious_mental_illness":1.036,"stroke_tia":1.789}},{"ods":"F81036","name":"ROBERT FREW MEDICAL CENTRE","pcn":"U92558","lat":51.609814,"lng":0.528876,"list":18204,"gp_fte":6.88,"rating":"Good","prev":{"asthma":5.756,"atrial_fibrillation":2.027,"copd":1.578,"coronary_heart_disease":2.674,"dementia":0.981,"depression":14.495,"diabetes":7.73,"hypertension":15.862,"obesity":11.905,"serious_mental_illness":0.619,"stroke_tia":1.797}},{"ods":"F81038","name":"TILE HOUSE SURGERY","pcn":"U79723","lat":51.627438,"lng":0.301064,"list":13111,"gp_fte":6.9466666667,"rating":"Good","prev":{"asthma":6.886,"atrial_fibrillation":2.813,"copd":1.657,"coronary_heart_disease":3.045,"dementia":0.858,"depression":10.893,"diabetes":6.795,"hypertension":17.148,"obesity":10.875,"serious_mental_illness":0.888,"stroke_tia":2.313}},{"ods":"F81040","name":"STOCK SURGERY","pcn":"U99739","lat":51.662713,"lng":0.461819,"list":4791,"gp_fte":4.2133333332,"rating":"Good","prev":{"asthma":6.113,"atrial_fibrillation":3.376,"copd":1.456,"coronary_heart_disease":3.629,"dementia":0.506,"depression":10.116,"diabetes":6.951,"hypertension":19.266,"obesity":8.981,"serious_mental_illness":0.549,"stroke_tia":2.68}},{"ods":"F81041","name":"LONDON ROAD SURGERY","pcn":"U92558","lat":51.61338,"lng":0.52101,"list":14437,"gp_fte":5.384,"rating":"Good","prev":{"asthma":6.962,"atrial_fibrillation":2.771,"copd":2.363,"coronary_heart_disease":3.39,"dementia":0.985,"depression":15.847,"diabetes":8.49,"hypertension":18.728,"obesity":14.389,"serious_mental_illness":0.865,"stroke_tia":2.483}},{"ods":"F81045","name":"THE NEW SURGERY","pcn":"U91979","lat":51.621885,"lng":0.431189,"list":6770,"gp_fte":1.3866666667,"rating":"Good","prev":{"asthma":5.426,"atrial_fibrillation":2.662,"copd":1.222,"coronary_heart_disease":2.691,"dementia":0.684,"depression":9.366,"diabetes":6.9,"hypertension":19.232,"obesity":10.689,"serious_mental_illness":0.669,"stroke_tia":2.066}},{"ods":"F81046","name":"DR KRISHNAN & PTNR - KENT ELMS HC","pcn":"U97460","lat":51.564866,"lng":0.661721,"list":4470,"gp_fte":2.5333333333,"rating":"Good","prev":{"asthma":6.543,"atrial_fibrillation":3.253,"copd":2.102,"coronary_heart_disease":4.16,"dementia":1.018,"depression":14.131,"diabetes":9.587,"hypertension":23.501,"obesity":5.853,"serious_mental_illness":0.952,"stroke_tia":2.545}},{"ods":"F81051","name":"THIRD AVENUE HEALTH CENTRE","pcn":"U84454","lat":51.525366,"lng":0.580143,"list":7747,"gp_fte":1.8060564193,"rating":"Good","prev":{"asthma":6.773,"atrial_fibrillation":2.696,"copd":2.747,"coronary_heart_disease":3.71,"dementia":0.77,"depression":15.385,"diabetes":9.488,"hypertension":19.104,"obesity":17.435,"serious_mental_illness":1.13,"stroke_tia":2.118}},{"ods":"F81055","name":"MOUNT AVENUE SURGERY","pcn":"U79723","lat":51.629452,"lng":0.341269,"list":13340,"gp_fte":7.0666666666,"rating":"Good","prev":{"asthma":5.135,"atrial_fibrillation":2.145,"copd":0.815,"coronary_heart_disease":2.384,"dementia":0.919,"depression":5.145,"diabetes":5.608,"hypertension":14.365,"obesity":5.456,"serious_mental_illness":0.613,"stroke_tia":1.667}},{"ods":"F81057","name":"WHITLEY HOUSE SURGERY","pcn":"U99739","lat":51.727758,"lng":0.459811,"list":14812,"gp_fte":6.6666666667,"rating":"Good","prev":{"asthma":5.87,"atrial_fibrillation":1.858,"copd":1.086,"coronary_heart_disease":2.193,"dementia":0.771,"depression":10.847,"diabetes":5.998,"hypertension":12.87,"obesity":10.697,"serious_mental_illness":0.979,"stroke_tia":1.724}},{"ods":"F81060","name":"AEGIS MEDICAL CENTRE","pcn":"U55146","lat":51.57808,"lng":0.464146,"list":4935,"gp_fte":2.2,"rating":"Requires improvement","prev":{"asthma":6.184,"atrial_fibrillation":1.182,"copd":1.875,"coronary_heart_disease":1.671,"dementia":0.509,"depression":9.223,"diabetes":9.866,"hypertension":15.631,"obesity":17.843,"serious_mental_illness":0.754,"stroke_tia":1.569}},{"ods":"F81061","name":"CONNER & PARTNERS","pcn":"U30335","lat":51.618948,"lng":0.614594,"list":7936,"gp_fte":4.1466666666,"rating":"Good","prev":{"asthma":7.316,"atrial_fibrillation":3.391,"copd":2.677,"coronary_heart_disease":3.807,"dementia":1.04,"depression":12.908,"diabetes":8.236,"hypertension":21.881,"obesity":13.364,"serious_mental_illness":0.559,"stroke_tia":2.352}},{"ods":"F81065","name":"WILLIAM HARVEY SURGERY","pcn":"U30335","lat":51.595011,"lng":0.596121,"list":4328,"gp_fte":1.4860564193,"rating":"Good","prev":{"asthma":5.146,"atrial_fibrillation":1.506,"copd":1.251,"coronary_heart_disease":2.572,"dementia":0.649,"depression":8.771,"diabetes":6.275,"hypertension":13.323,"obesity":6.088,"serious_mental_illness":0.602,"stroke_tia":1.089}},{"ods":"F81066","name":"THE GREENSWARD SURGERY","pcn":"U30335","lat":51.605738,"lng":0.661886,"list":6488,"gp_fte":3.4133333333,"rating":"Good","prev":{"asthma":6.847,"atrial_fibrillation":3.233,"copd":1.719,"coronary_heart_disease":3.69,"dementia":1.12,"depression":10.099,"diabetes":7.782,"hypertension":19.855,"obesity":11.086,"serious_mental_illness":0.599,"stroke_tia":2.618}},{"ods":"F81068","name":"THE ELIZABETH COURTAULD SURGERY","pcn":"U84465","lat":51.944395,"lng":0.634228,"list":17071,"gp_fte":10.0933333333,"rating":"Good","prev":{"asthma":6.584,"atrial_fibrillation":2.957,"copd":1.63,"coronary_heart_disease":3.492,"dementia":1.404,"depression":13.093,"diabetes":7.517,"hypertension":13.791,"obesity":11.135,"serious_mental_illness":0.988,"stroke_tia":2.362}},{"ods":"F81071","name":"RIVERMEAD GATE MED.CTR.","pcn":"U48176","lat":51.735704,"lng":0.468631,"list":13919,"gp_fte":3.6266666666,"rating":"Good","prev":{"asthma":5.061,"atrial_fibrillation":1.71,"copd":0.976,"coronary_heart_disease":1.987,"dementia":0.699,"depression":7.199,"diabetes":6.358,"hypertension":11.075,"obesity":10.553,"serious_mental_illness":1.059,"stroke_tia":1.218}},{"ods":"F81075","name":"THE HOLLIES","pcn":"U27924","lat":51.560858,"lng":0.600046,"list":11316,"gp_fte":1.8666666666,"rating":null,"prev":{"asthma":6.726,"atrial_fibrillation":3.118,"copd":2.055,"coronary_heart_disease":3.34,"dementia":1.626,"depression":12.875,"diabetes":8.139,"hypertension":19.51,"obesity":7.352,"serious_mental_illness":0.936,"stroke_tia":2.682}},{"ods":"F81076","name":"THE TOLLESBURY PRACTICE","pcn":"U18990","lat":51.765679,"lng":0.806901,"list":4753,"gp_fte":2.0,"rating":"Good","prev":{"asthma":5.979,"atrial_fibrillation":2.657,"copd":1.457,"coronary_heart_disease":2.721,"dementia":0.557,"depression":8.818,"diabetes":7.139,"hypertension":17.784,"obesity":9.361,"serious_mental_illness":0.6,"stroke_tia":1.864}},{"ods":"F81080","name":"THE BILLERICAY MEDICAL PRACTICE","pcn":"U91979","lat":51.632229,"lng":0.426861,"list":12111,"gp_fte":5.0133333333,"rating":"Good","prev":{"asthma":8.445,"atrial_fibrillation":2.938,"copd":1.29,"coronary_heart_disease":3.146,"dementia":0.674,"depression":9.051,"diabetes":6.118,"hypertension":16.468,"obesity":8.566,"serious_mental_illness":0.583,"stroke_tia":2.347}},{"ods":"F81081","name":"THE QUEENSWAY SURGERY","pcn":"U17794","lat":51.547797,"lng":0.711412,"list":22122,"gp_fte":7.6666666667,"rating":"Good","prev":{"asthma":7.29,"atrial_fibrillation":2.04,"copd":2.528,"coronary_heart_disease":3.04,"dementia":0.832,"depression":23.709,"diabetes":8.766,"hypertension":16.275,"obesity":13.878,"serious_mental_illness":1.999,"stroke_tia":1.859}},{"ods":"F81082","name":"THE RIGG-MILNER MEDICAL CENTRE","pcn":"U06243","lat":51.510376,"lng":0.434621,"list":4284,"gp_fte":0.6666666666,"rating":"Requires improvement","prev":{"asthma":6.08,"atrial_fibrillation":2.3,"copd":2.3,"coronary_heart_disease":3.202,"dementia":0.767,"depression":5.96,"diabetes":10.661,"hypertension":23.63,"obesity":9.887,"serious_mental_illness":0.947,"stroke_tia":2.052}},{"ods":"F81083","name":"BEAUCHAMP HOUSE","pcn":"U99739","lat":51.730474,"lng":0.476732,"list":11802,"gp_fte":3.8666666667,"rating":"Good","prev":{"asthma":7.014,"atrial_fibrillation":2.406,"copd":1.59,"coronary_heart_disease":2.603,"dementia":0.857,"depression":12.1,"diabetes":8.031,"hypertension":15.843,"obesity":10.246,"serious_mental_illness":1.162,"stroke_tia":1.928}},{"ods":"F81085","name":"DR A NAEEM & PARTNERS,THE NEW SURGERY","pcn":"U79723","lat":51.62259,"lng":0.30692,"list":13526,"gp_fte":3.3448000001,"rating":"Good","prev":{"asthma":5.574,"atrial_fibrillation":2.704,"copd":1.711,"coronary_heart_disease":2.349,"dementia":1.008,"depression":8.979,"diabetes":6.684,"hypertension":13.628,"obesity":9.375,"serious_mental_illness":0.863,"stroke_tia":2.001}},{"ods":"F81086","name":"CENTRAL SURGERY - SOUTHCHURCH BLVD","pcn":"U04545","lat":51.5448,"lng":0.735088,"list":7661,"gp_fte":2.9573333333,"rating":"Requires improvement","prev":{"asthma":6.681,"atrial_fibrillation":2.182,"copd":1.912,"coronary_heart_disease":3.145,"dementia":0.578,"depression":14.439,"diabetes":6.886,"hypertension":14.838,"obesity":11.786,"serious_mental_illness":1.091,"stroke_tia":1.656}},{"ods":"F81087","name":"MOUNT CHAMBERS MEDICAL PRACTICE","pcn":"U80679","lat":51.880523,"lng":0.559584,"list":13680,"gp_fte":5.1466666667,"rating":"Good","prev":{"asthma":6.819,"atrial_fibrillation":2.137,"copd":1.926,"coronary_heart_disease":3.096,"dementia":1.461,"depression":14.76,"diabetes":9.15,"hypertension":16.65,"obesity":12.574,"serious_mental_illness":0.916,"stroke_tia":2.115}},{"ods":"F81088","name":"SOUTHEND ROAD SURGERY","pcn":"U98530","lat":51.527431,"lng":0.439749,"list":2706,"gp_fte":0.56,"rating":"Good","prev":{"asthma":6.793,"atrial_fibrillation":2.581,"copd":2.058,"coronary_heart_disease":2.731,"dementia":0.599,"depression":14.19,"diabetes":8.302,"hypertension":20.314,"obesity":14.429,"serious_mental_illness":0.748,"stroke_tia":1.983}},{"ods":"F81089","name":"WAKERING MEDICAL CTR.","pcn":"U49929","lat":51.555439,"lng":0.791674,"list":10132,"gp_fte":3.2,"rating":"Good","prev":{"asthma":6.842,"atrial_fibrillation":2.444,"copd":1.984,"coronary_heart_disease":3.519,"dementia":0.88,"depression":9.199,"diabetes":7.969,"hypertension":18.141,"obesity":8.935,"serious_mental_illness":0.626,"stroke_tia":2.101}},{"ods":"F81092","name":"DR SOORIAKUMARAN","pcn":"U02453","lat":51.553774,"lng":0.686191,"list":4646,"gp_fte":1.8666666667,"rating":"Good","prev":{"asthma":6.11,"atrial_fibrillation":1.786,"copd":1.513,"coronary_heart_disease":3.235,"dementia":0.903,"depression":10.607,"diabetes":8.539,"hypertension":14.748,"obesity":6.099,"serious_mental_illness":0.987,"stroke_tia":2.122}},{"ods":"F81096","name":"OAKLANDS SURGERY","pcn":"U84454","lat":51.52265,"lng":0.591042,"list":10800,"gp_fte":2.0133333333,"rating":"Good","prev":{"asthma":7.98,"atrial_fibrillation":2.861,"copd":3.442,"coronary_heart_disease":3.47,"dementia":1.449,"depression":9.739,"diabetes":10.777,"hypertension":21.336,"obesity":14.535,"serious_mental_illness":0.951,"stroke_tia":2.095}},{"ods":"F81097","name":"THE VALKYRIE SURGERY","pcn":"U02453","lat":51.545616,"lng":0.683601,"list":17864,"gp_fte":7.7600000001,"rating":"Good","prev":{"asthma":6.345,"atrial_fibrillation":2.031,"copd":2.092,"coronary_heart_disease":2.741,"dementia":1.399,"depression":8.998,"diabetes":7.308,"hypertension":17.241,"obesity":12.054,"serious_mental_illness":1.768,"stroke_tia":1.801}},{"ods":"F81098","name":"THE WRITTLE SURGERY","pcn":"U87998","lat":51.737475,"lng":0.407678,"list":8064,"gp_fte":5.6533333333,"rating":"Good","prev":{"asthma":7.207,"atrial_fibrillation":3.49,"copd":1.824,"coronary_heart_disease":3.808,"dementia":0.575,"depression":8.938,"diabetes":8.258,"hypertension":18.036,"obesity":8.428,"serious_mental_illness":0.673,"stroke_tia":2.351}},{"ods":"F81099","name":"BLACKWATER MEDICAL CENTRE","pcn":"U18990","lat":51.733259,"lng":0.683654,"list":12807,"gp_fte":3.2240000001,"rating":"Good","prev":{"asthma":7.512,"atrial_fibrillation":2.552,"copd":1.857,"coronary_heart_disease":3.133,"dementia":0.921,"depression":10.428,"diabetes":8.98,"hypertension":18.395,"obesity":8.844,"serious_mental_illness":0.896,"stroke_tia":1.776}},{"ods":"F81100","name":"BEACON HEALTH GROUP-DANBURY MEDICAL CTR","pcn":"U12553","lat":51.723731,"lng":0.532408,"list":23606,"gp_fte":10.5116533334,"rating":"Good","prev":{"asthma":6.826,"atrial_fibrillation":2.867,"copd":1.013,"coronary_heart_disease":2.745,"dementia":0.598,"depression":9.643,"diabetes":7.585,"hypertension":16.559,"obesity":13.106,"serious_mental_illness":0.76,"stroke_tia":2.005}},{"ods":"F81101","name":"ESSEX WAY SURGERY","pcn":"U27924","lat":51.557116,"lng":0.564563,"list":5499,"gp_fte":2.4266666667,"rating":"Good","prev":{"asthma":5.182,"atrial_fibrillation":2.5,"copd":1.493,"coronary_heart_disease":2.769,"dementia":1.511,"depression":6.754,"diabetes":6.658,"hypertension":15.519,"obesity":7.034,"serious_mental_illness":0.521,"stroke_tia":2.014}},{"ods":"F81102","name":"ROCKLEIGH COURT SURGERY","pcn":"U79723","lat":51.628657,"lng":0.333899,"list":7344,"gp_fte":2.1493333334,"rating":"Good","prev":{"asthma":5.882,"atrial_fibrillation":2.689,"copd":1.092,"coronary_heart_disease":2.716,"dementia":1.147,"depression":8.201,"diabetes":6.012,"hypertension":15.07,"obesity":9.012,"serious_mental_illness":0.683,"stroke_tia":2.116}},{"ods":"F81104","name":"CHAPEL STREET SURGERY","pcn":"U91979","lat":51.618637,"lng":0.430505,"list":4434,"gp_fte":2.1999999999,"rating":"Good","prev":{"asthma":5.892,"atrial_fibrillation":2.464,"copd":1.535,"coronary_heart_disease":2.948,"dementia":1.414,"depression":7.17,"diabetes":8.114,"hypertension":23.082,"obesity":7.874,"serious_mental_illness":1.373,"stroke_tia":1.595}},{"ods":"F81105","name":"LITTLE WALTHAM & GT NOTLEY SURGERY","pcn":"U12553","lat":51.827466,"lng":0.491676,"list":20905,"gp_fte":10.9000000002,"rating":"Good","prev":{"asthma":7.718,"atrial_fibrillation":2.109,"copd":1.207,"coronary_heart_disease":2.395,"dementia":0.496,"depression":11.052,"diabetes":7.749,"hypertension":15.083,"obesity":13.893,"serious_mental_illness":0.525,"stroke_tia":1.575}},{"ods":"F81108","name":"LAINDON MEDICAL GROUP","pcn":"U72156","lat":51.575719,"lng":0.423217,"list":18756,"gp_fte":10.0453333332,"rating":"Good","prev":{"asthma":6.873,"atrial_fibrillation":2.386,"copd":2.284,"coronary_heart_disease":2.968,"dementia":0.749,"depression":13.078,"diabetes":8.991,"hypertension":16.585,"obesity":14.301,"serious_mental_illness":1.034,"stroke_tia":2.268}},{"ods":"F81110","name":"TILBURY HEALTH CENTRE","pcn":"U06243","lat":51.482783,"lng":0.368439,"list":12170,"gp_fte":2.1766666667,"rating":"Good","prev":{"asthma":5.746,"atrial_fibrillation":1.33,"copd":2.29,"coronary_heart_disease":2.373,"dementia":0.493,"depression":12.927,"diabetes":8.71,"hypertension":14.752,"obesity":10.319,"serious_mental_illness":0.87,"stroke_tia":1.486}},{"ods":"F81112","name":"HIGHLANDS SURGERY","pcn":"U97806","lat":51.550741,"lng":0.63548,"list":15468,"gp_fte":4.0666666667,"rating":"Outstanding","prev":{"asthma":6.024,"atrial_fibrillation":2.915,"copd":1.708,"coronary_heart_disease":3.134,"dementia":0.905,"depression":12.171,"diabetes":5.477,"hypertension":14.861,"obesity":7.646,"serious_mental_illness":0.734,"stroke_tia":2.38}},{"ods":"F81113","name":"CHAFFORD HUNDRED MEDICAL CENTRE","pcn":"U68127","lat":51.48944,"lng":0.302278,"list":14137,"gp_fte":5.1839999999,"rating":"Good","prev":{"asthma":5.055,"atrial_fibrillation":1.002,"copd":0.755,"coronary_heart_disease":1.359,"dementia":0.309,"depression":13.692,"diabetes":6.518,"hypertension":12.191,"obesity":10.955,"serious_mental_illness":0.446,"stroke_tia":1.016}},{"ods":"F81114","name":"BADDOW VILLAGE SURGERY","pcn":"U99739","lat":51.708243,"lng":0.499378,"list":13771,"gp_fte":10.1333333333,"rating":"Good","prev":{"asthma":7.212,"atrial_fibrillation":2.886,"copd":2.017,"coronary_heart_disease":3.203,"dementia":0.898,"depression":14.686,"diabetes":7.434,"hypertension":19.055,"obesity":11.867,"serious_mental_illness":0.847,"stroke_tia":2.496}},{"ods":"F81117","name":"SUTHERLAND LODGE SURGERY","pcn":"U48176","lat":51.724391,"lng":0.483958,"list":10022,"gp_fte":3.5866666667,"rating":"Good","prev":{"asthma":5.669,"atrial_fibrillation":2.26,"copd":1.115,"coronary_heart_disease":2.412,"dementia":0.76,"depression":8.529,"diabetes":8.025,"hypertension":14.358,"obesity":9.284,"serious_mental_illness":1.368,"stroke_tia":1.53}},{"ods":"F81119","name":"THE PUMP HOUSE SURGERY","pcn":"U84465","lat":51.930681,"lng":0.708944,"list":8244,"gp_fte":6.8,"rating":"Good","prev":{"asthma":7.996,"atrial_fibrillation":3.019,"copd":1.643,"coronary_heart_disease":3.273,"dementia":1.28,"depression":10.365,"diabetes":7.018,"hypertension":15.024,"obesity":10.291,"serious_mental_illness":0.749,"stroke_tia":2.005}},{"ods":"F81121","name":"SOUTHEND COASTAL SURGERIES - THORPE BAY","pcn":"U04545","lat":51.540054,"lng":0.758223,"list":15433,"gp_fte":1.0933333333,"rating":"Good","prev":{"asthma":6.243,"atrial_fibrillation":2.712,"copd":2.219,"coronary_heart_disease":3.057,"dementia":0.876,"depression":13.017,"diabetes":7.767,"hypertension":16.705,"obesity":11.446,"serious_mental_illness":1.215,"stroke_tia":1.733}},{"ods":"F81122","name":"CHELMER MEDICAL PARTNERSHIP","pcn":"U87998","lat":51.748992,"lng":0.464345,"list":32186,"gp_fte":10.8066666668,"rating":"Good","prev":{"asthma":6.381,"atrial_fibrillation":2.27,"copd":1.653,"coronary_heart_disease":2.687,"dementia":0.797,"depression":11.756,"diabetes":8.478,"hypertension":13.551,"obesity":9.601,"serious_mental_illness":0.917,"stroke_tia":2.036}},{"ods":"F81123","name":"AUDLEY MILLS SURGERY","pcn":"U30335","lat":51.587501,"lng":0.610667,"list":20810,"gp_fte":19.2133333337,"rating":"Good","prev":{"asthma":6.482,"atrial_fibrillation":2.819,"copd":1.93,"coronary_heart_disease":2.834,"dementia":1.57,"depression":9.496,"diabetes":7.077,"hypertension":14.601,"obesity":12.496,"serious_mental_illness":0.651,"stroke_tia":2.173}},{"ods":"F81125","name":"CHURCH VIEW SURGERY","pcn":"U30335","lat":51.59548,"lng":0.632316,"list":14053,"gp_fte":4.2666666668,"rating":"Good","prev":{"asthma":7.099,"atrial_fibrillation":3.017,"copd":1.979,"coronary_heart_disease":2.954,"dementia":0.843,"depression":6.572,"diabetes":7.949,"hypertension":18.917,"obesity":8.365,"serious_mental_illness":0.648,"stroke_tia":1.721}},{"ods":"F81126","name":"BURNHAM SURGERY","pcn":"U09727","lat":51.636774,"lng":0.814634,"list":9936,"gp_fte":3.0666666666,"rating":"Good","prev":{"asthma":8.83,"atrial_fibrillation":3.269,"copd":2.434,"coronary_heart_disease":3.758,"dementia":0.672,"depression":13.05,"diabetes":9.75,"hypertension":20.908,"obesity":13.185,"serious_mental_illness":0.723,"stroke_tia":2.495}},{"ods":"F81128","name":"EASTWOOD GROUP PRACTICE","pcn":"U97460","lat":51.5647,"lng":0.653462,"list":14546,"gp_fte":5.0933333334,"rating":"Good","prev":{"asthma":5.774,"atrial_fibrillation":2.842,"copd":2.072,"coronary_heart_disease":3.203,"dementia":1.479,"depression":11.572,"diabetes":8.413,"hypertension":17.032,"obesity":7.63,"serious_mental_illness":0.832,"stroke_tia":2.201}},{"ods":"F81130","name":"WILLIAM FISHER MED.CTR.","pcn":"U09727","lat":51.66781,"lng":0.817473,"list":6005,"gp_fte":2.3866666667,"rating":"Good","prev":{"asthma":7.819,"atrial_fibrillation":2.66,"copd":2.429,"coronary_heart_disease":3.139,"dementia":1.14,"depression":9.904,"diabetes":9.45,"hypertension":17.082,"obesity":13.545,"serious_mental_illness":0.826,"stroke_tia":2.131}},{"ods":"F81132","name":"BLANDFORD MEDICAL CENTRE","pcn":"U80679","lat":51.879409,"lng":0.552133,"list":17265,"gp_fte":5.4133333335,"rating":"Good","prev":{"asthma":7.881,"atrial_fibrillation":2.356,"copd":1.978,"coronary_heart_disease":2.95,"dementia":1.04,"depression":13.694,"diabetes":9.783,"hypertension":15.296,"obesity":17.067,"serious_mental_illness":0.938,"stroke_tia":1.91}},{"ods":"F81134","name":"PEARTREE SURGERY & WEST HORNDON SURGERY","pcn":"U68127","lat":51.53223,"lng":0.313584,"list":7446,"gp_fte":2.0,"rating":"Good","prev":{"asthma":4.76,"atrial_fibrillation":2.223,"copd":2.485,"coronary_heart_disease":2.419,"dementia":0.615,"depression":7.956,"diabetes":7.705,"hypertension":17.732,"obesity":13.936,"serious_mental_illness":0.641,"stroke_tia":1.883}},{"ods":"F81137","name":"ORSETT SURGERY","pcn":"U98530","lat":51.500192,"lng":0.360634,"list":7274,"gp_fte":3.7866666667,"rating":"Good","prev":{"asthma":6.616,"atrial_fibrillation":2.805,"copd":1.798,"coronary_heart_disease":3.173,"dementia":1.13,"depression":9.736,"diabetes":7.534,"hypertension":18.412,"obesity":13.049,"serious_mental_illness":0.79,"stroke_tia":2.22}},{"ods":"F81142","name":"ST GEORGES MEDICAL PRACTICE","pcn":"U27924","lat":51.565567,"lng":0.561885,"list":6653,"gp_fte":2.2933333334,"rating":"Good","prev":{"asthma":6.476,"atrial_fibrillation":3.4,"copd":2.103,"coronary_heart_disease":3.384,"dementia":1.724,"depression":18.456,"diabetes":8.109,"hypertension":20.082,"obesity":12.297,"serious_mental_illness":0.459,"stroke_tia":2.34}},{"ods":"F81144","name":"THE PALL MALL SURGERY","pcn":"U97806","lat":51.548362,"lng":0.661371,"list":21909,"gp_fte":8.2533333335,"rating":"Good","prev":{"asthma":7.695,"atrial_fibrillation":2.51,"copd":2.07,"coronary_heart_disease":2.688,"dementia":1.878,"depression":14.133,"diabetes":5.743,"hypertension":15.644,"obesity":12.451,"serious_mental_illness":0.943,"stroke_tia":2.033}},{"ods":"F81147","name":"DR NAVIN KUMAR","pcn":"U17794","lat":51.543001,"lng":0.723307,"list":5072,"gp_fte":2.8266666666,"rating":"Good","prev":{"asthma":5.714,"atrial_fibrillation":2.942,"copd":1.915,"coronary_heart_disease":3.258,"dementia":2.172,"depression":9.666,"diabetes":8.498,"hypertension":18.46,"obesity":8.031,"serious_mental_illness":1.54,"stroke_tia":2.567}},{"ods":"F81149","name":"THE LAURELS SURGERY","pcn":"U12553","lat":51.769266,"lng":0.576287,"list":11438,"gp_fte":6.28,"rating":"Good","prev":{"asthma":7.538,"atrial_fibrillation":2.567,"copd":1.437,"coronary_heart_disease":3.224,"dementia":1.297,"depression":11.643,"diabetes":7.79,"hypertension":17.811,"obesity":9.891,"serious_mental_illness":0.596,"stroke_tia":2.479}},{"ods":"F81150","name":"BALLARDS WALK SURGERY","pcn":"U72156","lat":51.574455,"lng":0.446663,"list":13130,"gp_fte":1.6853333333,"rating":"Good","prev":{"asthma":5.436,"atrial_fibrillation":1.461,"copd":1.658,"coronary_heart_disease":1.925,"dementia":0.691,"depression":8.506,"diabetes":7.96,"hypertension":11.651,"obesity":14.584,"serious_mental_illness":0.974,"stroke_tia":1.194}},{"ods":"F81153","name":"HASSENGATE MEDICAL CENTRE","pcn":"U98530","lat":51.524979,"lng":0.439517,"list":13391,"gp_fte":5.5793897526,"rating":"Good","prev":{"asthma":8.413,"atrial_fibrillation":2.657,"copd":2.041,"coronary_heart_disease":2.911,"dementia":0.631,"depression":16.09,"diabetes":8.722,"hypertension":19.284,"obesity":18.374,"serious_mental_illness":0.701,"stroke_tia":2.372}},{"ods":"F81155","name":"BALFOUR MEDICAL CENTRE","pcn":"U68127","lat":51.490198,"lng":0.341053,"list":5468,"gp_fte":1.16,"rating":"Good","prev":{"asthma":5.375,"atrial_fibrillation":1.624,"copd":2.354,"coronary_heart_disease":2.263,"dementia":0.529,"depression":14.262,"diabetes":9.919,"hypertension":16.04,"obesity":12.586,"serious_mental_illness":0.693,"stroke_tia":1.825}},{"ods":"F81158","name":"DR NASAH & PARTNERS","pcn":"U55146","lat":51.571785,"lng":0.499401,"list":3752,"gp_fte":1.0666666667,"rating":"Good","prev":{"asthma":6.43,"atrial_fibrillation":2.193,"copd":3.342,"coronary_heart_disease":3.551,"dementia":0.392,"depression":19.291,"diabetes":10.05,"hypertension":14.595,"obesity":14.628,"serious_mental_illness":1.253,"stroke_tia":2.454}},{"ods":"F81159","name":"SOUTHEND MEDICAL CENTRE","pcn":"U02453","lat":51.542977,"lng":0.705991,"list":7163,"gp_fte":1.8906666666,"rating":"Good","prev":{"asthma":5.059,"atrial_fibrillation":0.984,"copd":1.749,"coronary_heart_disease":1.749,"dementia":0.492,"depression":12.111,"diabetes":5.695,"hypertension":9.143,"obesity":11.228,"serious_mental_illness":2.077,"stroke_tia":1.052}},{"ods":"F81163","name":"THE NEW FOLLY SURGERY","pcn":"U79723","lat":51.668559,"lng":0.380388,"list":7193,"gp_fte":2.3466666667,"rating":"Good","prev":{"asthma":8.592,"atrial_fibrillation":2.8,"copd":1.553,"coronary_heart_disease":3.077,"dementia":0.998,"depression":15.331,"diabetes":6.01,"hypertension":16.759,"obesity":7.178,"serious_mental_illness":0.665,"stroke_tia":2.176}},{"ods":"F81164","name":"WEST ROAD SURGERY","pcn":"U17794","lat":51.548501,"lng":0.693397,"list":9395,"gp_fte":2.8533333333,"rating":"Good","prev":{"asthma":6.754,"atrial_fibrillation":1.85,"copd":2.37,"coronary_heart_disease":2.702,"dementia":0.717,"depression":16.634,"diabetes":8.644,"hypertension":14.998,"obesity":10.068,"serious_mental_illness":1.341,"stroke_tia":1.954}},{"ods":"F81170","name":"KINGSWAY SURGERY","pcn":"U09727","lat":51.647132,"lng":0.612316,"list":13766,"gp_fte":4.7893333333,"rating":"Good","prev":{"asthma":5.754,"atrial_fibrillation":2.501,"copd":1.225,"coronary_heart_disease":2.763,"dementia":0.999,"depression":7.53,"diabetes":7.308,"hypertension":14.45,"obesity":9.313,"serious_mental_illness":0.481,"stroke_tia":1.546}},{"ods":"F81173","name":"DOUGLAS GROVE SURGERY","pcn":"U12553","lat":51.804868,"lng":0.627729,"list":6353,"gp_fte":2.0,"rating":"Good","prev":{"asthma":8.795,"atrial_fibrillation":1.359,"copd":2.208,"coronary_heart_disease":2.038,"dementia":0.401,"depression":20.846,"diabetes":10.228,"hypertension":14.145,"obesity":14.184,"serious_mental_illness":1.112,"stroke_tia":1.359}},{"ods":"F81176","name":"NORTH AVENUE SURGERY","pcn":"U17794","lat":51.549128,"lng":0.727639,"list":3274,"gp_fte":1.28,"rating":"Good","prev":{"asthma":6.694,"atrial_fibrillation":2.071,"copd":2.322,"coronary_heart_disease":2.165,"dementia":0.628,"depression":17.693,"diabetes":9.273,"hypertension":14.528,"obesity":17.0,"serious_mental_illness":1.506,"stroke_tia":1.632}},{"ods":"F81177","name":"NEERA MEDICAL CENTRE","pcn":"U98530","lat":51.518258,"lng":0.435505,"list":4317,"gp_fte":1.3066666667,"rating":"Good","prev":{"asthma":6.102,"atrial_fibrillation":2.351,"copd":1.357,"coronary_heart_disease":2.284,"dementia":0.746,"depression":13.436,"diabetes":8.24,"hypertension":17.635,"obesity":14.863,"serious_mental_illness":0.746,"stroke_tia":1.786}},{"ods":"F81183","name":"THE DENGIE MEDICAL PARTNERSHIP","pcn":"U09727","lat":51.690437,"lng":0.815403,"list":6006,"gp_fte":3.624,"rating":"Outstanding","prev":{"asthma":7.981,"atrial_fibrillation":3.31,"copd":2.149,"coronary_heart_disease":3.657,"dementia":1.317,"depression":9.168,"diabetes":10.971,"hypertension":23.224,"obesity":19.695,"serious_mental_illness":0.745,"stroke_tia":2.981}},{"ods":"F81186","name":"FELMORES MEDICAL CENTRE","pcn":"U15488","lat":51.576309,"lng":0.489799,"list":7095,"gp_fte":1.0,"rating":"Good","prev":{"asthma":5.994,"atrial_fibrillation":1.386,"copd":2.127,"coronary_heart_disease":1.973,"dementia":0.574,"depression":16.291,"diabetes":8.552,"hypertension":11.337,"obesity":13.048,"serious_mental_illness":1.106,"stroke_tia":1.679}},{"ods":"F81192","name":"STIFFORD CLAYS MEDICAL CENTRE","pcn":"U68127","lat":51.495831,"lng":0.328605,"list":10292,"gp_fte":4.72,"rating":"Good","prev":{"asthma":6.461,"atrial_fibrillation":2.711,"copd":2.429,"coronary_heart_disease":3.414,"dementia":0.839,"depression":15.329,"diabetes":8.752,"hypertension":20.14,"obesity":16.03,"serious_mental_illness":0.868,"stroke_tia":2.643}},{"ods":"F81193","name":"WITHAM HEALTH CENTRE","pcn":"U18990","lat":51.805133,"lng":0.634071,"list":7221,"gp_fte":1.9733333333,"rating":"Good","prev":{"asthma":7.015,"atrial_fibrillation":1.666,"copd":1.821,"coronary_heart_disease":2.357,"dementia":1.496,"depression":18.954,"diabetes":10.069,"hypertension":15.457,"obesity":11.823,"serious_mental_illness":0.861,"stroke_tia":1.793}},{"ods":"F81197","name":"SANCTA MARIA MEDICAL CENTRE","pcn":"U28765","lat":51.508816,"lng":0.286778,"list":2631,"gp_fte":0.6666666666,"rating":"Good","prev":{"asthma":4.177,"atrial_fibrillation":1.517,"copd":1.972,"coronary_heart_disease":2.199,"dementia":0.379,"depression":6.702,"diabetes":8.612,"hypertension":16.306,"obesity":11.51,"serious_mental_illness":0.758,"stroke_tia":1.138}},{"ods":"F81198","name":"HORNDON-ON-THE-HILL SURGERY","pcn":"U98530","lat":51.528473,"lng":0.391699,"list":2579,"gp_fte":0.9866666666,"rating":"Requires improvement","prev":{"asthma":5.129,"atrial_fibrillation":2.597,"copd":1.468,"coronary_heart_disease":3.124,"dementia":0.677,"depression":10.714,"diabetes":7.588,"hypertension":17.802,"obesity":14.24,"serious_mental_illness":0.376,"stroke_tia":2.333}},{"ods":"F81205","name":"GHAURI PRACTICE","pcn":"U84454","lat":51.524852,"lng":0.581893,"list":5747,"gp_fte":1.0666666667,"rating":"Good","prev":{"asthma":6.429,"atrial_fibrillation":2.85,"copd":3.257,"coronary_heart_disease":3.982,"dementia":0.814,"depression":7.132,"diabetes":11.837,"hypertension":19.611,"obesity":13.57,"serious_mental_illness":0.619,"stroke_tia":2.195}},{"ods":"F81206","name":"COMMONWEALTH HEALTH CENTRE","pcn":"U06243","lat":51.472165,"lng":0.366503,"list":5815,"gp_fte":3.5833333333,"rating":"Good","prev":{"asthma":5.719,"atrial_fibrillation":1.203,"copd":2.574,"coronary_heart_disease":2.357,"dementia":0.301,"depression":16.698,"diabetes":9.135,"hypertension":13.121,"obesity":13.373,"serious_mental_illness":1.12,"stroke_tia":1.387}},{"ods":"F81207","name":"WESTCLIFF MEDICAL CENTRE","pcn":"U02453","lat":51.548058,"lng":0.685418,"list":2731,"gp_fte":null,"rating":null,"prev":{"asthma":3.81,"atrial_fibrillation":1.081,"copd":1.39,"coronary_heart_disease":2.046,"dementia":0.154,"depression":8.153,"diabetes":5.996,"hypertension":11.158,"obesity":11.788,"serious_mental_illness":1.12,"stroke_tia":1.12}},{"ods":"F81211","name":"DR YADAVA N PRACTICE","pcn":"U68127","lat":51.482148,"lng":0.33817,"list":5186,"gp_fte":1.9200000001,"rating":"Good","prev":{"asthma":5.504,"atrial_fibrillation":1.654,"copd":1.808,"coronary_heart_disease":2.328,"dementia":0.366,"depression":13.571,"diabetes":7.977,"hypertension":12.832,"obesity":16.688,"serious_mental_illness":0.827,"stroke_tia":1.193}},{"ods":"F81215","name":"DEAL TREE HEALTH CENTRE","pcn":"U79723","lat":51.676404,"lng":0.291044,"list":10035,"gp_fte":4.1333333334,"rating":"Good","prev":{"asthma":5.94,"atrial_fibrillation":3.156,"copd":1.238,"coronary_heart_disease":3.217,"dementia":1.208,"depression":9.384,"diabetes":6.701,"hypertension":18.031,"obesity":9.459,"serious_mental_illness":0.72,"stroke_tia":2.151}},{"ods":"F81219","name":"DELL MEDICAL CENTRE","pcn":"U68127","lat":51.50004,"lng":0.381617,"list":5361,"gp_fte":2.7706666666,"rating":"Good","prev":{"asthma":5.748,"atrial_fibrillation":2.743,"copd":2.131,"coronary_heart_disease":2.965,"dementia":0.704,"depression":13.182,"diabetes":7.402,"hypertension":19.051,"obesity":14.186,"serious_mental_illness":0.76,"stroke_tia":2.446}},{"ods":"F81222","name":"QUEENS PARK SURGERY","pcn":"U91979","lat":51.635345,"lng":0.41564,"list":5040,"gp_fte":2.4933333333,"rating":"Good","prev":{"asthma":6.835,"atrial_fibrillation":2.236,"copd":1.412,"coronary_heart_disease":2.451,"dementia":0.431,"depression":10.195,"diabetes":5.791,"hypertension":16.493,"obesity":11.977,"serious_mental_illness":1.059,"stroke_tia":1.843}},{"ods":"F81223","name":"DR MALIK - KENT ELMS HC","pcn":"U17794","lat":51.5647,"lng":0.664076,"list":3276,"gp_fte":1.9333333333,"rating":"Good","prev":{"asthma":4.73,"atrial_fibrillation":2.597,"copd":2.108,"coronary_heart_disease":3.208,"dementia":0.764,"depression":9.852,"diabetes":9.439,"hypertension":18.148,"obesity":11.671,"serious_mental_illness":1.192,"stroke_tia":2.2}},{"ods":"F81613","name":"DR KUMAR & PTNR - SHOEBURY HC","pcn":"U04545","lat":51.538854,"lng":0.774525,"list":8801,"gp_fte":2.08,"rating":"Good","prev":{"asthma":7.413,"atrial_fibrillation":2.484,"copd":2.873,"coronary_heart_disease":3.4,"dementia":0.984,"depression":15.249,"diabetes":8.66,"hypertension":17.17,"obesity":12.669,"serious_mental_illness":1.397,"stroke_tia":2.175}},{"ods":"F81618","name":"HIGH ROAD FAMILY DOCTORS","pcn":"U27924","lat":51.558909,"lng":0.562119,"list":4567,"gp_fte":1.0,"rating":null,"prev":{"asthma":9.279,"atrial_fibrillation":2.202,"copd":2.638,"coronary_heart_disease":3.303,"dementia":1.33,"depression":14.066,"diabetes":8.104,"hypertension":16.514,"obesity":13.949,"serious_mental_illness":0.826,"stroke_tia":2.385}},{"ods":"F81623","name":"KADIM PRIMECARE MEDICAL CENTRE","pcn":"U68127","lat":51.487329,"lng":0.330591,"list":2242,"gp_fte":0.6666666666,"rating":"Good","prev":{"asthma":4.716,"atrial_fibrillation":1.909,"copd":1.535,"coronary_heart_disease":2.282,"dementia":0.581,"depression":5.873,"diabetes":8.773,"hypertension":17.759,"obesity":11.077,"serious_mental_illness":0.788,"stroke_tia":1.411}},{"ods":"F81632","name":"DR YASIN SA PRACTICE","pcn":"U28765","lat":51.50954,"lng":0.28424,"list":6137,"gp_fte":2.12,"rating":"Good","prev":{"asthma":6.39,"atrial_fibrillation":1.295,"copd":2.293,"coronary_heart_disease":1.75,"dementia":0.385,"depression":15.796,"diabetes":8.483,"hypertension":12.653,"obesity":13.729,"serious_mental_illness":0.77,"stroke_tia":1.505}},{"ods":"F81635","name":"COLLINGWOOD ROAD SURGERY","pcn":"U18990","lat":51.809671,"lng":0.633465,"list":2460,"gp_fte":0.6666666666,"rating":null,"prev":{"asthma":7.462,"atrial_fibrillation":1.512,"copd":1.357,"coronary_heart_disease":2.443,"dementia":0.504,"depression":10.863,"diabetes":8.722,"hypertension":14.618,"obesity":9.239,"serious_mental_illness":0.853,"stroke_tia":1.939}},{"ods":"F81640","name":"ARYAN MEDICAL CENTRE","pcn":"U15488","lat":51.576673,"lng":0.476252,"list":4419,"gp_fte":1.4933333332,"rating":null,"prev":{"asthma":7.371,"atrial_fibrillation":1.333,"copd":2.066,"coronary_heart_disease":2.421,"dementia":0.222,"depression":14.265,"diabetes":8.788,"hypertension":12.639,"obesity":16.618,"serious_mental_illness":1.399,"stroke_tia":1.51}},{"ods":"F81641","name":"MILTON ROAD AND THE GRAYS SURGERY","pcn":"U06243","lat":51.482334,"lng":0.324427,"list":7499,"gp_fte":1.9933333333,"rating":null,"prev":{"asthma":4.46,"atrial_fibrillation":1.426,"copd":1.308,"coronary_heart_disease":2.014,"dementia":1.465,"depression":7.332,"diabetes":7.282,"hypertension":13.824,"obesity":9.877,"serious_mental_illness":0.785,"stroke_tia":0.942}},{"ods":"F81645","name":"ROSE VILLA SURGERY","pcn":"U55146","lat":51.572307,"lng":0.503952,"list":4292,"gp_fte":1.7333333333,"rating":"Good","prev":{"asthma":6.928,"atrial_fibrillation":1.95,"copd":2.647,"coronary_heart_disease":2.902,"dementia":0.65,"depression":19.542,"diabetes":10.6,"hypertension":18.18,"obesity":18.412,"serious_mental_illness":1.486,"stroke_tia":2.09}},{"ods":"F81649","name":"SHOEBURY PRACTICE","pcn":"U04545","lat":51.537353,"lng":0.779981,"list":4543,"gp_fte":2.5333333333,"rating":"Good","prev":{"asthma":7.878,"atrial_fibrillation":2.796,"copd":2.534,"coronary_heart_disease":2.468,"dementia":0.983,"depression":9.8,"diabetes":8.791,"hypertension":15.509,"obesity":13.167,"serious_mental_illness":0.612,"stroke_tia":2.163}},{"ods":"F81652","name":"MEDIC HOUSE","pcn":"U06243","lat":51.48144,"lng":0.392919,"list":5433,"gp_fte":0.75,"rating":"Good","prev":{"asthma":7.02,"atrial_fibrillation":2.926,"copd":3.114,"coronary_heart_disease":3.489,"dementia":3.039,"depression":12.916,"diabetes":10.844,"hypertension":20.278,"obesity":15.338,"serious_mental_illness":0.9,"stroke_tia":2.814}},{"ods":"F81656","name":"WARRIOR SQUARE SURGERY","pcn":"U17794","lat":51.543382,"lng":0.719421,"list":2720,"gp_fte":1.4,"rating":"Good","prev":{"asthma":6.88,"atrial_fibrillation":2.016,"copd":3.218,"coronary_heart_disease":3.147,"dementia":1.096,"depression":20.7,"diabetes":9.027,"hypertension":17.539,"obesity":12.323,"serious_mental_illness":1.485,"stroke_tia":1.45}},{"ods":"F81665","name":"CHELMER VILLAGE SURGERY","pcn":"U48176","lat":51.738636,"lng":0.506828,"list":5136,"gp_fte":1.8,"rating":"Good","prev":{"asthma":6.728,"atrial_fibrillation":1.563,"copd":1.153,"coronary_heart_disease":2.423,"dementia":0.586,"depression":9.502,"diabetes":6.619,"hypertension":12.134,"obesity":10.21,"serious_mental_illness":0.879,"stroke_tia":1.329}},{"ods":"F81666","name":"DR SHARMA & PARTNERS","pcn":"U72156","lat":51.589927,"lng":0.435792,"list":3353,"gp_fte":1.9733333333,"rating":"Good","prev":{"asthma":6.441,"atrial_fibrillation":1.931,"copd":2.046,"coronary_heart_disease":2.536,"dementia":0.432,"depression":13.469,"diabetes":6.776,"hypertension":15.216,"obesity":9.52,"serious_mental_illness":1.326,"stroke_tia":1.931}},{"ods":"F81669","name":"DERRY COURT MEDICAL PRACTICE","pcn":"U28765","lat":51.511854,"lng":0.283825,"list":7030,"gp_fte":2.1333333334,"rating":"Good","prev":{"asthma":5.323,"atrial_fibrillation":0.976,"copd":2.077,"coronary_heart_disease":1.826,"dementia":0.195,"depression":13.504,"diabetes":6.717,"hypertension":11.136,"obesity":13.13,"serious_mental_illness":0.808,"stroke_tia":1.226}},{"ods":"F81674","name":"GREENWOOD AND WYNCROFT SURGERY","pcn":"U09727","lat":51.668908,"lng":0.605866,"list":11688,"gp_fte":1.5333333333,"rating":"Good","prev":{"asthma":6.778,"atrial_fibrillation":2.185,"copd":1.459,"coronary_heart_disease":2.689,"dementia":1.044,"depression":11.322,"diabetes":8.397,"hypertension":16.443,"obesity":9.235,"serious_mental_illness":0.601,"stroke_tia":1.548}},{"ods":"F81675","name":"THE PRACTICE LEECON WAY","pcn":"U49929","lat":51.593604,"lng":0.677562,"list":5817,"gp_fte":1.0266666667,"rating":"Good","prev":{"asthma":6.736,"atrial_fibrillation":1.793,"copd":1.721,"coronary_heart_disease":2.047,"dementia":0.67,"depression":11.093,"diabetes":6.632,"hypertension":14.42,"obesity":12.518,"serious_mental_illness":0.888,"stroke_tia":1.159}},{"ods":"F81683","name":"BLYTH'S MEADOW SURGERY","pcn":"U80679","lat":51.879447,"lng":0.561573,"list":11435,"gp_fte":3.04,"rating":"Good","prev":{"asthma":6.394,"atrial_fibrillation":1.536,"copd":1.479,"coronary_heart_disease":2.765,"dementia":0.807,"depression":8.449,"diabetes":8.295,"hypertension":12.847,"obesity":13.856,"serious_mental_illness":0.912,"stroke_tia":1.421}},{"ods":"F81690","name":"ASHINGDON MEDICAL CENTRE","pcn":"U49929","lat":51.600126,"lng":0.692184,"list":6188,"gp_fte":1.7333333333,"rating":"Good","prev":{"asthma":7.036,"atrial_fibrillation":2.467,"copd":2.571,"coronary_heart_disease":3.284,"dementia":0.643,"depression":15.957,"diabetes":7.696,"hypertension":18.103,"obesity":10.659,"serious_mental_illness":0.73,"stroke_tia":2.137}},{"ods":"F81696","name":"THE LEIGH SURGERY","pcn":"U97460","lat":51.555483,"lng":0.657334,"list":2812,"gp_fte":0.5333333333,"rating":"Good","prev":{"asthma":6.824,"atrial_fibrillation":2.099,"copd":2.062,"coronary_heart_disease":2.614,"dementia":0.994,"depression":9.923,"diabetes":8.453,"hypertension":16.016,"obesity":8.564,"serious_mental_illness":0.884,"stroke_tia":1.73}},{"ods":"F81697","name":"DR DEVARAJA VC PRACTICE","pcn":"U98530","lat":51.524775,"lng":0.44141,"list":2812,"gp_fte":1.0,"rating":"Good","prev":{"asthma":6.31,"atrial_fibrillation":2.5,"copd":2.635,"coronary_heart_disease":2.804,"dementia":0.608,"depression":19.077,"diabetes":8.966,"hypertension":19.122,"obesity":23.115,"serious_mental_illness":0.574,"stroke_tia":2.432}},{"ods":"F81700","name":"CANVEY VILLAGE SURGERY","pcn":"U84454","lat":51.527083,"lng":0.582274,"list":3851,"gp_fte":1.2266666667,"rating":"Requires improvement","prev":{"asthma":5.625,"atrial_fibrillation":2.45,"copd":2.728,"coronary_heart_disease":3.764,"dementia":0.96,"depression":10.727,"diabetes":9.655,"hypertension":19.727,"obesity":8.575,"serious_mental_illness":0.606,"stroke_tia":1.743}},{"ods":"F81704","name":"DOWNHALL PARK SURGERY","pcn":"U30335","lat":51.601943,"lng":0.596731,"list":3895,"gp_fte":1.0666666667,"rating":"Good","prev":{"asthma":5.042,"atrial_fibrillation":1.673,"copd":0.913,"coronary_heart_disease":2.155,"dementia":0.304,"depression":14.198,"diabetes":6.137,"hypertension":11.105,"obesity":3.775,"serious_mental_illness":0.583,"stroke_tia":1.192}},{"ods":"F81707","name":"FRYERNS MEDICAL CENTRE","pcn":"U55146","lat":51.577304,"lng":0.482395,"list":5959,"gp_fte":1.76,"rating":"Good","prev":{"asthma":4.554,"atrial_fibrillation":0.781,"copd":1.225,"coronary_heart_disease":1.473,"dementia":0.284,"depression":17.717,"diabetes":6.873,"hypertension":9.569,"obesity":13.845,"serious_mental_illness":1.136,"stroke_tia":0.941}},{"ods":"F81708","name":"SAI MEDICAL CENTRE","pcn":"U06243","lat":51.490428,"lng":0.394235,"list":11692,"gp_fte":2.1866666667,"rating":"Good","prev":{"asthma":4.792,"atrial_fibrillation":1.314,"copd":1.483,"coronary_heart_disease":1.949,"dementia":0.229,"depression":11.421,"diabetes":7.542,"hypertension":14.288,"obesity":12.708,"serious_mental_illness":0.441,"stroke_tia":1.28}},{"ods":"F81711","name":"KNIGHTS SURGERY","pcn":"U55146","lat":51.577226,"lng":0.444765,"list":3559,"gp_fte":1.6266666667,"rating":"Good","prev":{"asthma":5.341,"atrial_fibrillation":1.354,"copd":1.492,"coronary_heart_disease":2.128,"dementia":0.304,"depression":15.054,"diabetes":7.873,"hypertension":11.688,"obesity":12.635,"serious_mental_illness":0.884,"stroke_tia":1.409}},{"ods":"F81713","name":"BENFLEET SURGERY","pcn":"U27924","lat":51.559059,"lng":0.56299,"list":2508,"gp_fte":1.56,"rating":"Good","prev":{"asthma":4.125,"atrial_fibrillation":1.801,"copd":1.725,"coronary_heart_disease":2.3,"dementia":1.495,"depression":6.865,"diabetes":5.639,"hypertension":17.976,"obesity":11.456,"serious_mental_illness":0.345,"stroke_tia":1.456}},{"ods":"F81729","name":"MATCHING GREEN SURGERY","pcn":"U15488","lat":51.580599,"lng":0.480621,"list":3486,"gp_fte":0.6666666667,"rating":"Good","prev":{"asthma":6.106,"atrial_fibrillation":1.489,"copd":1.77,"coronary_heart_disease":1.686,"dementia":0.309,"depression":11.512,"diabetes":8.192,"hypertension":14.583,"obesity":17.874,"serious_mental_illness":0.618,"stroke_tia":1.658}},{"ods":"F81730","name":"THE COGGESHALL SURGERY","pcn":"U84465","lat":51.873041,"lng":0.696685,"list":7251,"gp_fte":2.4,"rating":"Outstanding","prev":{"asthma":7.162,"atrial_fibrillation":3.218,"copd":1.853,"coronary_heart_disease":4.066,"dementia":0.647,"depression":14.7,"diabetes":7.628,"hypertension":16.049,"obesity":10.437,"serious_mental_illness":0.733,"stroke_tia":2.241}},{"ods":"F81732","name":"SWANWOOD PARTNERSHIP","pcn":"U92558","lat":51.615978,"lng":0.522654,"list":6761,"gp_fte":3.2000000001,"rating":"Good","prev":{"asthma":6.484,"atrial_fibrillation":2.121,"copd":1.976,"coronary_heart_disease":3.015,"dementia":0.779,"depression":11.749,"diabetes":8.264,"hypertension":18.407,"obesity":11.2,"serious_mental_illness":0.995,"stroke_tia":2.236}},{"ods":"F81737","name":"THE HIGHWOOD SURGERY","pcn":"U79723","lat":51.630174,"lng":0.303816,"list":3310,"gp_fte":0.2666666667,"rating":"Requires improvement","prev":{"asthma":4.869,"atrial_fibrillation":1.323,"copd":0.893,"coronary_heart_disease":2.149,"dementia":0.397,"depression":4.569,"diabetes":5.586,"hypertension":11.276,"obesity":8.454,"serious_mental_illness":0.529,"stroke_tia":0.761}},{"ods":"F81739","name":"THE ISLAND SURGERY","pcn":"U84454","lat":51.523166,"lng":0.593328,"list":6709,"gp_fte":1.0,"rating":"Good","prev":{"asthma":9.097,"atrial_fibrillation":3.607,"copd":3.798,"coronary_heart_disease":4.284,"dementia":1.531,"depression":14.293,"diabetes":11.415,"hypertension":26.174,"obesity":16.152,"serious_mental_illness":0.957,"stroke_tia":2.267}},{"ods":"F81740","name":"THE COMMUNITY PRACTICE","pcn":"U84454","lat":51.522766,"lng":0.590912,"list":6513,"gp_fte":1.0,"rating":"Good","prev":{"asthma":5.999,"atrial_fibrillation":3.887,"copd":3.226,"coronary_heart_disease":4.548,"dementia":1.26,"depression":9.706,"diabetes":10.005,"hypertension":23.967,"obesity":10.892,"serious_mental_illness":0.784,"stroke_tia":2.873}},{"ods":"F81744","name":"SCOTT PARK SURGERY","pcn":"U02453","lat":51.57023,"lng":0.663286,"list":2681,"gp_fte":1.6533333333,"rating":"Good","prev":{"asthma":7.303,"atrial_fibrillation":2.887,"copd":1.925,"coronary_heart_disease":2.924,"dementia":0.74,"depression":13.756,"diabetes":8.419,"hypertension":16.987,"obesity":16.968,"serious_mental_illness":0.851,"stroke_tia":2.554}},{"ods":"F81751","name":"THE TRINITY MEDICAL PRACTICE","pcn":"U09727","lat":51.681441,"lng":0.769018,"list":4312,"gp_fte":1.3333333333,"rating":"Outstanding","prev":{"asthma":8.393,"atrial_fibrillation":2.356,"copd":2.039,"coronary_heart_disease":3.42,"dementia":0.725,"depression":21.589,"diabetes":8.599,"hypertension":16.535,"obesity":10.678,"serious_mental_illness":1.246,"stroke_tia":1.993}},{"ods":"Y00033","name":"PURFLEET CARE CENTRE","pcn":"U28765","lat":51.486355,"lng":0.245631,"list":7095,"gp_fte":2.6666666666,"rating":"Good","prev":{"asthma":4.278,"atrial_fibrillation":0.634,"copd":1.209,"coronary_heart_disease":1.135,"dementia":0.177,"depression":8.626,"diabetes":7.264,"hypertension":9.506,"obesity":11.267,"serious_mental_illness":0.722,"stroke_tia":0.781}},{"ods":"Y00293","name":"HEDINGHAM MEDICAL CENTRE","pcn":"U84465","lat":51.987676,"lng":0.579109,"list":9418,"gp_fte":3.8,"rating":"Good","prev":{"asthma":7.69,"atrial_fibrillation":2.85,"copd":1.729,"coronary_heart_disease":3.416,"dementia":0.747,"depression":14.726,"diabetes":8.224,"hypertension":16.982,"obesity":11.315,"serious_mental_illness":0.619,"stroke_tia":1.996}},{"ods":"Y00469","name":"DR SIMS AND PARTNERS","pcn":"U15488","lat":51.572211,"lng":0.497697,"list":11948,"gp_fte":4.0933333333,"rating":"Good","prev":{"asthma":8.322,"atrial_fibrillation":2.396,"copd":3.489,"coronary_heart_disease":3.539,"dementia":0.639,"depression":19.92,"diabetes":10.592,"hypertension":17.023,"obesity":16.122,"serious_mental_illness":1.555,"stroke_tia":2.539}},{"ods":"Y00758","name":"DR JO ARAYOMI'S PRACTICE","pcn":"U55146","lat":51.570405,"lng":0.489399,"list":2504,"gp_fte":1.1333333333,"rating":"Good","prev":{"asthma":4.508,"atrial_fibrillation":0.967,"copd":1.469,"coronary_heart_disease":1.779,"dementia":0.348,"depression":13.869,"diabetes":8.9,"hypertension":12.065,"obesity":13.66,"serious_mental_illness":1.005,"stroke_tia":1.044}},{"ods":"Y00999","name":"ODDFELLOWS HALL & ST CLEMENTS","pcn":"U06243","lat":51.481757,"lng":0.308551,"list":11572,"gp_fte":3.1499999999,"rating":"Good","prev":{"asthma":5.083,"atrial_fibrillation":0.947,"copd":1.645,"coronary_heart_disease":1.438,"dementia":0.172,"depression":9.901,"diabetes":7.413,"hypertension":12.244,"obesity":12.96,"serious_mental_illness":0.784,"stroke_tia":0.852}},{"ods":"Y02177","name":"THE PRACTICE NORTHUMBERLAND AVENUE","pcn":"U17794","lat":51.540944,"lng":0.724493,"list":6858,"gp_fte":2.0,"rating":"Good","prev":{"asthma":6.307,"atrial_fibrillation":1.235,"copd":2.543,"coronary_heart_disease":2.058,"dementia":0.897,"depression":15.027,"diabetes":6.698,"hypertension":11.949,"obesity":12.481,"serious_mental_illness":1.661,"stroke_tia":1.367}},{"ods":"Y02611","name":"NORTH CHELMSFORD NHS HCC","pcn":"U48176","lat":51.753627,"lng":0.494739,"list":18541,"gp_fte":2.7266666667,"rating":"Good","prev":{"asthma":5.192,"atrial_fibrillation":0.85,"copd":0.478,"coronary_heart_disease":1.011,"dementia":0.633,"depression":9.88,"diabetes":5.834,"hypertension":6.999,"obesity":8.596,"serious_mental_illness":0.583,"stroke_tia":0.788}},{"ods":"Y02707","name":"ST LUKE'S HEALTH CENTRE","pcn":"U17794","lat":51.548512,"lng":0.727181,"list":7145,"gp_fte":1.8933333333,"rating":"Good","prev":{"asthma":7.691,"atrial_fibrillation":1.72,"copd":3.161,"coronary_heart_disease":2.191,"dementia":1.206,"depression":13.864,"diabetes":8.625,"hypertension":13.687,"obesity":15.29,"serious_mental_illness":1.558,"stroke_tia":1.867}},{"ods":"Y02807","name":"THURROCK HEALTH CENTRE","pcn":"U06243","lat":51.483885,"lng":0.319515,"list":12995,"gp_fte":2.4633333333,"rating":"Good","prev":{"asthma":3.93,"atrial_fibrillation":0.302,"copd":0.62,"coronary_heart_disease":0.783,"dementia":0.155,"depression":6.173,"diabetes":6.019,"hypertension":7.771,"obesity":9.84,"serious_mental_illness":0.922,"stroke_tia":0.659}},{"ods":"Y03052","name":"DR SALAKO AND PARTNERS","pcn":"U55146","lat":51.566497,"lng":0.43757,"list":14916,"gp_fte":4.5866666667,"rating":"Good","prev":{"asthma":7.528,"atrial_fibrillation":1.817,"copd":1.858,"coronary_heart_disease":2.353,"dementia":0.692,"depression":19.127,"diabetes":7.898,"hypertension":15.522,"obesity":12.867,"serious_mental_illness":1.031,"stroke_tia":1.546}},{"ods":"Y05023","name":"SILVER END SURGERY","pcn":"Unaligned","lat":51.853989,"lng":0.626152,"list":5054,"gp_fte":1.2445333333,"rating":"Good","prev":{"asthma":6.551,"atrial_fibrillation":1.538,"copd":1.857,"coronary_heart_disease":2.317,"dementia":1.218,"depression":12.164,"diabetes":8.966,"hypertension":13.122,"obesity":11.751,"serious_mental_illness":0.719,"stroke_tia":1.498}},{"ods":"Y06389","name":"SAS MID AND SOUTH ESSEX STP","pcn":"","lat":51.932807,"lng":0.411331,"list":1222,"gp_fte":null,"rating":null,"prev":{}}]