[{"ods":"A82003","name":"ULVERSTON MEDICAL PRACTICE","pcn":"U25520","lat":54.185508,"lng":-3.09803,"list":11913,"gp_fte":7.1333333334,"rating":"Good","prev":{"asthma":8.296,"atrial_fibrillation":3.478,"copd":1.973,"coronary_heart_disease":4.206,"dementia":1.054,"depression":14.956,"diabetes":7.829,"hypertension":17.985,"obesity":11.42,"serious_mental_illness":0.895,"stroke_tia":2.458}},{"ods":"A82005","name":"AMBLESIDE HEALTH CENTRE","pcn":"U59570","lat":54.40314,"lng":-2.980663,"list":5691,"gp_fte":3.4613333335,"rating":"Good","prev":{"asthma":7.511,"atrial_fibrillation":2.576,"copd":1.245,"coronary_heart_disease":3.275,"dementia":0.58,"depression":14.849,"diabetes":5.118,"hypertension":18.236,"obesity":10.506,"serious_mental_illness":0.614,"stroke_tia":2.439}},{"ods":"A82007","name":"DUKE STREET SURGERY","pcn":"U17992","lat":54.116928,"lng":-3.214441,"list":11470,"gp_fte":4.4000000001,"rating":"Good","prev":{"asthma":10.449,"atrial_fibrillation":2.618,"copd":3.091,"coronary_heart_disease":4.081,"dementia":0.771,"depression":15.902,"diabetes":8.545,"hypertension":15.902,"obesity":17.995,"serious_mental_illness":1.217,"stroke_tia":2.391}},{"ods":"A82008","name":"NORWOOD MEDICAL CENTRE","pcn":"U17992","lat":54.120338,"lng":-3.215225,"list":12016,"gp_fte":7.8133333335,"rating":"Outstanding","prev":{"asthma":7.558,"atrial_fibrillation":2.881,"copd":2.283,"coronary_heart_disease":3.512,"dementia":1.129,"depression":11.325,"diabetes":8.444,"hypertension":14.697,"obesity":10.938,"serious_mental_illness":1.129,"stroke_tia":2.458}},{"ods":"A82009","name":"BRIDGEGATE MEDICAL CENTRE","pcn":"U17992","lat":54.119128,"lng":-3.207632,"list":9134,"gp_fte":5.92,"rating":"Good","prev":{"asthma":7.157,"atrial_fibrillation":2.546,"copd":2.882,"coronary_heart_disease":4.008,"dementia":1.148,"depression":14.022,"diabetes":8.981,"hypertension":16.802,"obesity":14.723,"serious_mental_illness":0.932,"stroke_tia":2.177}},{"ods":"A82010","name":"ABBEY ROAD SURGERY","pcn":"U17992","lat":54.123927,"lng":-3.213348,"list":6696,"gp_fte":4.2666666667,"rating":"Good","prev":{"asthma":8.489,"atrial_fibrillation":2.885,"copd":2.293,"coronary_heart_disease":4.068,"dementia":0.947,"depression":19.699,"diabetes":8.845,"hypertension":19.009,"obesity":15.616,"serious_mental_illness":1.109,"stroke_tia":2.382}},{"ods":"A82025","name":"CAPTAIN FRENCH SURGERY","pcn":"U35939","lat":54.317604,"lng":-2.745187,"list":11827,"gp_fte":6.0618666668,"rating":"Good","prev":{"asthma":7.819,"atrial_fibrillation":2.775,"copd":1.414,"coronary_heart_disease":3.068,"dementia":1.052,"depression":14.375,"diabetes":7.049,"hypertension":14.937,"obesity":11.925,"serious_mental_illness":0.896,"stroke_tia":2.37}},{"ods":"A82026","name":"THE JAMES COCHRANE PRACT.","pcn":"U35939","lat":54.314148,"lng":-2.738017,"list":17128,"gp_fte":9.0426666667,"rating":"Good","prev":{"asthma":6.738,"atrial_fibrillation":3.176,"copd":1.805,"coronary_heart_disease":3.576,"dementia":1.198,"depression":13.214,"diabetes":6.627,"hypertension":16.559,"obesity":13.667,"serious_mental_illness":0.879,"stroke_tia":2.916}},{"ods":"A82027","name":"STATION HOUSE SURGERY","pcn":"U35939","lat":54.323724,"lng":-2.73838,"list":10013,"gp_fte":4.432,"rating":"Good","prev":{"asthma":7.659,"atrial_fibrillation":3.549,"copd":2.319,"coronary_heart_disease":3.799,"dementia":1.54,"depression":14.504,"diabetes":7.627,"hypertension":19.574,"obesity":11.674,"serious_mental_illness":1.02,"stroke_tia":3.099}},{"ods":"A82030","name":"LUNESDALE SURGERY","pcn":"U59980","lat":54.176411,"lng":-2.591274,"list":6510,"gp_fte":3.36,"rating":"Good","prev":{"asthma":8.136,"atrial_fibrillation":4.132,"copd":1.25,"coronary_heart_disease":4.04,"dementia":1.25,"depression":11.248,"diabetes":5.23,"hypertension":18.6,"obesity":10.033,"serious_mental_illness":0.793,"stroke_tia":3.049}},{"ods":"A82033","name":"WATERLOO HOUSE SURGERY","pcn":"U16644","lat":54.215704,"lng":-3.271071,"list":7896,"gp_fte":4.5333333334,"rating":null,"prev":{"asthma":8.91,"atrial_fibrillation":3.04,"copd":2.8,"coronary_heart_disease":5.108,"dementia":1.085,"depression":16.13,"diabetes":10.066,"hypertension":18.479,"obesity":12.082,"serious_mental_illness":1.236,"stroke_tia":3.015}},{"ods":"A82039","name":"DALTON SURGERY","pcn":"U25520","lat":54.155779,"lng":-3.175643,"list":8756,"gp_fte":3.9533333334,"rating":"Good","prev":{"asthma":8.659,"atrial_fibrillation":3.04,"copd":1.838,"coronary_heart_disease":3.925,"dementia":1.316,"depression":15.411,"diabetes":7.699,"hypertension":17.911,"obesity":14.667,"serious_mental_illness":0.964,"stroke_tia":2.45}},{"ods":"A82046","name":"WINDERMERE HEALTH CENTRE","pcn":"U59570","lat":54.358911,"lng":-2.8951,"list":4669,"gp_fte":2.9600000001,"rating":"Good","prev":{"asthma":6.024,"atrial_fibrillation":2.375,"copd":1.466,"coronary_heart_disease":2.85,"dementia":0.537,"depression":11.844,"diabetes":5.398,"hypertension":14.56,"obesity":11.251,"serious_mental_illness":0.805,"stroke_tia":2.21}},{"ods":"A82053","name":"NUTWOOD MEDICAL PRACTICE","pcn":"U59570","lat":54.204802,"lng":-2.923724,"list":7448,"gp_fte":5.7945085365,"rating":"Outstanding","prev":{"asthma":8.212,"atrial_fibrillation":4.95,"copd":2.154,"coronary_heart_disease":5.178,"dementia":1.552,"depression":16.179,"diabetes":6.864,"hypertension":23.963,"obesity":12.29,"serious_mental_illness":1.003,"stroke_tia":3.96}},{"ods":"A82062","name":"ATKINSON HEALTH CENTRE","pcn":"U17992","lat":54.117308,"lng":-3.217649,"list":6498,"gp_fte":2.88,"rating":"Good","prev":{"asthma":8.288,"atrial_fibrillation":2.828,"copd":3.254,"coronary_heart_disease":4.044,"dementia":1.043,"depression":24.907,"diabetes":8.652,"hypertension":17.867,"obesity":19.383,"serious_mental_illness":1.232,"stroke_tia":2.022}},{"ods":"A82068","name":"ULVERSTON COMMUNITY HEALTH CENTRE","pcn":"U25520","lat":54.182566,"lng":-3.105832,"list":4754,"gp_fte":2.5066666666,"rating":"Good","prev":{"asthma":8.192,"atrial_fibrillation":2.659,"copd":1.766,"coronary_heart_disease":3.744,"dementia":0.851,"depression":20.967,"diabetes":6.705,"hypertension":19.187,"obesity":12.417,"serious_mental_illness":1.0,"stroke_tia":2.042}},{"ods":"A82070","name":"ST. MARY'S SURGERY","pcn":"U59570","lat":54.367674,"lng":-2.874395,"list":6626,"gp_fte":4.4266666667,"rating":"Good","prev":{"asthma":8.061,"atrial_fibrillation":3.835,"copd":1.083,"coronary_heart_disease":3.67,"dementia":0.993,"depression":11.826,"diabetes":5.952,"hypertension":18.334,"obesity":11.009,"serious_mental_illness":0.902,"stroke_tia":3.324}},{"ods":"A82071","name":"BURNETT EDGAR MEDICAL CTR","pcn":"U17992","lat":54.109914,"lng":-3.234676,"list":4139,"gp_fte":1.2,"rating":"Good","prev":{"asthma":7.872,"atrial_fibrillation":2.82,"copd":3.061,"coronary_heart_disease":3.784,"dementia":0.892,"depression":9.529,"diabetes":7.893,"hypertension":17.161,"obesity":14.839,"serious_mental_illness":1.036,"stroke_tia":2.386}},{"ods":"A82072","name":"RISEDALE SURGERY","pcn":"U17992","lat":54.118414,"lng":-3.21148,"list":7318,"gp_fte":1.1733333333,"rating":"Good","prev":{"asthma":8.249,"atrial_fibrillation":2.913,"copd":2.791,"coronary_heart_disease":3.672,"dementia":0.921,"depression":19.068,"diabetes":9.064,"hypertension":17.683,"obesity":21.106,"serious_mental_illness":1.409,"stroke_tia":2.466}},{"ods":"A82608","name":"SEDBERGH MEDICAL PRACTICE","pcn":"U59980","lat":54.314124,"lng":-2.49769,"list":4657,"gp_fte":3.7333333334,"rating":"Good","prev":{"asthma":7.233,"atrial_fibrillation":2.842,"copd":1.539,"coronary_heart_disease":2.501,"dementia":0.727,"depression":13.041,"diabetes":5.156,"hypertension":13.956,"obesity":10.108,"serious_mental_illness":0.577,"stroke_tia":2.137}},{"ods":"A82613","name":"WRAYSDALE HOUSE SURGERY","pcn":"U59570","lat":54.273916,"lng":-3.060057,"list":1004,"gp_fte":1.4133333334,"rating":null,"prev":{"asthma":6.601,"atrial_fibrillation":3.383,"copd":0.752,"coronary_heart_disease":4.793,"dementia":0.564,"depression":9.221,"diabetes":6.291,"hypertension":13.816,"obesity":8.233,"serious_mental_illness":0.376,"stroke_tia":1.88}},{"ods":"A82629","name":"THE FAMILY PRACTICE","pcn":"U17992","lat":54.1181,"lng":-3.211886,"list":2917,"gp_fte":2.68,"rating":"Good","prev":{"asthma":6.653,"atrial_fibrillation":2.611,"copd":4.08,"coronary_heart_disease":3.688,"dementia":0.946,"depression":13.241,"diabetes":7.779,"hypertension":14.132,"obesity":10.256,"serious_mental_illness":1.24,"stroke_tia":1.697}},{"ods":"A82647","name":"CARTMEL SURGERY","pcn":"U59570","lat":54.209255,"lng":-2.934267,"list":3325,"gp_fte":2.4133333334,"rating":"Outstanding","prev":{"asthma":9.233,"atrial_fibrillation":3.9,"copd":1.597,"coronary_heart_disease":5.16,"dementia":1.812,"depression":14.57,"diabetes":6.451,"hypertension":23.986,"obesity":12.718,"serious_mental_illness":0.399,"stroke_tia":3.378}},{"ods":"A82650","name":"HAVERTHWAITE SURGERY","pcn":"U59570","lat":54.24709,"lng":-3.023326,"list":3008,"gp_fte":1.9333333333,"rating":"Good","prev":{"asthma":7.335,"atrial_fibrillation":4.174,"copd":1.061,"coronary_heart_disease":3.661,"dementia":1.163,"depression":11.665,"diabetes":6.776,"hypertension":18.2,"obesity":12.687,"serious_mental_illness":0.616,"stroke_tia":2.703}},{"ods":"A82651","name":"DUDDON VALLEY MEDICAL PRACTICE","pcn":"U25520","lat":54.232589,"lng":-3.183057,"list":5007,"gp_fte":2.6733333333,"rating":"Good","prev":{"asthma":7.493,"atrial_fibrillation":3.725,"copd":1.59,"coronary_heart_disease":3.604,"dementia":1.067,"depression":13.516,"diabetes":7.136,"hypertension":18.261,"obesity":16.257,"serious_mental_illness":1.087,"stroke_tia":2.758}},{"ods":"B82061","name":"BENTHAM MEDICAL PRACTICE","pcn":"U59980","lat":54.135098,"lng":-2.480847,"list":7432,"gp_fte":5.5733333333,"rating":"Good","prev":{"asthma":9.419,"atrial_fibrillation":3.969,"copd":2.186,"coronary_heart_disease":4.706,"dementia":1.019,"depression":11.299,"diabetes":8.033,"hypertension":19.952,"obesity":14.265,"serious_mental_illness":0.791,"stroke_tia":3.473}},{"ods":"P81002","name":"LANCASTER MEDICAL PRACTICE","pcn":"U19808","lat":54.024974,"lng":-2.770218,"list":63929,"gp_fte":27.4861333335,"rating":"Outstanding","prev":{"asthma":5.918,"atrial_fibrillation":1.785,"copd":1.729,"coronary_heart_disease":2.443,"dementia":0.619,"depression":16.199,"diabetes":5.397,"hypertension":11.493,"obesity":10.222,"serious_mental_illness":0.993,"stroke_tia":1.616}},{"ods":"P81003","name":"ST JAMES' MEDICAL CENTRE","pcn":"U31504","lat":53.706806,"lng":-2.289022,"list":8362,"gp_fte":6.0125333334,"rating":"Good","prev":{"asthma":7.771,"atrial_fibrillation":3.308,"copd":2.059,"coronary_heart_disease":4.06,"dementia":0.902,"depression":10.083,"diabetes":7.936,"hypertension":21.027,"obesity":17.031,"serious_mental_illness":0.902,"stroke_tia":2.73}},{"ods":"P81005","name":"LITTLE HARWOOD HEALTH CENTRE","pcn":"U34816","lat":53.757008,"lng":-2.472804,"list":12290,"gp_fte":4.0333333333,"rating":"Good","prev":{"asthma":7.804,"atrial_fibrillation":2.036,"copd":2.052,"coronary_heart_disease":3.908,"dementia":0.613,"depression":14.624,"diabetes":11.743,"hypertension":16.295,"obesity":18.659,"serious_mental_illness":1.463,"stroke_tia":1.946}},{"ods":"P81006","name":"GARSTANG MEDICAL PRACTICE","pcn":"U42699","lat":53.897058,"lng":-2.762336,"list":20601,"gp_fte":11.1333333333,"rating":"Good","prev":{"asthma":7.719,"atrial_fibrillation":4.024,"copd":1.806,"coronary_heart_disease":4.102,"dementia":1.317,"depression":15.538,"diabetes":8.056,"hypertension":19.738,"obesity":14.118,"serious_mental_illness":0.843,"stroke_tia":3.182}},{"ods":"P81008","name":"YORKSHIRE STREET MEDICAL CENTRE","pcn":"U31823","lat":53.789608,"lng":-2.234794,"list":7291,"gp_fte":5.1466666667,"rating":"Good","prev":{"asthma":8.593,"atrial_fibrillation":2.672,"copd":3.471,"coronary_heart_disease":3.829,"dementia":0.496,"depression":15.809,"diabetes":8.801,"hypertension":17.466,"obesity":16.661,"serious_mental_illness":1.157,"stroke_tia":2.039}},{"ods":"P81010","name":"WITHNELL HEALTH CENTRE","pcn":"U57096","lat":53.683688,"lng":-2.5706,"list":5625,"gp_fte":2.496,"rating":"Good","prev":{"asthma":8.966,"atrial_fibrillation":2.723,"copd":1.541,"coronary_heart_disease":3.225,"dementia":0.484,"depression":16.761,"diabetes":5.313,"hypertension":18.112,"obesity":14.065,"serious_mental_illness":0.555,"stroke_tia":1.738}},{"ods":"P81013","name":"QUEEN SQUARE MEDICAL PRACTICE","pcn":"U19808","lat":54.048576,"lng":-2.779159,"list":15683,"gp_fte":8.4266666668,"rating":"Good","prev":{"asthma":7.205,"atrial_fibrillation":2.398,"copd":2.197,"coronary_heart_disease":3.318,"dementia":0.944,"depression":16.64,"diabetes":6.856,"hypertension":14.265,"obesity":12.301,"serious_mental_illness":1.291,"stroke_tia":2.26}},{"ods":"P81014","name":"ORMSKIRK MEDICAL PRACTICE","pcn":"U21757","lat":53.570747,"lng":-2.889813,"list":9758,"gp_fte":4.5333333333,"rating":"Good","prev":{"asthma":7.02,"atrial_fibrillation":2.888,"copd":1.496,"coronary_heart_disease":3.992,"dementia":1.847,"depression":16.845,"diabetes":5.898,"hypertension":18.135,"obesity":12.468,"serious_mental_illness":0.805,"stroke_tia":2.527}},{"ods":"P81015","name":"LYTHAM ROAD SURGERY","pcn":"U92975","lat":53.788981,"lng":-2.716613,"list":13690,"gp_fte":6.728,"rating":"Requires improvement","prev":{"asthma":7.428,"atrial_fibrillation":2.741,"copd":1.775,"coronary_heart_disease":3.558,"dementia":1.798,"depression":17.838,"diabetes":7.104,"hypertension":19.392,"obesity":14.679,"serious_mental_illness":1.191,"stroke_tia":2.292}},{"ods":"P81016","name":"WATERLOO MEDICAL CENTRE","pcn":"U64436","lat":53.802838,"lng":-3.031079,"list":12465,"gp_fte":5.1199999999,"rating":"Good","prev":{"asthma":7.578,"atrial_fibrillation":2.106,"copd":3.881,"coronary_heart_disease":3.905,"dementia":0.662,"depression":21.439,"diabetes":9.718,"hypertension":16.388,"obesity":17.861,"serious_mental_illness":2.025,"stroke_tia":2.356}},{"ods":"P81017","name":"WHALLEY MEDICAL CENTRE","pcn":"U11269","lat":53.82597,"lng":-2.402271,"list":14896,"gp_fte":7.8506666668,"rating":"Good","prev":{"asthma":7.239,"atrial_fibrillation":3.177,"copd":1.457,"coronary_heart_disease":3.264,"dementia":0.83,"depression":12.775,"diabetes":5.979,"hypertension":18.419,"obesity":12.979,"serious_mental_illness":1.039,"stroke_tia":2.118}},{"ods":"P81018","name":"ST FILLAN'S MEDICAL CTRE","pcn":"U49070","lat":53.742194,"lng":-2.729902,"list":7964,"gp_fte":4.2442666667,"rating":"Good","prev":{"asthma":8.322,"atrial_fibrillation":2.933,"copd":1.583,"coronary_heart_disease":3.583,"dementia":1.092,"depression":16.408,"diabetes":6.047,"hypertension":17.241,"obesity":12.858,"serious_mental_illness":0.773,"stroke_tia":2.675}},{"ods":"P81020","name":"BURNLEY GROUP PRACTICE","pcn":"U69695","lat":53.789405,"lng":-2.255504,"list":24756,"gp_fte":8.8616000002,"rating":"Requires improvement","prev":{"asthma":7.106,"atrial_fibrillation":2.12,"copd":2.89,"coronary_heart_disease":3.575,"dementia":0.717,"depression":22.405,"diabetes":8.389,"hypertension":16.213,"obesity":14.973,"serious_mental_illness":1.236,"stroke_tia":2.128}},{"ods":"P81022","name":"WITTON MEDICAL CENTRE","pcn":"U34816","lat":53.735067,"lng":-2.501202,"list":11299,"gp_fte":4.0533333334,"rating":"Good","prev":{"asthma":6.927,"atrial_fibrillation":2.21,"copd":2.054,"coronary_heart_disease":3.509,"dementia":0.866,"depression":11.648,"diabetes":8.303,"hypertension":14.8,"obesity":11.984,"serious_mental_illness":1.253,"stroke_tia":2.422}},{"ods":"P81025","name":"THE RICHMOND HILL PRACTICE","pcn":"U21400","lat":53.856582,"lng":-2.174998,"list":12815,"gp_fte":4.36,"rating":"Good","prev":{"asthma":8.11,"atrial_fibrillation":2.428,"copd":3.219,"coronary_heart_disease":4.003,"dementia":0.854,"depression":20.992,"diabetes":8.544,"hypertension":14.844,"obesity":12.641,"serious_mental_illness":1.598,"stroke_tia":1.927}},{"ods":"P81027","name":"IRWELL MEDICAL PRACTICE","pcn":"U81405","lat":53.697195,"lng":-2.201163,"list":15330,"gp_fte":10.9733333335,"rating":"Outstanding","prev":{"asthma":9.058,"atrial_fibrillation":2.382,"copd":3.327,"coronary_heart_disease":3.583,"dementia":0.827,"depression":24.83,"diabetes":8.331,"hypertension":19.724,"obesity":19.27,"serious_mental_illness":1.004,"stroke_tia":2.343}},{"ods":"P81029","name":"ASH TREES SURGERY","pcn":"U50573","lat":54.144908,"lng":-2.768719,"list":24041,"gp_fte":9.8133333332,"rating":"Good","prev":{"asthma":8.277,"atrial_fibrillation":3.76,"copd":1.872,"coronary_heart_disease":4.635,"dementia":1.574,"depression":14.785,"diabetes":7.579,"hypertension":20.192,"obesity":12.655,"serious_mental_illness":0.785,"stroke_tia":3.074}},{"ods":"P81031","name":"POPLAR HOUSE SURGERY","pcn":"U26788","lat":53.757493,"lng":-3.016621,"list":6672,"gp_fte":2.5600000001,"rating":"Good","prev":{"asthma":6.806,"atrial_fibrillation":3.629,"copd":2.833,"coronary_heart_disease":4.869,"dementia":1.579,"depression":14.705,"diabetes":8.116,"hypertension":21.821,"obesity":16.776,"serious_mental_illness":1.756,"stroke_tia":2.788}},{"ods":"P81032","name":"REEDYFORD HLTH CARE GROUP","pcn":"U08086","lat":53.83743,"lng":-2.210222,"list":14465,"gp_fte":4.5613333334,"rating":"Good","prev":{"asthma":8.195,"atrial_fibrillation":2.258,"copd":2.009,"coronary_heart_disease":3.625,"dementia":1.25,"depression":21.643,"diabetes":9.039,"hypertension":15.053,"obesity":16.05,"serious_mental_illness":1.195,"stroke_tia":2.368}},{"ods":"P81033","name":"COPPULL MEDICAL PRACTICE","pcn":"U01901","lat":53.621957,"lng":-2.659165,"list":8087,"gp_fte":3.1466666666,"rating":"Good","prev":{"asthma":8.9,"atrial_fibrillation":3.752,"copd":2.979,"coronary_heart_disease":4.351,"dementia":1.596,"depression":17.745,"diabetes":8.614,"hypertension":20.693,"obesity":17.562,"serious_mental_illness":0.922,"stroke_tia":2.618}},{"ods":"P81035","name":"COLNE ROAD SURGERY","pcn":"U31823","lat":53.800277,"lng":-2.237353,"list":8470,"gp_fte":1.0,"rating":"Good","prev":{"asthma":6.954,"atrial_fibrillation":0.773,"copd":2.063,"coronary_heart_disease":2.613,"dementia":0.398,"depression":12.267,"diabetes":11.044,"hypertension":11.59,"obesity":17.573,"serious_mental_illness":0.949,"stroke_tia":1.254}},{"ods":"P81036","name":"PEEL HOUSE MEDICAL PRACTICE","pcn":"U96653","lat":53.752416,"lng":-2.364325,"list":18497,"gp_fte":5.6138666668,"rating":"Good","prev":{"asthma":7.872,"atrial_fibrillation":2.301,"copd":2.375,"coronary_heart_disease":4.596,"dementia":0.799,"depression":20.605,"diabetes":9.008,"hypertension":18.487,"obesity":15.949,"serious_mental_illness":1.427,"stroke_tia":2.227}},{"ods":"P81037","name":"ANSDELL MEDICAL CENTRE","pcn":"U26788","lat":53.752831,"lng":-3.004693,"list":12674,"gp_fte":6.3813333333,"rating":"Good","prev":{"asthma":8.303,"atrial_fibrillation":4.647,"copd":2.707,"coronary_heart_disease":5.614,"dementia":1.573,"depression":17.607,"diabetes":8.233,"hypertension":25.018,"obesity":17.106,"serious_mental_illness":1.246,"stroke_tia":3.394}},{"ods":"P81038","name":"THE CHORLEY SURGERY","pcn":"U01901","lat":53.650488,"lng":-2.633361,"list":9948,"gp_fte":4.0133333334,"rating":"Good","prev":{"asthma":8.068,"atrial_fibrillation":2.351,"copd":2.212,"coronary_heart_disease":3.616,"dementia":0.787,"depression":22.549,"diabetes":8.111,"hypertension":18.848,"obesity":17.654,"serious_mental_illness":1.305,"stroke_tia":2.152}},{"ods":"P81039","name":"MANOR PRIMARY CARE","pcn":"U45611","lat":53.548914,"lng":-2.765428,"list":5524,"gp_fte":2.96,"rating":"Good","prev":{"asthma":8.568,"atrial_fibrillation":1.879,"copd":2.73,"coronary_heart_disease":2.961,"dementia":0.479,"depression":21.315,"diabetes":7.518,"hypertension":13.528,"obesity":16.301,"serious_mental_illness":1.011,"stroke_tia":1.365}},{"ods":"P81040","name":"LONGTON HEALTH CENTRE","pcn":"U49070","lat":53.720897,"lng":-2.776657,"list":10342,"gp_fte":6.5866666666,"rating":"Good","prev":{"asthma":7.933,"atrial_fibrillation":4.166,"copd":1.867,"coronary_heart_disease":4.338,"dementia":1.13,"depression":13.354,"diabetes":7.116,"hypertension":21.691,"obesity":14.904,"serious_mental_illness":0.9,"stroke_tia":2.691}},{"ods":"P81041","name":"PARKGATE SURGERY","pcn":"U21757","lat":53.56883,"lng":-2.886434,"list":9684,"gp_fte":5.7866666667,"rating":"Outstanding","prev":{"asthma":7.751,"atrial_fibrillation":3.27,"copd":2.054,"coronary_heart_disease":3.972,"dementia":0.954,"depression":12.702,"diabetes":6.448,"hypertension":17.461,"obesity":11.096,"serious_mental_illness":0.797,"stroke_tia":2.295}},{"ods":"P81042","name":"ADELAIDE STREET SURGERY","pcn":"U47882","lat":53.810763,"lng":-3.021914,"list":14969,"gp_fte":2.9866666667,"rating":"Inadequate","prev":{"asthma":7.803,"atrial_fibrillation":2.17,"copd":4.438,"coronary_heart_disease":4.137,"dementia":0.669,"depression":28.303,"diabetes":9.556,"hypertension":16.764,"obesity":17.497,"serious_mental_illness":1.823,"stroke_tia":2.223}},{"ods":"P81043","name":"SOUTH KING STREET MEDICAL CENTRE","pcn":"U47882","lat":53.815436,"lng":-3.032695,"list":6597,"gp_fte":3.0666666667,"rating":"Good","prev":{"asthma":8.125,"atrial_fibrillation":2.103,"copd":3.803,"coronary_heart_disease":3.668,"dementia":0.477,"depression":21.52,"diabetes":8.872,"hypertension":15.956,"obesity":16.095,"serious_mental_illness":2.118,"stroke_tia":2.088}},{"ods":"P81044","name":"LIBRARY HOUSE SURGERY","pcn":"U01901","lat":53.651233,"lng":-2.636201,"list":16664,"gp_fte":8.0009085367,"rating":"Good","prev":{"asthma":8.077,"atrial_fibrillation":3.192,"copd":3.174,"coronary_heart_disease":4.357,"dementia":1.195,"depression":24.947,"diabetes":8.114,"hypertension":18.39,"obesity":17.702,"serious_mental_illness":1.308,"stroke_tia":2.443}},{"ods":"P81045","name":"THE ELMS PRACTICE","pcn":"U21757","lat":53.570293,"lng":-2.88427,"list":4634,"gp_fte":2.0266666666,"rating":"Good","prev":{"asthma":7.261,"atrial_fibrillation":3.718,"copd":2.112,"coronary_heart_disease":4.816,"dementia":1.563,"depression":17.437,"diabetes":7.652,"hypertension":18.526,"obesity":15.528,"serious_mental_illness":0.782,"stroke_tia":2.662}},{"ods":"P81046","name":"PARK VIEW SURGERY","pcn":"U09100","lat":53.755385,"lng":-2.693353,"list":6429,"gp_fte":1.8666666666,"rating":"Good","prev":{"asthma":6.415,"atrial_fibrillation":1.016,"copd":1.759,"coronary_heart_disease":2.594,"dementia":0.288,"depression":17.994,"diabetes":7.594,"hypertension":11.179,"obesity":13.799,"serious_mental_illness":2.852,"stroke_tia":1.365}},{"ods":"P81047","name":"PARKSIDE SURGERY","pcn":"U31823","lat":53.791153,"lng":-2.23975,"list":15991,"gp_fte":6.24,"rating":"Good","prev":{"asthma":7.186,"atrial_fibrillation":2.545,"copd":2.772,"coronary_heart_disease":3.534,"dementia":1.143,"depression":15.459,"diabetes":8.219,"hypertension":17.702,"obesity":18.523,"serious_mental_illness":1.199,"stroke_tia":2.317}},{"ods":"P81051","name":"DARWEN HEALTHCARE","pcn":"U88348","lat":53.697106,"lng":-2.464432,"list":14743,"gp_fte":7.3733333333,"rating":"Outstanding","prev":{"asthma":9.757,"atrial_fibrillation":2.625,"copd":2.472,"coronary_heart_disease":3.781,"dementia":0.815,"depression":33.106,"diabetes":7.338,"hypertension":19.511,"obesity":22.381,"serious_mental_illness":1.281,"stroke_tia":2.18}},{"ods":"P81053","name":"BRIERCLIFFE SURGERY","pcn":"U31823","lat":53.80835,"lng":-2.216313,"list":8253,"gp_fte":1.9866666667,"rating":"Good","prev":{"asthma":7.512,"atrial_fibrillation":2.286,"copd":2.213,"coronary_heart_disease":3.393,"dementia":0.778,"depression":16.388,"diabetes":8.244,"hypertension":16.403,"obesity":17.391,"serious_mental_illness":0.73,"stroke_tia":1.994}},{"ods":"P81054","name":"MARTON MEDICAL PRACTICE","pcn":"U97645","lat":53.808843,"lng":-3.022496,"list":9382,"gp_fte":2.3466666666,"rating":"Good","prev":{"asthma":9.237,"atrial_fibrillation":2.156,"copd":3.334,"coronary_heart_disease":3.77,"dementia":0.765,"depression":24.582,"diabetes":8.021,"hypertension":18.647,"obesity":14.604,"serious_mental_illness":1.519,"stroke_tia":1.996}},{"ods":"P81055","name":"BERRY LANE MEDICAL CENTRE","pcn":"U92975","lat":53.834968,"lng":-2.60249,"list":15039,"gp_fte":8.2533333334,"rating":"Good","prev":{"asthma":7.586,"atrial_fibrillation":2.844,"copd":2.066,"coronary_heart_disease":3.495,"dementia":0.89,"depression":18.139,"diabetes":6.568,"hypertension":19.571,"obesity":11.346,"serious_mental_illness":0.925,"stroke_tia":2.305}},{"ods":"P81057","name":"WORDEN MEDICAL CENTRE","pcn":"U05906","lat":53.693996,"lng":-2.702838,"list":14187,"gp_fte":6.6800000001,"rating":"Good","prev":{"asthma":7.419,"atrial_fibrillation":3.075,"copd":1.875,"coronary_heart_disease":3.65,"dementia":0.717,"depression":20.187,"diabetes":7.807,"hypertension":17.327,"obesity":15.992,"serious_mental_illness":1.058,"stroke_tia":2.074}},{"ods":"P81058","name":"ST GEORGES SURGERY","pcn":"U48502","lat":53.740705,"lng":-2.480937,"list":10224,"gp_fte":4.64,"rating":"Good","prev":{"asthma":7.828,"atrial_fibrillation":1.859,"copd":2.314,"coronary_heart_disease":3.729,"dementia":0.603,"depression":15.654,"diabetes":9.031,"hypertension":14.163,"obesity":16.849,"serious_mental_illness":1.335,"stroke_tia":2.285}},{"ods":"P81059","name":"GREAT ECCLESTON HLTH CTR","pcn":"U17837","lat":53.850938,"lng":-2.853212,"list":7748,"gp_fte":3.6,"rating":"Good","prev":{"asthma":8.169,"atrial_fibrillation":3.812,"copd":2.002,"coronary_heart_disease":4.531,"dementia":1.168,"depression":13.496,"diabetes":7.496,"hypertension":21.563,"obesity":15.836,"serious_mental_illness":0.501,"stroke_tia":2.375}},{"ods":"P81061","name":"REDLAM SURGERY","pcn":"U34816","lat":53.737159,"lng":-2.499538,"list":4342,"gp_fte":1.92,"rating":"Good","prev":{"asthma":7.107,"atrial_fibrillation":2.842,"copd":2.865,"coronary_heart_disease":4.263,"dementia":1.173,"depression":11.65,"diabetes":10.865,"hypertension":19.265,"obesity":18.177,"serious_mental_illness":2.391,"stroke_tia":2.594}},{"ods":"P81062","name":"REGENT HOUSE SURGERY","pcn":"U01901","lat":53.650962,"lng":-2.635234,"list":7606,"gp_fte":4.0,"rating":"Good","prev":{"asthma":7.756,"atrial_fibrillation":3.175,"copd":2.703,"coronary_heart_disease":4.343,"dementia":1.115,"depression":22.174,"diabetes":7.912,"hypertension":20.68,"obesity":17.759,"serious_mental_illness":1.483,"stroke_tia":2.401}},{"ods":"P81063","name":"ST PAULS MEDICAL CENTRE","pcn":"U47882","lat":53.828884,"lng":-3.038377,"list":11023,"gp_fte":6.1066666666,"rating":"Good","prev":{"asthma":8.083,"atrial_fibrillation":2.448,"copd":3.779,"coronary_heart_disease":4.13,"dementia":1.08,"depression":27.625,"diabetes":10.001,"hypertension":19.707,"obesity":18.769,"serious_mental_illness":2.16,"stroke_tia":2.655}},{"ods":"P81065","name":"THE PENDLE MEDICAL PARTNERSHIP","pcn":"U21400","lat":53.880029,"lng":-2.163354,"list":15031,"gp_fte":9.1466666667,"rating":"Good","prev":{"asthma":7.17,"atrial_fibrillation":2.542,"copd":2.522,"coronary_heart_disease":3.909,"dementia":0.77,"depression":15.913,"diabetes":7.433,"hypertension":18.117,"obesity":15.335,"serious_mental_illness":1.148,"stroke_tia":2.216}},{"ods":"P81066","name":"LAYTON MEDICAL CENTRE","pcn":"U97645","lat":53.828767,"lng":-3.02555,"list":8298,"gp_fte":4.2800000001,"rating":"Good","prev":{"asthma":7.791,"atrial_fibrillation":1.932,"copd":4.708,"coronary_heart_disease":3.875,"dementia":0.459,"depression":27.528,"diabetes":10.067,"hypertension":15.888,"obesity":16.253,"serious_mental_illness":1.654,"stroke_tia":2.173}},{"ods":"P81067","name":"THE HEALTHCARE CENTRE","pcn":"U92975","lat":53.785191,"lng":-2.690925,"list":12691,"gp_fte":5.6666666667,"rating":"Good","prev":{"asthma":7.102,"atrial_fibrillation":2.653,"copd":2.146,"coronary_heart_disease":3.558,"dementia":1.1,"depression":17.348,"diabetes":8.621,"hypertension":17.689,"obesity":17.76,"serious_mental_illness":1.241,"stroke_tia":2.512}},{"ods":"P81069","name":"PENDLESIDE MEDICAL PRACT","pcn":"U11269","lat":53.879321,"lng":-2.384158,"list":11798,"gp_fte":9.8000000002,"rating":"Outstanding","prev":{"asthma":7.889,"atrial_fibrillation":2.985,"copd":1.767,"coronary_heart_disease":3.586,"dementia":0.803,"depression":12.719,"diabetes":6.716,"hypertension":18.537,"obesity":13.708,"serious_mental_illness":1.006,"stroke_tia":2.317}},{"ods":"P81070","name":"PENDLE VIEW MEDICAL CENTRE","pcn":"U08086","lat":53.826229,"lng":-2.230535,"list":8291,"gp_fte":6.0799999999,"rating":"Good","prev":{"asthma":9.361,"atrial_fibrillation":2.234,"copd":2.088,"coronary_heart_disease":4.163,"dementia":0.903,"depression":15.086,"diabetes":11.471,"hypertension":15.81,"obesity":19.341,"serious_mental_illness":1.209,"stroke_tia":2.246}},{"ods":"P81071","name":"THE NEW HALL LANE PRACTICE","pcn":"U09100","lat":53.765672,"lng":-2.672554,"list":7174,"gp_fte":4.5226666667,"rating":"Good","prev":{"asthma":5.144,"atrial_fibrillation":1.435,"copd":2.438,"coronary_heart_disease":2.466,"dementia":0.46,"depression":16.408,"diabetes":8.614,"hypertension":13.221,"obesity":19.195,"serious_mental_illness":1.142,"stroke_tia":1.588}},{"ods":"P81072","name":"GLENROYD MEDICAL CENTRE","pcn":"U82077","lat":53.832743,"lng":-3.032011,"list":13656,"gp_fte":2.3694418699,"rating":"Inadequate","prev":{"asthma":8.608,"atrial_fibrillation":3.144,"copd":4.161,"coronary_heart_disease":4.56,"dementia":1.124,"depression":23.334,"diabetes":9.119,"hypertension":21.397,"obesity":20.614,"serious_mental_illness":1.899,"stroke_tia":2.852}},{"ods":"P81073","name":"CLEVELEYS GROUP PRACTICE","pcn":"U87975","lat":53.872645,"lng":-3.029173,"list":13146,"gp_fte":7.0133333334,"rating":"Outstanding","prev":{"asthma":8.739,"atrial_fibrillation":4.208,"copd":4.086,"coronary_heart_disease":5.63,"dementia":1.826,"depression":23.973,"diabetes":10.986,"hypertension":25.299,"obesity":20.607,"serious_mental_illness":1.545,"stroke_tia":3.675}},{"ods":"P81074","name":"HIGHFIELD SURGERY","pcn":"U45809","lat":53.789532,"lng":-3.030034,"list":13420,"gp_fte":6.9333333334,"rating":"Good","prev":{"asthma":7.387,"atrial_fibrillation":3.184,"copd":3.566,"coronary_heart_disease":4.714,"dementia":1.154,"depression":17.03,"diabetes":9.759,"hypertension":19.95,"obesity":17.19,"serious_mental_illness":1.221,"stroke_tia":2.581}},{"ods":"P81076","name":"SANDY LANE SURGERY","pcn":"U05906","lat":53.694055,"lng":-2.69589,"list":10636,"gp_fte":4.9680000001,"rating":"Good","prev":{"asthma":7.32,"atrial_fibrillation":3.16,"copd":1.918,"coronary_heart_disease":4.152,"dementia":1.019,"depression":18.335,"diabetes":8.248,"hypertension":19.164,"obesity":16.506,"serious_mental_illness":0.908,"stroke_tia":2.27}},{"ods":"P81077","name":"HOLLAND HOUSE SURGERY","pcn":"U26788","lat":53.74599,"lng":-2.94435,"list":10794,"gp_fte":4.16,"rating":"Good","prev":{"asthma":6.623,"atrial_fibrillation":5.021,"copd":2.789,"coronary_heart_disease":5.504,"dementia":1.303,"depression":15.184,"diabetes":7.914,"hypertension":24.843,"obesity":16.496,"serious_mental_illness":0.911,"stroke_tia":3.162}},{"ods":"P81078","name":"BARNOLDSWICK MED CTR","pcn":"U21400","lat":53.915469,"lng":-2.181876,"list":12039,"gp_fte":4.8800000001,"rating":"Good","prev":{"asthma":8.684,"atrial_fibrillation":2.87,"copd":3.12,"coronary_heart_disease":4.205,"dementia":0.659,"depression":14.908,"diabetes":7.279,"hypertension":18.079,"obesity":13.624,"serious_mental_illness":0.934,"stroke_tia":2.603}},{"ods":"P81079","name":"THE THORNTON PRACTICE","pcn":"U87975","lat":53.870126,"lng":-3.006633,"list":12891,"gp_fte":5.7866666667,"rating":"Outstanding","prev":{"asthma":8.174,"atrial_fibrillation":3.599,"copd":2.608,"coronary_heart_disease":5.185,"dementia":1.153,"depression":14.643,"diabetes":8.349,"hypertension":22.675,"obesity":17.725,"serious_mental_illness":0.836,"stroke_tia":2.832}},{"ods":"P81081","name":"ARNOLD MEDICAL CENTRE","pcn":"U45809","lat":53.789959,"lng":-3.029328,"list":6182,"gp_fte":2.7733333334,"rating":"Good","prev":{"asthma":9.447,"atrial_fibrillation":3.02,"copd":4.8,"coronary_heart_disease":4.522,"dementia":0.914,"depression":26.33,"diabetes":8.671,"hypertension":20.408,"obesity":18.138,"serious_mental_illness":1.829,"stroke_tia":2.694}},{"ods":"P81082","name":"THE RYAN MEDICAL CENTRE","pcn":"U34632","lat":53.728845,"lng":-2.657099,"list":11075,"gp_fte":4.9666666668,"rating":"Good","prev":{"asthma":6.439,"atrial_fibrillation":3.113,"copd":2.349,"coronary_heart_disease":4.101,"dementia":1.1,"depression":16.622,"diabetes":8.397,"hypertension":19.758,"obesity":17.849,"serious_mental_illness":1.062,"stroke_tia":2.721}},{"ods":"P81083","name":"ROSLEA SURGERY","pcn":"U34632","lat":53.729849,"lng":-2.656351,"list":8660,"gp_fte":4.6666666668,"rating":"Good","prev":{"asthma":6.613,"atrial_fibrillation":3.054,"copd":1.805,"coronary_heart_disease":3.76,"dementia":1.226,"depression":17.145,"diabetes":7.021,"hypertension":19.875,"obesity":14.457,"serious_mental_illness":1.33,"stroke_tia":2.302}},{"ods":"P81084","name":"HALL GREEN SURGERY","pcn":"U45611","lat":53.537713,"lng":-2.72795,"list":8306,"gp_fte":2.7733333333,"rating":"Good","prev":{"asthma":7.544,"atrial_fibrillation":3.765,"copd":1.816,"coronary_heart_disease":3.983,"dementia":1.162,"depression":15.634,"diabetes":7.547,"hypertension":20.53,"obesity":18.127,"serious_mental_illness":0.751,"stroke_tia":2.009}},{"ods":"P81086","name":"BROADWAY MEDICAL CENTRE","pcn":"U74229","lat":53.910907,"lng":-3.029446,"list":9579,"gp_fte":3.7733333334,"rating":"Good","prev":{"asthma":8.359,"atrial_fibrillation":3.059,"copd":3.111,"coronary_heart_disease":4.312,"dementia":1.324,"depression":22.36,"diabetes":10.15,"hypertension":20.039,"obesity":19.443,"serious_mental_illness":1.232,"stroke_tia":2.844}},{"ods":"P81087","name":"THE OVER-WYRE MED.CTR.","pcn":"U17837","lat":53.907909,"lng":-2.948812,"list":11637,"gp_fte":5.4933333335,"rating":"Outstanding","prev":{"asthma":8.089,"atrial_fibrillation":4.761,"copd":4.796,"coronary_heart_disease":6.524,"dementia":1.737,"depression":17.734,"diabetes":11.349,"hypertension":26.78,"obesity":21.594,"serious_mental_illness":1.089,"stroke_tia":3.854}},{"ods":"P81088","name":"WHITWORTH MEDICAL CENTRE","pcn":"U81405","lat":53.666877,"lng":-2.182405,"list":6844,"gp_fte":2.0666666667,"rating":"Good","prev":{"asthma":8.696,"atrial_fibrillation":2.393,"copd":2.808,"coronary_heart_disease":3.854,"dementia":0.673,"depression":20.165,"diabetes":8.03,"hypertension":17.321,"obesity":16.697,"serious_mental_illness":0.946,"stroke_tia":2.02}},{"ods":"P81089","name":"THE MOUNT VIEW PRACTICE","pcn":"U74229","lat":53.914835,"lng":-3.023232,"list":12526,"gp_fte":4.0000000001,"rating":"Good","prev":{"asthma":8.627,"atrial_fibrillation":3.196,"copd":3.969,"coronary_heart_disease":4.855,"dementia":1.192,"depression":30.152,"diabetes":9.704,"hypertension":19.726,"obesity":20.144,"serious_mental_illness":2.085,"stroke_tia":2.593}},{"ods":"P81092","name":"THE CRESCENT SURGERY","pcn":"U87975","lat":53.873548,"lng":-3.030714,"list":7616,"gp_fte":3.36,"rating":"Good","prev":{"asthma":9.226,"atrial_fibrillation":4.03,"copd":3.273,"coronary_heart_disease":5.921,"dementia":1.278,"depression":19.883,"diabetes":10.586,"hypertension":26.826,"obesity":21.933,"serious_mental_illness":1.343,"stroke_tia":3.678}},{"ods":"P81095","name":"THURSBY SURGERY","pcn":"U31823","lat":53.802174,"lng":-2.231503,"list":8608,"gp_fte":1.4933333333,"rating":"Good","prev":{"asthma":8.035,"atrial_fibrillation":2.249,"copd":2.481,"coronary_heart_disease":4.011,"dementia":1.02,"depression":20.279,"diabetes":10.587,"hypertension":16.891,"obesity":28.093,"serious_mental_illness":0.893,"stroke_tia":2.191}},{"ods":"P81096","name":"PARBOLD SURGERY","pcn":"U67183","lat":53.595279,"lng":-2.764925,"list":6945,"gp_fte":4.0,"rating":"Good","prev":{"asthma":7.972,"atrial_fibrillation":4.224,"copd":1.912,"coronary_heart_disease":3.582,"dementia":0.699,"depression":14.739,"diabetes":6.547,"hypertension":21.704,"obesity":13.05,"serious_mental_illness":0.671,"stroke_tia":2.326}},{"ods":"P81099","name":"HASLINGDEN HEALTHCARE","pcn":"U31504","lat":53.697969,"lng":-2.328842,"list":10770,"gp_fte":2.3333333334,"rating":"Good","prev":{"asthma":7.916,"atrial_fibrillation":2.554,"copd":2.112,"coronary_heart_disease":3.578,"dementia":1.328,"depression":11.219,"diabetes":7.781,"hypertension":16.332,"obesity":15.496,"serious_mental_illness":1.162,"stroke_tia":2.167}},{"ods":"P81100","name":"THE CASTLE MEDICAL GROUP","pcn":"U11269","lat":53.877407,"lng":-2.39241,"list":15736,"gp_fte":7.5466666668,"rating":"Outstanding","prev":{"asthma":8.413,"atrial_fibrillation":3.095,"copd":2.502,"coronary_heart_disease":4.002,"dementia":0.9,"depression":11.251,"diabetes":7.262,"hypertension":18.937,"obesity":15.265,"serious_mental_illness":0.977,"stroke_tia":2.291}},{"ods":"P81103","name":"NORTH PRESTON MEDICAL PRACTICE","pcn":"U09100","lat":53.789406,"lng":-2.735704,"list":11784,"gp_fte":5.2016000001,"rating":"Good","prev":{"asthma":7.101,"atrial_fibrillation":2.328,"copd":2.126,"coronary_heart_disease":3.454,"dementia":0.605,"depression":20.559,"diabetes":7.863,"hypertension":16.583,"obesity":19.722,"serious_mental_illness":1.462,"stroke_tia":2.084}},{"ods":"P81107","name":"STONEBRIDGE SURGERY","pcn":"U92975","lat":53.832916,"lng":-2.609847,"list":8114,"gp_fte":5.5866666667,"rating":"Good","prev":{"asthma":7.661,"atrial_fibrillation":2.97,"copd":1.736,"coronary_heart_disease":2.983,"dementia":0.978,"depression":16.981,"diabetes":6.02,"hypertension":16.881,"obesity":15.453,"serious_mental_illness":0.978,"stroke_tia":2.127}},{"ods":"P81112","name":"BEACON PRIMARY CARE","pcn":"U45611","lat":53.579584,"lng":-2.829656,"list":16886,"gp_fte":6.4,"rating":"Good","prev":{"asthma":6.811,"atrial_fibrillation":2.479,"copd":2.758,"coronary_heart_disease":3.582,"dementia":1.168,"depression":28.195,"diabetes":7.828,"hypertension":16.873,"obesity":17.22,"serious_mental_illness":1.388,"stroke_tia":2.272}},{"ods":"P81113","name":"PARK VIEW SURGERY","pcn":"U50573","lat":54.184142,"lng":-2.758145,"list":7867,"gp_fte":4.7200000001,"rating":"Outstanding","prev":{"asthma":8.636,"atrial_fibrillation":3.292,"copd":1.464,"coronary_heart_disease":4.058,"dementia":0.981,"depression":17.655,"diabetes":6.982,"hypertension":19.078,"obesity":16.149,"serious_mental_illness":0.672,"stroke_tia":2.714}},{"ods":"P81115","name":"BLOOMFIELD MEDICAL CENTRE","pcn":"U64436","lat":53.807405,"lng":-3.027265,"list":16952,"gp_fte":9.3866666666,"rating":"Good","prev":{"asthma":8.184,"atrial_fibrillation":1.961,"copd":4.549,"coronary_heart_disease":3.911,"dementia":0.467,"depression":25.929,"diabetes":9.516,"hypertension":15.099,"obesity":19.134,"serious_mental_illness":2.144,"stroke_tia":2.103}},{"ods":"P81117","name":"CENTRAL PARK SURGERY","pcn":"U05906","lat":53.697623,"lng":-2.69496,"list":5780,"gp_fte":2.3573333333,"rating":null,"prev":{"asthma":7.062,"atrial_fibrillation":2.227,"copd":2.934,"coronary_heart_disease":3.314,"dementia":0.561,"depression":22.311,"diabetes":7.14,"hypertension":16.099,"obesity":16.156,"serious_mental_illness":1.123,"stroke_tia":1.467}},{"ods":"P81118","name":"ILEX VIEW MEDICAL PRACTICE","pcn":"U31504","lat":53.701713,"lng":-2.283925,"list":10115,"gp_fte":1.0,"rating":"Good","prev":{"asthma":8.015,"atrial_fibrillation":1.945,"copd":2.208,"coronary_heart_disease":3.221,"dementia":0.993,"depression":15.259,"diabetes":8.153,"hypertension":14.506,"obesity":11.839,"serious_mental_illness":1.509,"stroke_tia":1.854}},{"ods":"P81119","name":"LANE ENDS SURGERY","pcn":"U09100","lat":53.771845,"lng":-2.72797,"list":11201,"gp_fte":4.0533333334,"rating":"Good","prev":{"asthma":6.235,"atrial_fibrillation":1.787,"copd":2.115,"coronary_heart_disease":2.311,"dementia":0.702,"depression":24.594,"diabetes":6.592,"hypertension":12.799,"obesity":13.296,"serious_mental_illness":1.544,"stroke_tia":1.684}},{"ods":"P81123","name":"PWE PENDLE VALLEY MILL","pcn":"U08086","lat":53.832291,"lng":-2.212184,"list":12388,"gp_fte":2.0,"rating":null,"prev":{"asthma":7.442,"atrial_fibrillation":1.341,"copd":2.165,"coronary_heart_disease":3.02,"dementia":0.3,"depression":13.85,"diabetes":10.272,"hypertension":12.681,"obesity":14.149,"serious_mental_illness":1.179,"stroke_tia":1.71}},{"ods":"P81125","name":"OAKENHURST MEDICAL PRACTICE","pcn":"U34816","lat":53.753766,"lng":-2.500382,"list":10071,"gp_fte":3.9,"rating":"Good","prev":{"asthma":6.639,"atrial_fibrillation":2.308,"copd":1.795,"coronary_heart_disease":3.689,"dementia":0.631,"depression":15.259,"diabetes":8.98,"hypertension":16.453,"obesity":12.693,"serious_mental_illness":1.144,"stroke_tia":2.14}},{"ods":"P81127","name":"GAB HEALTHCARE","pcn":"U57096","lat":53.677513,"lng":-2.672561,"list":9688,"gp_fte":2.0016,"rating":"Requires improvement","prev":{"asthma":6.818,"atrial_fibrillation":2.252,"copd":1.851,"coronary_heart_disease":3.342,"dementia":0.514,"depression":19.486,"diabetes":7.063,"hypertension":14.274,"obesity":12.483,"serious_mental_illness":1.368,"stroke_tia":2.016}},{"ods":"P81128","name":"KIRKHAM HEALTH CENTRE","pcn":"U79546","lat":53.786102,"lng":-2.878916,"list":9935,"gp_fte":4.2400000001,"rating":"Good","prev":{"asthma":6.786,"atrial_fibrillation":2.609,"copd":2.598,"coronary_heart_disease":3.502,"dementia":0.65,"depression":19.711,"diabetes":7.855,"hypertension":16.88,"obesity":14.041,"serious_mental_illness":1.106,"stroke_tia":1.949}},{"ods":"P81129","name":"ASH TREE HOUSE SURGERY","pcn":"U79546","lat":53.78423,"lng":-2.877121,"list":12063,"gp_fte":5.6426666666,"rating":"Good","prev":{"asthma":9.131,"atrial_fibrillation":3.11,"copd":2.029,"coronary_heart_disease":3.301,"dementia":0.823,"depression":19.807,"diabetes":7.409,"hypertension":18.511,"obesity":16.41,"serious_mental_illness":1.206,"stroke_tia":2.42}},{"ods":"P81130","name":"PADIHAM GROUP PRACTICE","pcn":"U69695","lat":53.796722,"lng":-2.305742,"list":13689,"gp_fte":4.7519999999,"rating":"Good","prev":{"asthma":6.828,"atrial_fibrillation":2.763,"copd":3.405,"coronary_heart_disease":4.277,"dementia":1.003,"depression":15.899,"diabetes":8.348,"hypertension":17.939,"obesity":14.822,"serious_mental_illness":0.995,"stroke_tia":2.416}},{"ods":"P81132","name":"WATERFOOT MEDICAL PRACTICE","pcn":"U81405","lat":53.700326,"lng":-2.249296,"list":9331,"gp_fte":3.9200000001,"rating":"Good","prev":{"asthma":10.115,"atrial_fibrillation":2.48,"copd":3.175,"coronary_heart_disease":3.4,"dementia":0.577,"depression":14.392,"diabetes":7.621,"hypertension":16.186,"obesity":17.593,"serious_mental_illness":1.133,"stroke_tia":1.978}},{"ods":"P81133","name":"THE VILLAGE PRACTICE","pcn":"U82731","lat":53.876207,"lng":-3.010857,"list":9055,"gp_fte":2.3599999999,"rating":"Good","prev":{"asthma":8.709,"atrial_fibrillation":3.659,"copd":3.157,"coronary_heart_disease":4.809,"dementia":1.16,"depression":19.971,"diabetes":9.175,"hypertension":22.403,"obesity":18.979,"serious_mental_illness":1.149,"stroke_tia":3.035}},{"ods":"P81136","name":"DR A BISARYA","pcn":"U45611","lat":53.550082,"lng":-2.796499,"list":2882,"gp_fte":1.4,"rating":"Good","prev":{"asthma":8.333,"atrial_fibrillation":2.826,"copd":3.584,"coronary_heart_disease":4.342,"dementia":0.758,"depression":17.214,"diabetes":9.494,"hypertension":23.467,"obesity":23.202,"serious_mental_illness":0.896,"stroke_tia":2.136}},{"ods":"P81137","name":"BURNLEY WOOD MEDICAL CENTRE","pcn":"U31823","lat":53.785324,"lng":-2.233894,"list":7001,"gp_fte":5.1733333333,"rating":"Good","prev":{"asthma":7.84,"atrial_fibrillation":2.556,"copd":3.111,"coronary_heart_disease":4.075,"dementia":0.687,"depression":21.68,"diabetes":9.424,"hypertension":16.258,"obesity":19.697,"serious_mental_illness":1.169,"stroke_tia":2.337}},{"ods":"P81138","name":"BURSCOUGH FAMILY PRACTICE","pcn":"U67183","lat":53.603044,"lng":-2.854926,"list":3403,"gp_fte":0.6845333333,"rating":"Good","prev":{"asthma":8.583,"atrial_fibrillation":3.292,"copd":2.163,"coronary_heart_disease":4.451,"dementia":1.63,"depression":14.712,"diabetes":8.194,"hypertension":20.752,"obesity":17.998,"serious_mental_illness":0.596,"stroke_tia":3.072}},{"ods":"P81140","name":"DARWEN HEALTHLINK","pcn":"U88348","lat":53.699311,"lng":-2.465641,"list":15256,"gp_fte":4.7306666668,"rating":"Good","prev":{"asthma":7.443,"atrial_fibrillation":2.174,"copd":2.387,"coronary_heart_disease":3.774,"dementia":0.658,"depression":21.048,"diabetes":8.061,"hypertension":18.623,"obesity":13.082,"serious_mental_illness":1.174,"stroke_tia":1.884}},{"ods":"P81143","name":"WHITTLE SURGERY","pcn":"U57096","lat":53.6862,"lng":-2.635761,"list":11732,"gp_fte":4.1541333334,"rating":null,"prev":{"asthma":7.401,"atrial_fibrillation":2.759,"copd":1.423,"coronary_heart_disease":3.483,"dementia":0.638,"depression":19.675,"diabetes":6.817,"hypertension":17.615,"obesity":14.837,"serious_mental_illness":0.819,"stroke_tia":1.819}},{"ods":"P81147","name":"ARG HEALTHCARE","pcn":"U96653","lat":53.757473,"lng":-2.381398,"list":5064,"gp_fte":1.0666666667,"rating":"Good","prev":{"asthma":8.085,"atrial_fibrillation":2.184,"copd":2.892,"coronary_heart_disease":3.742,"dementia":0.85,"depression":17.747,"diabetes":10.617,"hypertension":18.467,"obesity":17.052,"serious_mental_illness":1.659,"stroke_tia":2.265}},{"ods":"P81149","name":"LOCKWOOD GP SURGERY","pcn":"U82731","lat":53.847434,"lng":-2.984716,"list":9358,"gp_fte":2.5066666668,"rating":"Good","prev":{"asthma":8.972,"atrial_fibrillation":3.342,"copd":2.381,"coronary_heart_disease":4.135,"dementia":1.241,"depression":16.268,"diabetes":7.167,"hypertension":21.907,"obesity":16.254,"serious_mental_illness":0.984,"stroke_tia":2.705}},{"ods":"P81150","name":"PARCLIFFE MEDICAL CENTRE","pcn":"U26788","lat":53.75668,"lng":-3.017443,"list":12131,"gp_fte":4.6,"rating":"Good","prev":{"asthma":7.103,"atrial_fibrillation":4.078,"copd":2.814,"coronary_heart_disease":5.465,"dementia":1.846,"depression":20.455,"diabetes":9.158,"hypertension":22.984,"obesity":16.154,"serious_mental_illness":1.936,"stroke_tia":3.61}},{"ods":"P81154","name":"GRANVILLE HOUSE MED CTRE","pcn":"U01901","lat":53.615638,"lng":-2.595047,"list":7963,"gp_fte":5.1600000001,"rating":"Good","prev":{"asthma":7.696,"atrial_fibrillation":3.661,"copd":2.644,"coronary_heart_disease":4.617,"dementia":1.216,"depression":18.092,"diabetes":7.787,"hypertension":20.976,"obesity":11.183,"serious_mental_illness":0.869,"stroke_tia":2.52}},{"ods":"P81155","name":"BROWNHILL SURGERY","pcn":"U69841","lat":53.773927,"lng":-2.479629,"list":6216,"gp_fte":2.1466666667,"rating":"Good","prev":{"asthma":6.897,"atrial_fibrillation":1.923,"copd":1.808,"coronary_heart_disease":3.814,"dementia":1.085,"depression":12.201,"diabetes":8.805,"hypertension":17.08,"obesity":18.386,"serious_mental_illness":0.608,"stroke_tia":1.891}},{"ods":"P81157","name":"FERNBANK SURGERY","pcn":"U26788","lat":53.747883,"lng":-2.92073,"list":11398,"gp_fte":0.8533333334,"rating":"Good","prev":{"asthma":7.058,"atrial_fibrillation":4.307,"copd":2.745,"coronary_heart_disease":5.375,"dementia":1.244,"depression":17.318,"diabetes":8.122,"hypertension":22.611,"obesity":15.651,"serious_mental_illness":0.918,"stroke_tia":2.851}},{"ods":"P81159","name":"STONYHILL MEDICAL PRACTICE","pcn":"U45809","lat":53.790328,"lng":-3.031337,"list":12106,"gp_fte":6.7733333333,"rating":"Good","prev":{"asthma":8.515,"atrial_fibrillation":3.042,"copd":3.679,"coronary_heart_disease":4.816,"dementia":1.235,"depression":22.146,"diabetes":9.752,"hypertension":21.913,"obesity":20.159,"serious_mental_illness":1.341,"stroke_tia":2.592}},{"ods":"P81160","name":"OSWALD MEDICAL CENTRE","pcn":"U96653","lat":53.74893,"lng":-2.394951,"list":16527,"gp_fte":5.1200000001,"rating":"Good","prev":{"asthma":6.368,"atrial_fibrillation":1.96,"copd":2.51,"coronary_heart_disease":3.53,"dementia":0.927,"depression":16.018,"diabetes":9.822,"hypertension":15.21,"obesity":17.951,"serious_mental_illness":1.249,"stroke_tia":1.873}},{"ods":"P81165","name":"IGHTENHILL MEDICAL CENTRE","pcn":"U69695","lat":53.792828,"lng":-2.269556,"list":2782,"gp_fte":0.8,"rating":"Good","prev":{"asthma":7.621,"atrial_fibrillation":2.329,"copd":3.566,"coronary_heart_disease":3.785,"dementia":0.255,"depression":23.81,"diabetes":9.352,"hypertension":18.595,"obesity":14.332,"serious_mental_illness":1.565,"stroke_tia":2.584}},{"ods":"P81166","name":"DR BELLO'S SURGERY","pcn":"U09057","lat":53.752237,"lng":-2.381757,"list":2467,"gp_fte":null,"rating":"Good","prev":{"asthma":7.955,"atrial_fibrillation":2.537,"copd":3.002,"coronary_heart_disease":4.44,"dementia":1.099,"depression":16.693,"diabetes":11.257,"hypertension":17.59,"obesity":20.999,"serious_mental_illness":1.353,"stroke_tia":2.452}},{"ods":"P81167","name":"STEPPING STONE PRACTICE","pcn":"U48502","lat":53.747002,"lng":-2.459232,"list":6013,"gp_fte":1.9733333333,"rating":"Good","prev":{"asthma":9.693,"atrial_fibrillation":0.71,"copd":2.721,"coronary_heart_disease":3.295,"dementia":0.355,"depression":16.496,"diabetes":11.912,"hypertension":14.735,"obesity":19.832,"serious_mental_illness":1.284,"stroke_tia":1.217}},{"ods":"P81169","name":"FISHERGATE HILL SURGERY","pcn":"U49070","lat":53.753262,"lng":-2.714607,"list":6794,"gp_fte":2.4533333334,"rating":"Good","prev":{"asthma":6.842,"atrial_fibrillation":1.841,"copd":1.93,"coronary_heart_disease":3.295,"dementia":0.46,"depression":22.337,"diabetes":8.892,"hypertension":13.389,"obesity":14.904,"serious_mental_illness":2.093,"stroke_tia":1.944}},{"ods":"P81170","name":"NELSON MEDICAL PRACTICE","pcn":"U08086","lat":53.831966,"lng":-2.210611,"list":11095,"gp_fte":1.2,"rating":"Good","prev":{"asthma":5.382,"atrial_fibrillation":0.444,"copd":0.761,"coronary_heart_disease":2.953,"dementia":0.136,"depression":10.091,"diabetes":12.853,"hypertension":10.0,"obesity":18.333,"serious_mental_illness":0.743,"stroke_tia":1.395}},{"ods":"P81171","name":"THE EUXTON MEDICAL CENTRE","pcn":"U01901","lat":53.665006,"lng":-2.677475,"list":4684,"gp_fte":2.6720000001,"rating":"Good","prev":{"asthma":9.179,"atrial_fibrillation":3.187,"copd":1.778,"coronary_heart_disease":3.837,"dementia":0.694,"depression":19.056,"diabetes":7.107,"hypertension":21.049,"obesity":19.905,"serious_mental_illness":0.932,"stroke_tia":2.124}},{"ods":"P81172","name":"NEWTON DRIVE HEALTH CENTRE","pcn":"U97645","lat":53.825195,"lng":-3.012442,"list":12293,"gp_fte":5.7154666669,"rating":"Good","prev":{"asthma":7.316,"atrial_fibrillation":2.288,"copd":2.435,"coronary_heart_disease":3.013,"dementia":0.7,"depression":23.08,"diabetes":8.159,"hypertension":17.883,"obesity":16.862,"serious_mental_illness":1.27,"stroke_tia":2.223}},{"ods":"P81179","name":"LOSTOCK HALL MEDICAL CTR.","pcn":"U34632","lat":53.726478,"lng":-2.69235,"list":6707,"gp_fte":0.5466666667,"rating":"Good","prev":{"asthma":7.084,"atrial_fibrillation":2.194,"copd":2.773,"coronary_heart_disease":3.087,"dementia":0.877,"depression":23.247,"diabetes":7.816,"hypertension":18.552,"obesity":23.092,"serious_mental_illness":0.862,"stroke_tia":2.053}},{"ods":"P81180","name":"CLAYTON BROOK SURGERY","pcn":"U05906","lat":53.709025,"lng":-2.642367,"list":3415,"gp_fte":1.7866666667,"rating":"Good","prev":{"asthma":6.754,"atrial_fibrillation":2.342,"copd":3.268,"coronary_heart_disease":3.991,"dementia":2.747,"depression":28.233,"diabetes":9.213,"hypertension":16.136,"obesity":16.525,"serious_mental_illness":1.591,"stroke_tia":2.313}},{"ods":"P81181","name":"KINGSFOLD MEDICAL CENTRE","pcn":"U09100","lat":53.735799,"lng":-2.716331,"list":5468,"gp_fte":1.8773333333,"rating":"Good","prev":{"asthma":7.359,"atrial_fibrillation":3.212,"copd":2.324,"coronary_heart_disease":3.137,"dementia":1.19,"depression":22.91,"diabetes":8.844,"hypertension":19.161,"obesity":16.98,"serious_mental_illness":1.077,"stroke_tia":2.608}},{"ods":"P81182","name":"RICHMOND MEDICAL CENTRE","pcn":"U96653","lat":53.752173,"lng":-2.375106,"list":6856,"gp_fte":2.1600000001,"rating":"Good","prev":{"asthma":6.318,"atrial_fibrillation":1.1,"copd":1.733,"coronary_heart_disease":2.623,"dementia":0.739,"depression":16.085,"diabetes":11.056,"hypertension":10.974,"obesity":16.635,"serious_mental_illness":1.658,"stroke_tia":1.673}},{"ods":"P81184","name":"RIBBLETON MEDICAL CENTRE","pcn":"U92975","lat":53.777126,"lng":-2.659177,"list":9284,"gp_fte":3.8026666667,"rating":"Good","prev":{"asthma":7.628,"atrial_fibrillation":1.795,"copd":2.815,"coronary_heart_disease":2.726,"dementia":0.754,"depression":31.116,"diabetes":8.405,"hypertension":14.428,"obesity":22.224,"serious_mental_illness":1.33,"stroke_tia":1.973}},{"ods":"P81185","name":"RIVERSIDE MEDICAL CENTRE","pcn":"U34632","lat":53.737378,"lng":-2.649751,"list":10602,"gp_fte":7.2266666667,"rating":"Good","prev":{"asthma":8.202,"atrial_fibrillation":2.92,"copd":1.794,"coronary_heart_disease":3.287,"dementia":0.883,"depression":17.795,"diabetes":6.895,"hypertension":19.401,"obesity":14.233,"serious_mental_illness":0.798,"stroke_tia":2.028}},{"ods":"P81186","name":"MOSS SIDE MEDICAL CENTRE","pcn":"U05906","lat":53.693098,"lng":-2.722135,"list":4706,"gp_fte":0.8933333334,"rating":"Inadequate","prev":{"asthma":8.099,"atrial_fibrillation":2.699,"copd":2.341,"coronary_heart_disease":3.88,"dementia":2.13,"depression":28.169,"diabetes":9.225,"hypertension":18.347,"obesity":15.071,"serious_mental_illness":1.223,"stroke_tia":2.32}},{"ods":"P81191","name":"QUEENSWAY MEDICAL CENTRE","pcn":"U82731","lat":53.844978,"lng":-2.990636,"list":10126,"gp_fte":1.9493333333,"rating":"Good","prev":{"asthma":7.241,"atrial_fibrillation":3.397,"copd":2.773,"coronary_heart_disease":4.604,"dementia":1.351,"depression":18.544,"diabetes":7.893,"hypertension":21.24,"obesity":15.728,"serious_mental_illness":1.003,"stroke_tia":2.895}},{"ods":"P81196","name":"ISSA MEDICAL CENTRE - PATEL","pcn":"U92975","lat":53.773262,"lng":-2.696736,"list":36716,"gp_fte":3.04,"rating":"Good","prev":{"asthma":5.45,"atrial_fibrillation":1.331,"copd":1.55,"coronary_heart_disease":2.531,"dementia":0.614,"depression":12.734,"diabetes":8.632,"hypertension":11.868,"obesity":16.428,"serious_mental_illness":1.314,"stroke_tia":1.575}},{"ods":"P81197","name":"ROSEGROVE SURGERY","pcn":"U69695","lat":53.791058,"lng":-2.276536,"list":4996,"gp_fte":2.8266666666,"rating":"Good","prev":{"asthma":8.399,"atrial_fibrillation":1.903,"copd":2.875,"coronary_heart_disease":3.509,"dementia":0.515,"depression":22.764,"diabetes":7.799,"hypertension":18.735,"obesity":14.18,"serious_mental_illness":1.328,"stroke_tia":2.062}},{"ods":"P81201","name":"ASHURST PRIMARY CARE","pcn":"U45611","lat":53.557804,"lng":-2.77047,"list":6001,"gp_fte":1.3866666666,"rating":"Good","prev":{"asthma":5.575,"atrial_fibrillation":2.176,"copd":2.176,"coronary_heart_disease":3.182,"dementia":0.313,"depression":20.021,"diabetes":7.784,"hypertension":14.592,"obesity":16.254,"serious_mental_illness":1.105,"stroke_tia":1.451}},{"ods":"P81208","name":"EXCEL PRIMARY CARE","pcn":"U45611","lat":53.544767,"lng":-2.765326,"list":17971,"gp_fte":6.6666666665,"rating":"Good","prev":{"asthma":7.06,"atrial_fibrillation":2.388,"copd":2.742,"coronary_heart_disease":3.748,"dementia":0.636,"depression":22.235,"diabetes":8.918,"hypertension":16.823,"obesity":16.602,"serious_mental_illness":1.017,"stroke_tia":2.001}},{"ods":"P81212","name":"HAZELVALLEY FAMILY PRACTICE","pcn":"U31504","lat":53.701267,"lng":-2.330793,"list":6311,"gp_fte":2.5066666667,"rating":"Good","prev":{"asthma":7.612,"atrial_fibrillation":2.039,"copd":2.525,"coronary_heart_disease":3.658,"dementia":0.631,"depression":18.086,"diabetes":8.697,"hypertension":17.624,"obesity":18.499,"serious_mental_illness":0.955,"stroke_tia":2.347}},{"ods":"P81213","name":"ST. MARY'S HEALTH CENTRE","pcn":"U09100","lat":53.743351,"lng":-2.70212,"list":19029,"gp_fte":13.1962666667,"rating":"Good","prev":{"asthma":5.546,"atrial_fibrillation":1.736,"copd":0.928,"coronary_heart_disease":1.747,"dementia":0.45,"depression":15.367,"diabetes":3.482,"hypertension":10.103,"obesity":9.612,"serious_mental_illness":0.675,"stroke_tia":1.061}},{"ods":"P81214","name":"LIMEFIELD SURGERY","pcn":"U34816","lat":53.746387,"lng":-2.500381,"list":4757,"gp_fte":1.0666666667,"rating":"Good","prev":{"asthma":5.389,"atrial_fibrillation":1.686,"copd":1.109,"coronary_heart_disease":3.776,"dementia":0.704,"depression":11.207,"diabetes":9.147,"hypertension":12.076,"obesity":13.886,"serious_mental_illness":1.536,"stroke_tia":1.707}},{"ods":"P81218","name":"THE CLAYTON MEDICAL CTR.","pcn":"U09057","lat":53.771499,"lng":-2.377265,"list":6187,"gp_fte":5.5200000001,"rating":"Good","prev":{"asthma":8.326,"atrial_fibrillation":2.118,"copd":2.296,"coronary_heart_disease":4.058,"dementia":0.922,"depression":16.014,"diabetes":8.657,"hypertension":14.826,"obesity":15.565,"serious_mental_illness":1.39,"stroke_tia":2.215}},{"ods":"P81620","name":"SLAIDBURN HEALTH CENTRE","pcn":"U11269","lat":53.942224,"lng":-2.431804,"list":1483,"gp_fte":1.12,"rating":"Good","prev":{"asthma":7.994,"atrial_fibrillation":2.633,"copd":1.485,"coronary_heart_disease":4.456,"dementia":0.608,"depression":12.747,"diabetes":6.26,"hypertension":20.527,"obesity":9.897,"serious_mental_illness":1.08,"stroke_tia":2.431}},{"ods":"P81622","name":"SHIFA SURGERY","pcn":"U69841","lat":53.754896,"lng":-2.479744,"list":11521,"gp_fte":0.6666666666,"rating":"Good","prev":{"asthma":6.984,"atrial_fibrillation":0.424,"copd":0.883,"coronary_heart_disease":3.049,"dementia":0.338,"depression":11.191,"diabetes":14.798,"hypertension":11.381,"obesity":19.473,"serious_mental_illness":1.065,"stroke_tia":1.057}},{"ods":"P81633","name":"SPRING-FENISCO HEALTHLINK","pcn":"U88348","lat":53.712284,"lng":-2.492261,"list":4045,"gp_fte":6.4933333333,"rating":"Good","prev":{"asthma":7.221,"atrial_fibrillation":2.636,"copd":3.142,"coronary_heart_disease":3.781,"dementia":0.346,"depression":30.472,"diabetes":7.786,"hypertension":21.353,"obesity":13.724,"serious_mental_illness":1.145,"stroke_tia":2.316}},{"ods":"P81646","name":"LATHOM HOUSE SURGERY","pcn":"U67183","lat":53.606981,"lng":-2.850085,"list":4129,"gp_fte":0.0,"rating":"Good","prev":{"asthma":8.608,"atrial_fibrillation":3.381,"copd":2.317,"coronary_heart_disease":3.594,"dementia":1.49,"depression":14.406,"diabetes":8.368,"hypertension":19.674,"obesity":15.56,"serious_mental_illness":0.922,"stroke_tia":2.27}},{"ods":"P81647","name":"GUTTERIDGE MEDICAL CENTRE","pcn":"U09100","lat":53.76873,"lng":-2.69006,"list":4484,"gp_fte":2.44,"rating":"Good","prev":{"asthma":5.477,"atrial_fibrillation":0.678,"copd":1.309,"coronary_heart_disease":2.571,"dementia":0.28,"depression":9.626,"diabetes":9.534,"hypertension":11.194,"obesity":11.995,"serious_mental_illness":1.309,"stroke_tia":1.098}},{"ods":"P81655","name":"THE VILLAGE SURGERIES CROSTON&ECCLESTON","pcn":"U05906","lat":53.653343,"lng":-2.743631,"list":10642,"gp_fte":2.9386666667,"rating":"Good","prev":{"asthma":7.69,"atrial_fibrillation":3.249,"copd":1.336,"coronary_heart_disease":3.72,"dementia":0.827,"depression":16.549,"diabetes":6.309,"hypertension":17.61,"obesity":14.474,"serious_mental_illness":0.596,"stroke_tia":2.567}},{"ods":"P81664","name":"THE PARK MEDICAL PRACTICE","pcn":"U09100","lat":53.770206,"lng":-2.726837,"list":18280,"gp_fte":6.7773333335,"rating":"Good","prev":{"asthma":7.436,"atrial_fibrillation":1.851,"copd":2.397,"coronary_heart_disease":2.889,"dementia":0.726,"depression":21.34,"diabetes":8.142,"hypertension":13.281,"obesity":15.026,"serious_mental_illness":1.305,"stroke_tia":1.578}},{"ods":"P81668","name":"FLEETWOOD SURGERY","pcn":"U74229","lat":53.904757,"lng":-3.024881,"list":6249,"gp_fte":2.2933333333,"rating":"Good","prev":{"asthma":6.134,"atrial_fibrillation":2.585,"copd":3.395,"coronary_heart_disease":4.111,"dementia":0.623,"depression":25.015,"diabetes":10.287,"hypertension":18.546,"obesity":19.661,"serious_mental_illness":1.324,"stroke_tia":2.585}},{"ods":"P81674","name":"STANLEY COURT SURGERY","pcn":"U67183","lat":53.604443,"lng":-2.845802,"list":5816,"gp_fte":1.6387795052,"rating":"Good","prev":{"asthma":7.803,"atrial_fibrillation":3.105,"copd":1.509,"coronary_heart_disease":3.491,"dementia":1.158,"depression":12.86,"diabetes":7.765,"hypertension":20.277,"obesity":18.213,"serious_mental_illness":0.667,"stroke_tia":2.456}},{"ods":"P81681","name":"NORTH SHORE SURGERY","pcn":"U82077","lat":53.844898,"lng":-3.032562,"list":13876,"gp_fte":4.1066666665,"rating":"Good","prev":{"asthma":7.265,"atrial_fibrillation":3.129,"copd":3.819,"coronary_heart_disease":4.596,"dementia":1.212,"depression":19.754,"diabetes":9.904,"hypertension":21.562,"obesity":17.732,"serious_mental_illness":1.684,"stroke_tia":2.715}},{"ods":"P81683","name":"OLIVE MEDICAL CENTRE","pcn":"U69841","lat":53.749957,"lng":-2.479615,"list":7542,"gp_fte":2.2666666666,"rating":"Inadequate","prev":{"asthma":6.417,"atrial_fibrillation":0.336,"copd":0.517,"coronary_heart_disease":2.716,"dementia":0.349,"depression":10.581,"diabetes":13.613,"hypertension":9.596,"obesity":14.5,"serious_mental_illness":0.931,"stroke_tia":1.073}},{"ods":"P81685","name":"DR ALI GUTTRIDGE MEDICAL CENTRE","pcn":"U09100","lat":53.768797,"lng":-2.692433,"list":4368,"gp_fte":1.0666666667,"rating":"Good","prev":{"asthma":5.37,"atrial_fibrillation":1.044,"copd":1.158,"coronary_heart_disease":2.792,"dementia":0.341,"depression":11.758,"diabetes":9.104,"hypertension":9.784,"obesity":19.461,"serious_mental_illness":1.112,"stroke_tia":1.112}},{"ods":"P81686","name":"ROSSENDALE VALLEY MEDICAL PRACTICE","pcn":"U31504","lat":53.701677,"lng":-2.330034,"list":2619,"gp_fte":1.4,"rating":"Good","prev":{"asthma":6.266,"atrial_fibrillation":1.728,"copd":1.845,"coronary_heart_disease":2.316,"dementia":0.471,"depression":11.933,"diabetes":7.573,"hypertension":15.351,"obesity":13.259,"serious_mental_illness":0.707,"stroke_tia":1.492}},{"ods":"P81687","name":"NEW LONGTON SURGERY","pcn":"U34632","lat":53.723083,"lng":-2.748637,"list":2120,"gp_fte":0.8666666667,"rating":"Good","prev":{"asthma":8.739,"atrial_fibrillation":4.408,"copd":2.492,"coronary_heart_disease":4.839,"dementia":2.156,"depression":14.392,"diabetes":8.423,"hypertension":21.802,"obesity":15.934,"serious_mental_illness":1.246,"stroke_tia":3.929}},{"ods":"P81692","name":"BEECHES MEDICAL CENTRE","pcn":"U49070","lat":53.713501,"lng":-2.775297,"list":2050,"gp_fte":0.9866666667,"rating":"Good","prev":{"asthma":7.026,"atrial_fibrillation":3.749,"copd":1.655,"coronary_heart_disease":3.554,"dementia":0.438,"depression":14.911,"diabetes":6.979,"hypertension":22.298,"obesity":9.787,"serious_mental_illness":0.389,"stroke_tia":1.801}},{"ods":"P81694","name":"FAMILY PRACTICE","pcn":"U34816","lat":53.744798,"lng":-2.484169,"list":5246,"gp_fte":2.0,"rating":"Good","prev":{"asthma":5.238,"atrial_fibrillation":0.705,"copd":1.373,"coronary_heart_disease":2.096,"dementia":0.185,"depression":15.46,"diabetes":7.155,"hypertension":7.308,"obesity":7.066,"serious_mental_illness":1.484,"stroke_tia":0.872}},{"ods":"P81695","name":"AUGHTON SURGERY","pcn":"U21757","lat":53.5498,"lng":-2.909883,"list":6566,"gp_fte":3.9,"rating":"Good","prev":{"asthma":6.531,"atrial_fibrillation":3.217,"copd":1.522,"coronary_heart_disease":3.86,"dementia":0.863,"depression":15.559,"diabetes":5.295,"hypertension":16.978,"obesity":11.923,"serious_mental_illness":0.659,"stroke_tia":2.307}},{"ods":"P81699","name":"HIGHER HEYS SURGERY","pcn":"U09057","lat":53.748379,"lng":-2.388872,"list":2492,"gp_fte":1.0666666667,"rating":"Good","prev":{"asthma":8.266,"atrial_fibrillation":2.517,"copd":2.652,"coronary_heart_disease":4.0,"dementia":1.303,"depression":16.447,"diabetes":7.046,"hypertension":15.011,"obesity":15.625,"serious_mental_illness":0.809,"stroke_tia":2.337}},{"ods":"P81701","name":"DR DAWOUD'S SURGERY","pcn":"U57096","lat":53.707649,"lng":-2.642282,"list":2963,"gp_fte":1.4933333333,"rating":"Good","prev":{"asthma":8.802,"atrial_fibrillation":2.592,"copd":2.861,"coronary_heart_disease":4.039,"dementia":1.447,"depression":20.09,"diabetes":9.131,"hypertension":19.118,"obesity":17.958,"serious_mental_illness":1.952,"stroke_tia":2.12}},{"ods":"P81704","name":"BLAKEWATER HEALTHCARE","pcn":"U69841","lat":53.755064,"lng":-2.486498,"list":10864,"gp_fte":3.1333333333,"rating":"Good","prev":{"asthma":6.807,"atrial_fibrillation":1.642,"copd":1.903,"coronary_heart_disease":3.41,"dementia":0.523,"depression":15.03,"diabetes":10.391,"hypertension":13.225,"obesity":17.19,"serious_mental_illness":1.543,"stroke_tia":1.543}},{"ods":"P81707","name":"WILLIAM HOPWOOD STREET SURGERY","pcn":"U48502","lat":53.74477,"lng":-2.468084,"list":5222,"gp_fte":1.6,"rating":"Good","prev":{"asthma":6.595,"atrial_fibrillation":0.771,"copd":1.637,"coronary_heart_disease":2.785,"dementia":0.357,"depression":9.329,"diabetes":13.499,"hypertension":14.638,"obesity":21.383,"serious_mental_illness":1.167,"stroke_tia":1.392}},{"ods":"P81709","name":"ROMAN ROAD HEALTH CENTRE","pcn":"U48502","lat":53.7284,"lng":-2.472344,"list":6232,"gp_fte":1.8533333333,"rating":"Good","prev":{"asthma":10.009,"atrial_fibrillation":1.284,"copd":2.568,"coronary_heart_disease":2.268,"dementia":0.684,"depression":32.667,"diabetes":7.624,"hypertension":11.022,"obesity":19.819,"serious_mental_illness":1.668,"stroke_tia":1.567}},{"ods":"P81710","name":"TARLETON GROUP PRACTICE","pcn":"U67183","lat":53.684925,"lng":-2.846639,"list":10089,"gp_fte":5.8933333334,"rating":"Good","prev":{"asthma":7.698,"atrial_fibrillation":3.383,"copd":1.926,"coronary_heart_disease":4.192,"dementia":0.758,"depression":16.756,"diabetes":8.251,"hypertension":20.808,"obesity":17.664,"serious_mental_illness":0.639,"stroke_tia":2.794}},{"ods":"P81711","name":"DILL HALL SURGERY","pcn":"U09057","lat":53.74565,"lng":-2.4148,"list":3,"gp_fte":null,"rating":null,"prev":{"asthma":7.275,"atrial_fibrillation":1.852,"copd":2.422,"coronary_heart_disease":3.063,"dementia":0.392,"depression":19.669,"diabetes":8.095,"hypertension":17.165,"obesity":18.641,"serious_mental_illness":0.677,"stroke_tia":1.781}},{"ods":"P81714","name":"ABBEY DALE MEDICAL CENTRE","pcn":"U45809","lat":53.791554,"lng":-3.018081,"list":5725,"gp_fte":3.0933333334,"rating":"Good","prev":{"asthma":8.129,"atrial_fibrillation":2.683,"copd":4.214,"coronary_heart_disease":4.747,"dementia":1.101,"depression":24.225,"diabetes":9.19,"hypertension":18.455,"obesity":21.04,"serious_mental_illness":1.634,"stroke_tia":2.597}},{"ods":"P81721","name":"HOLLINS GROVE SURGERY","pcn":"U69841","lat":53.713565,"lng":-2.473993,"list":2554,"gp_fte":0.6666666666,"rating":"Good","prev":{"asthma":8.932,"atrial_fibrillation":1.439,"copd":2.359,"coronary_heart_disease":3.599,"dementia":0.36,"depression":19.414,"diabetes":11.028,"hypertension":13.035,"obesity":14.914,"serious_mental_illness":1.359,"stroke_tia":1.24}},{"ods":"P81724","name":"PRINGLE STREET SURGERY","pcn":"U48502","lat":53.742219,"lng":-2.467201,"list":2695,"gp_fte":1.0666666667,"rating":"Good","prev":{"asthma":8.36,"atrial_fibrillation":0.7,"copd":1.511,"coronary_heart_disease":2.653,"dementia":0.332,"depression":20.419,"diabetes":14.235,"hypertension":12.307,"obesity":21.047,"serious_mental_illness":0.995,"stroke_tia":1.105}},{"ods":"P81726","name":"KING STREET MEDICAL CTR","pcn":"U09057","lat":53.755627,"lng":-2.372353,"list":1922,"gp_fte":null,"rating":"Good","prev":{"asthma":8.718,"atrial_fibrillation":1.417,"copd":1.83,"coronary_heart_disease":3.424,"dementia":0.177,"depression":17.067,"diabetes":12.167,"hypertension":13.459,"obesity":19.162,"serious_mental_illness":1.181,"stroke_tia":2.007}},{"ods":"P81730","name":"GREAT HARWOOD MEDICAL GROUP","pcn":"U09057","lat":53.782604,"lng":-2.403969,"list":9390,"gp_fte":4.0933333333,"rating":"Good","prev":{"asthma":6.627,"atrial_fibrillation":2.581,"copd":2.526,"coronary_heart_disease":3.738,"dementia":0.779,"depression":18.006,"diabetes":8.119,"hypertension":19.003,"obesity":14.045,"serious_mental_illness":1.135,"stroke_tia":2.348}},{"ods":"P81731","name":"DR JEHANGIR (SH)","pcn":"U08086","lat":53.833763,"lng":-2.211789,"list":2572,"gp_fte":1.6,"rating":"Good","prev":{"asthma":5.603,"atrial_fibrillation":0.984,"copd":0.87,"coronary_heart_disease":3.103,"dementia":0.114,"depression":7.45,"diabetes":13.38,"hypertension":11.918,"obesity":9.622,"serious_mental_illness":0.908,"stroke_tia":1.513}},{"ods":"P81732","name":"HARAMBEE SURGERY","pcn":"U21400","lat":53.851167,"lng":-2.128839,"list":4582,"gp_fte":null,"rating":"Good","prev":{"asthma":8.345,"atrial_fibrillation":2.777,"copd":2.885,"coronary_heart_disease":3.681,"dementia":0.581,"depression":18.493,"diabetes":6.159,"hypertension":15.436,"obesity":16.623,"serious_mental_illness":0.732,"stroke_tia":2.088}},{"ods":"P81734","name":"THE CORNERSTONE PRACTICE","pcn":"U48502","lat":53.742998,"lng":-2.437388,"list":19524,"gp_fte":9.1733333334,"rating":"Good","prev":{"asthma":8.915,"atrial_fibrillation":1.364,"copd":2.492,"coronary_heart_disease":2.85,"dementia":0.393,"depression":25.859,"diabetes":8.739,"hypertension":14.412,"obesity":17.089,"serious_mental_illness":1.496,"stroke_tia":1.828}},{"ods":"P81735","name":"DR A HUSSAIN","pcn":"U92975","lat":53.771661,"lng":-2.662345,"list":3217,"gp_fte":1.1866666667,"rating":"Good","prev":{"asthma":6.609,"atrial_fibrillation":1.001,"copd":2.592,"coronary_heart_disease":2.887,"dementia":0.707,"depression":23.405,"diabetes":6.82,"hypertension":9.602,"obesity":14.831,"serious_mental_illness":1.06,"stroke_tia":1.237}},{"ods":"P81736","name":"WHITEFIELD HEALTHCARE","pcn":"U08086","lat":53.834536,"lng":-2.211575,"list":4025,"gp_fte":0.8533333334,"rating":"Good","prev":{"asthma":9.533,"atrial_fibrillation":1.101,"copd":2.08,"coronary_heart_disease":2.79,"dementia":0.245,"depression":8.969,"diabetes":11.929,"hypertension":11.919,"obesity":18.731,"serious_mental_illness":1.248,"stroke_tia":1.224}},{"ods":"P81740","name":"ADLINGTON MEDICAL CENTRE","pcn":"U10791","lat":53.669464,"lng":-2.666485,"list":11185,"gp_fte":5.2666666667,"rating":"Good","prev":{"asthma":7.134,"atrial_fibrillation":2.702,"copd":1.871,"coronary_heart_disease":4.035,"dementia":0.675,"depression":19.146,"diabetes":7.556,"hypertension":17.152,"obesity":17.815,"serious_mental_illness":1.296,"stroke_tia":2.264}},{"ods":"P81741","name":"STATION SURGERY","pcn":"U57096","lat":53.699252,"lng":-2.690778,"list":2469,"gp_fte":0.5386666666,"rating":null,"prev":{"asthma":6.376,"atrial_fibrillation":1.155,"copd":2.599,"coronary_heart_disease":3.218,"dementia":0.289,"depression":20.774,"diabetes":6.743,"hypertension":14.686,"obesity":11.341,"serious_mental_illness":1.361,"stroke_tia":1.361}},{"ods":"P81742","name":"BEECHWOOD SURGERY","pcn":"U82731","lat":53.871988,"lng":-3.008616,"list":2684,"gp_fte":1.0133333333,"rating":"Good","prev":{"asthma":7.677,"atrial_fibrillation":4.003,"copd":4.388,"coronary_heart_disease":5.543,"dementia":1.732,"depression":25.665,"diabetes":10.901,"hypertension":31.37,"obesity":19.459,"serious_mental_illness":1.155,"stroke_tia":3.58}},{"ods":"P81748","name":"BRIARWOOD MEDICAL CENTRE","pcn":"U09100","lat":53.771658,"lng":-2.74102,"list":7707,"gp_fte":3.44,"rating":"Good","prev":{"asthma":6.107,"atrial_fibrillation":2.384,"copd":1.594,"coronary_heart_disease":2.853,"dementia":1.245,"depression":19.389,"diabetes":6.773,"hypertension":15.026,"obesity":14.279,"serious_mental_illness":1.125,"stroke_tia":1.781}},{"ods":"P81755","name":"THE WEAVERS PRACTICE","pcn":"U09057","lat":53.778184,"lng":-2.407965,"list":8494,"gp_fte":3.5333333334,"rating":"Good","prev":{"asthma":7.779,"atrial_fibrillation":2.536,"copd":2.424,"coronary_heart_disease":3.427,"dementia":0.71,"depression":17.911,"diabetes":9.083,"hypertension":17.709,"obesity":19.373,"serious_mental_illness":1.184,"stroke_tia":2.503}},{"ods":"P81757","name":"BARROWFORD SURGERY","pcn":"U21400","lat":53.850515,"lng":-2.225432,"list":3656,"gp_fte":1.4133333333,"rating":"Good","prev":{"asthma":6.143,"atrial_fibrillation":2.392,"copd":2.167,"coronary_heart_disease":3.517,"dementia":0.732,"depression":22.601,"diabetes":5.488,"hypertension":17.614,"obesity":14.858,"serious_mental_illness":0.732,"stroke_tia":1.688}},{"ods":"P81770","name":"AVENHAM SURGERY","pcn":"U92975","lat":53.7604,"lng":-2.691488,"list":7696,"gp_fte":0.5333333333,"rating":"Good","prev":{"asthma":4.692,"atrial_fibrillation":0.794,"copd":1.484,"coronary_heart_disease":2.07,"dementia":0.117,"depression":12.965,"diabetes":6.997,"hypertension":10.935,"obesity":13.88,"serious_mental_illness":1.536,"stroke_tia":0.911}},{"ods":"P81771","name":"PRIMROSE BANK MEDICAL CENTRE","pcn":"U69841","lat":53.746312,"lng":-2.481603,"list":9245,"gp_fte":0.4933333333,"rating":"Good","prev":{"asthma":6.683,"atrial_fibrillation":1.343,"copd":1.898,"coronary_heart_disease":3.419,"dementia":0.409,"depression":13.223,"diabetes":11.47,"hypertension":16.436,"obesity":16.015,"serious_mental_illness":1.657,"stroke_tia":1.385}},{"ods":"P81780","name":"RIVERSIDE FAMILY PRACTICE","pcn":"U69695","lat":53.797846,"lng":-2.237728,"list":5664,"gp_fte":1.1,"rating":"Good","prev":{"asthma":7.59,"atrial_fibrillation":0.758,"copd":1.12,"coronary_heart_disease":2.706,"dementia":0.224,"depression":14.286,"diabetes":11.517,"hypertension":10.481,"obesity":14.021,"serious_mental_illness":1.362,"stroke_tia":1.258}},{"ods":"Y00347","name":"DR JACOBS SURGERY","pcn":"U57096","lat":53.651623,"lng":-2.63515,"list":5493,"gp_fte":1.0133333333,"rating":"Good","prev":{"asthma":6.561,"atrial_fibrillation":2.333,"copd":3.007,"coronary_heart_disease":3.809,"dementia":0.82,"depression":17.931,"diabetes":8.111,"hypertension":18.352,"obesity":16.667,"serious_mental_illness":1.13,"stroke_tia":2.132}},{"ods":"Y01008","name":"BAY MEDICAL GROUP","pcn":"U27624","lat":54.057553,"lng":-2.863635,"list":54069,"gp_fte":24.1866666668,"rating":"Requires improvement","prev":{"asthma":8.321,"atrial_fibrillation":2.843,"copd":3.147,"coronary_heart_disease":4.044,"dementia":1.405,"depression":23.995,"diabetes":9.691,"hypertension":18.63,"obesity":15.433,"serious_mental_illness":1.323,"stroke_tia":2.737}},{"ods":"Y02466","name":"BUCKSHAW VILLAGE HEALTH CENTRE","pcn":"U10791","lat":53.678011,"lng":-2.656912,"list":12466,"gp_fte":4.0466666666,"rating":"Good","prev":{"asthma":6.684,"atrial_fibrillation":1.041,"copd":0.803,"coronary_heart_disease":1.524,"dementia":0.811,"depression":19.708,"diabetes":4.76,"hypertension":9.128,"obesity":16.157,"serious_mental_illness":0.615,"stroke_tia":0.942}},{"ods":"Y02605","name":"ACCRINGTON VICTORIA GP PRACTICE","pcn":"U96653","lat":53.758603,"lng":-2.365152,"list":4136,"gp_fte":2.4213333334,"rating":null,"prev":{"asthma":7.854,"atrial_fibrillation":1.34,"copd":2.305,"coronary_heart_disease":2.412,"dementia":0.563,"depression":20.607,"diabetes":7.879,"hypertension":12.356,"obesity":18.313,"serious_mental_illness":0.911,"stroke_tia":1.823}},{"ods":"Y02606","name":"FAIRMORE MEDICAL PRACTICE","pcn":"U31504","lat":53.778979,"lng":-2.241923,"list":6270,"gp_fte":1.7253333333,"rating":null,"prev":{"asthma":6.307,"atrial_fibrillation":1.048,"copd":2.243,"coronary_heart_disease":2.243,"dementia":0.213,"depression":21.338,"diabetes":7.543,"hypertension":9.645,"obesity":15.764,"serious_mental_illness":1.113,"stroke_tia":1.425}},{"ods":"Y02657","name":"BENTHAM ROAD HEALTH CENTRE","pcn":"U48502","lat":53.729828,"lng":-2.500891,"list":8454,"gp_fte":2.3260564193,"rating":"Good","prev":{"asthma":7.775,"atrial_fibrillation":1.84,"copd":2.502,"coronary_heart_disease":2.574,"dementia":0.493,"depression":28.868,"diabetes":7.1,"hypertension":14.446,"obesity":15.671,"serious_mental_illness":1.371,"stroke_tia":1.648}}]