[{"ods":"C82001","name":"SOUTH LEICESTERSHIRE MEDICAL GROUP","pcn":"U30213","lat":52.52262,"lng":-0.983921,"list":25823,"gp_fte":10.5856000001,"rating":"Requires improvement","prev":{"asthma":7.749,"atrial_fibrillation":2.938,"copd":1.475,"coronary_heart_disease":2.863,"dementia":0.771,"depression":13.063,"diabetes":6.908,"hypertension":17.959,"obesity":10.333,"serious_mental_illness":0.783,"stroke_tia":1.994}},{"ods":"C82002","name":"COUNTESTHORPE HEALTH CENTRE","pcn":"U71931","lat":52.549543,"lng":-1.147043,"list":10896,"gp_fte":5.64,"rating":"Good","prev":{"asthma":7.011,"atrial_fibrillation":2.447,"copd":1.671,"coronary_heart_disease":2.922,"dementia":0.712,"depression":14.474,"diabetes":7.285,"hypertension":16.919,"obesity":12.59,"serious_mental_illness":0.603,"stroke_tia":1.735}},{"ods":"C82003","name":"GREENGATE MEDICAL CENTRE","pcn":"U63948","lat":52.682977,"lng":-1.129341,"list":11557,"gp_fte":7.7066666667,"rating":"Good","prev":{"asthma":6.492,"atrial_fibrillation":2.78,"copd":1.062,"coronary_heart_disease":3.246,"dementia":0.984,"depression":13.003,"diabetes":8.96,"hypertension":17.89,"obesity":11.896,"serious_mental_illness":0.639,"stroke_tia":2.167}},{"ods":"C82005","name":"GROBY ROAD MEDICAL CENTRE (ID PATCHETT)","pcn":"U87499","lat":52.646023,"lng":-1.156077,"list":10861,"gp_fte":3.0133333332,"rating":"Good","prev":{"asthma":5.13,"atrial_fibrillation":1.47,"copd":1.884,"coronary_heart_disease":2.47,"dementia":0.667,"depression":7.606,"diabetes":9.224,"hypertension":14.695,"obesity":12.904,"serious_mental_illness":0.784,"stroke_tia":1.424}},{"ods":"C82007","name":"CASTLE DONINGTON SURGERY","pcn":"U42007","lat":52.839478,"lng":-1.350638,"list":10700,"gp_fte":7.0933333333,"rating":"Good","prev":{"asthma":8.588,"atrial_fibrillation":3.099,"copd":1.583,"coronary_heart_disease":3.598,"dementia":1.102,"depression":11.751,"diabetes":7.182,"hypertension":16.522,"obesity":14.103,"serious_mental_illness":0.641,"stroke_tia":2.317}},{"ods":"C82008","name":"OAKMEADOW SURGERY (GJ INGRAMS)","pcn":"U48026","lat":52.641845,"lng":-1.193426,"list":8350,"gp_fte":4.56,"rating":"Good","prev":{"asthma":7.44,"atrial_fibrillation":2.059,"copd":2.836,"coronary_heart_disease":2.883,"dementia":0.6,"depression":21.396,"diabetes":10.009,"hypertension":15.568,"obesity":13.755,"serious_mental_illness":1.294,"stroke_tia":1.859}},{"ods":"C82009","name":"MARKET HARBOROUGH MED.CTR","pcn":"U50165","lat":52.47901,"lng":-0.925405,"list":29464,"gp_fte":10.6933333333,"rating":"Good","prev":{"asthma":6.822,"atrial_fibrillation":3.103,"copd":1.695,"coronary_heart_disease":3.284,"dementia":1.295,"depression":15.425,"diabetes":6.857,"hypertension":16.849,"obesity":11.852,"serious_mental_illness":1.005,"stroke_tia":2.331}},{"ods":"C82010","name":"OAKHAM MEDICAL PRACTICE","pcn":"U67590","lat":52.674372,"lng":-0.73604,"list":14978,"gp_fte":6.5466666668,"rating":"Good","prev":{"asthma":6.679,"atrial_fibrillation":4.12,"copd":2.2,"coronary_heart_disease":3.613,"dementia":1.247,"depression":11.193,"diabetes":8.045,"hypertension":21.187,"obesity":16.286,"serious_mental_illness":1.02,"stroke_tia":2.913}},{"ods":"C82011","name":"PINFOLD MEDICAL PRACTICE","pcn":"U76772","lat":52.766093,"lng":-1.211978,"list":12622,"gp_fte":7.464,"rating":"Good","prev":{"asthma":5.69,"atrial_fibrillation":2.449,"copd":2.036,"coronary_heart_disease":2.632,"dementia":0.779,"depression":19.097,"diabetes":8.88,"hypertension":15.738,"obesity":11.787,"serious_mental_illness":1.241,"stroke_tia":1.805}},{"ods":"C82012","name":"IBSTOCK & BARLESTONE SURGERIES","pcn":"U42007","lat":52.687941,"lng":-1.392718,"list":12124,"gp_fte":6.5866666667,"rating":"Good","prev":{"asthma":8.568,"atrial_fibrillation":2.778,"copd":2.198,"coronary_heart_disease":2.804,"dementia":0.631,"depression":18.825,"diabetes":8.546,"hypertension":18.397,"obesity":18.432,"serious_mental_illness":0.606,"stroke_tia":1.869}},{"ods":"C82013","name":"BUSHLOE SURGERY","pcn":"U09521","lat":52.582583,"lng":-1.108127,"list":13429,"gp_fte":7.3059752031,"rating":"Good","prev":{"asthma":7.606,"atrial_fibrillation":2.992,"copd":2.511,"coronary_heart_disease":3.488,"dementia":1.075,"depression":19.97,"diabetes":10.154,"hypertension":19.69,"obesity":19.011,"serious_mental_illness":1.0,"stroke_tia":2.376}},{"ods":"C82014","name":"CASTLE MEDICAL GROUP","pcn":"U42007","lat":52.748577,"lng":-1.480493,"list":18130,"gp_fte":10.5666666668,"rating":"Good","prev":{"asthma":8.39,"atrial_fibrillation":3.002,"copd":1.913,"coronary_heart_disease":3.057,"dementia":0.818,"depression":17.862,"diabetes":7.742,"hypertension":17.214,"obesity":11.841,"serious_mental_illness":0.713,"stroke_tia":1.929}},{"ods":"C82016","name":"LONG CLAWSON MEDICAL PRACTICE","pcn":"U25294","lat":52.847165,"lng":-0.861349,"list":11016,"gp_fte":5.2618666668,"rating":"Good","prev":{"asthma":7.188,"atrial_fibrillation":3.267,"copd":1.747,"coronary_heart_disease":3.239,"dementia":0.874,"depression":13.829,"diabetes":6.687,"hypertension":18.18,"obesity":16.803,"serious_mental_illness":0.628,"stroke_tia":1.756}},{"ods":"C82017","name":"MEASHAM MEDICAL UNIT","pcn":"U42007","lat":52.704361,"lng":-1.526111,"list":16000,"gp_fte":9.9466666666,"rating":"Good","prev":{"asthma":7.476,"atrial_fibrillation":2.771,"copd":1.636,"coronary_heart_disease":3.24,"dementia":0.583,"depression":14.426,"diabetes":8.181,"hypertension":17.577,"obesity":14.031,"serious_mental_illness":0.672,"stroke_tia":2.454}},{"ods":"C82018","name":"MANOR PARK MEDICAL PRACTICE","pcn":"U08206","lat":52.661593,"lng":-1.124552,"list":14011,"gp_fte":5.0799999999,"rating":"Good","prev":{"asthma":6.373,"atrial_fibrillation":1.401,"copd":1.621,"coronary_heart_disease":3.193,"dementia":0.647,"depression":14.88,"diabetes":13.847,"hypertension":16.055,"obesity":17.867,"serious_mental_illness":1.216,"stroke_tia":1.799}},{"ods":"C82019","name":"STURDEE ROAD HEALTH AND WELLBEING CENTRE","pcn":"U54764","lat":52.591676,"lng":-1.146359,"list":5851,"gp_fte":1.44,"rating":"Good","prev":{"asthma":5.967,"atrial_fibrillation":1.567,"copd":2.359,"coronary_heart_disease":2.208,"dementia":0.438,"depression":12.085,"diabetes":10.678,"hypertension":15.622,"obesity":14.728,"serious_mental_illness":0.758,"stroke_tia":1.517}},{"ods":"C82020","name":"DE MONTFORT SURGERY","pcn":"U00147","lat":52.624003,"lng":-1.136513,"list":20121,"gp_fte":4.7965333334,"rating":"Good","prev":{"asthma":2.181,"atrial_fibrillation":0.195,"copd":0.305,"coronary_heart_disease":0.386,"dementia":0.195,"depression":5.557,"diabetes":1.834,"hypertension":2.97,"obesity":4.914,"serious_mental_illness":0.662,"stroke_tia":0.228}},{"ods":"C82021","name":"THE CENTRAL SURGERY","pcn":"U09521","lat":52.595987,"lng":-1.079998,"list":7210,"gp_fte":1.7333333334,"rating":"Good","prev":{"asthma":6.009,"atrial_fibrillation":2.345,"copd":1.185,"coronary_heart_disease":2.845,"dementia":1.304,"depression":11.864,"diabetes":8.775,"hypertension":16.201,"obesity":10.153,"serious_mental_illness":1.251,"stroke_tia":2.028}},{"ods":"C82022","name":"THE BILLESDON SURGERY","pcn":"U30213","lat":52.619044,"lng":-0.968062,"list":7334,"gp_fte":5.52,"rating":"Good","prev":{"asthma":6.968,"atrial_fibrillation":3.28,"copd":1.531,"coronary_heart_disease":3.676,"dementia":0.984,"depression":11.968,"diabetes":7.423,"hypertension":19.27,"obesity":11.666,"serious_mental_illness":0.861,"stroke_tia":2.405}},{"ods":"C82024","name":"SPINNEY HILL MEDICAL CENTRE","pcn":"U64426","lat":52.641948,"lng":-1.104951,"list":19948,"gp_fte":8.4986666668,"rating":"Good","prev":{"asthma":4.804,"atrial_fibrillation":0.838,"copd":0.394,"coronary_heart_disease":3.153,"dementia":0.626,"depression":6.695,"diabetes":17.915,"hypertension":18.283,"obesity":15.783,"serious_mental_illness":0.902,"stroke_tia":1.542}},{"ods":"C82025","name":"THE WYCLIFFE MEDICAL PRACTICE","pcn":"U71931","lat":52.46063,"lng":-1.201315,"list":10730,"gp_fte":8.0293333333,"rating":"Good","prev":{"asthma":7.111,"atrial_fibrillation":3.143,"copd":2.114,"coronary_heart_disease":3.235,"dementia":0.946,"depression":26.238,"diabetes":7.8,"hypertension":20.719,"obesity":14.363,"serious_mental_illness":0.686,"stroke_tia":2.169}},{"ods":"C82026","name":"BRIDGE STREET MEDICAL PRACTICE","pcn":"U76772","lat":52.767713,"lng":-1.215948,"list":8243,"gp_fte":4.8266666666,"rating":"Good","prev":{"asthma":6.325,"atrial_fibrillation":2.399,"copd":1.627,"coronary_heart_disease":2.845,"dementia":1.266,"depression":16.459,"diabetes":8.084,"hypertension":15.744,"obesity":14.219,"serious_mental_illness":1.423,"stroke_tia":2.146}},{"ods":"C82027","name":"THE OLD SCHOOL SURGERY","pcn":"U95499","lat":52.544875,"lng":-1.281393,"list":7451,"gp_fte":2.9466666667,"rating":"Good","prev":{"asthma":6.266,"atrial_fibrillation":2.504,"copd":1.537,"coronary_heart_disease":2.875,"dementia":1.02,"depression":18.718,"diabetes":8.555,"hypertension":16.985,"obesity":12.749,"serious_mental_illness":0.662,"stroke_tia":2.16}},{"ods":"C82028","name":"MARKFIELD MEDICAL CENTRE","pcn":"U42007","lat":52.684194,"lng":-1.283846,"list":7330,"gp_fte":2.72,"rating":"Good","prev":{"asthma":8.304,"atrial_fibrillation":3.596,"copd":2.608,"coronary_heart_disease":4.008,"dementia":1.084,"depression":17.65,"diabetes":9.508,"hypertension":21.631,"obesity":12.145,"serious_mental_illness":0.933,"stroke_tia":2.8}},{"ods":"C82030","name":"DOWNING DRIVE SURGERY","pcn":"U73005","lat":52.625934,"lng":-1.061188,"list":6862,"gp_fte":3.9333333332,"rating":"Good","prev":{"asthma":7.735,"atrial_fibrillation":2.683,"copd":1.298,"coronary_heart_disease":4.154,"dementia":1.341,"depression":9.813,"diabetes":13.536,"hypertension":22.184,"obesity":12.403,"serious_mental_illness":0.938,"stroke_tia":2.149}},{"ods":"C82031","name":"JOHNSON MEDICAL PRACTICE","pcn":"U73005","lat":52.650122,"lng":-1.070085,"list":14920,"gp_fte":5.9200000001,"rating":"Good","prev":{"asthma":5.513,"atrial_fibrillation":0.878,"copd":0.891,"coronary_heart_disease":2.118,"dementia":0.416,"depression":12.613,"diabetes":11.746,"hypertension":11.998,"obesity":19.529,"serious_mental_illness":0.945,"stroke_tia":1.113}},{"ods":"C82032","name":"THE ANSTEY SURGERY","pcn":"U33192","lat":52.677781,"lng":-1.189615,"list":7352,"gp_fte":4.0586666666,"rating":"Good","prev":{"asthma":7.836,"atrial_fibrillation":3.042,"copd":1.656,"coronary_heart_disease":3.432,"dementia":0.767,"depression":14.989,"diabetes":7.618,"hypertension":17.97,"obesity":14.972,"serious_mental_illness":0.821,"stroke_tia":1.817}},{"ods":"C82033","name":"HUMBERSTONE MEDICAL CENTRE (IP JONES)","pcn":"U73005","lat":52.64538,"lng":-1.077145,"list":11493,"gp_fte":5.0053333333,"rating":"Good","prev":{"asthma":6.757,"atrial_fibrillation":1.297,"copd":1.63,"coronary_heart_disease":2.5,"dementia":0.785,"depression":17.059,"diabetes":11.131,"hypertension":13.463,"obesity":11.09,"serious_mental_illness":1.331,"stroke_tia":1.391}},{"ods":"C82034","name":"QUORN MEDICAL CENTRE","pcn":"U33192","lat":52.733996,"lng":-1.164736,"list":9658,"gp_fte":3.9866666666,"rating":"Outstanding","prev":{"asthma":6.439,"atrial_fibrillation":3.275,"copd":1.377,"coronary_heart_disease":2.602,"dementia":1.163,"depression":13.479,"diabetes":5.453,"hypertension":14.875,"obesity":11.254,"serious_mental_illness":0.786,"stroke_tia":2.102}},{"ods":"C82035","name":"PARK VIEW SURGERY","pcn":"U76772","lat":52.763517,"lng":-1.21296,"list":7891,"gp_fte":4.2666666667,"rating":"Good","prev":{"asthma":6.325,"atrial_fibrillation":2.443,"copd":1.683,"coronary_heart_disease":2.829,"dementia":0.872,"depression":14.137,"diabetes":8.541,"hypertension":14.87,"obesity":11.397,"serious_mental_illness":1.533,"stroke_tia":1.795}},{"ods":"C82037","name":"EAST PARK MEDICAL CENTRE (RP PANDYA)","pcn":"U64426","lat":52.640903,"lng":-1.103562,"list":10309,"gp_fte":2.4,"rating":"Requires improvement","prev":{"asthma":4.59,"atrial_fibrillation":1.011,"copd":0.515,"coronary_heart_disease":3.71,"dementia":0.782,"depression":7.93,"diabetes":19.366,"hypertension":19.788,"obesity":15.387,"serious_mental_illness":1.049,"stroke_tia":1.392}},{"ods":"C82038","name":"LATHAM HOUSE MEDICAL PRACTICE","pcn":"U25294","lat":52.764971,"lng":-0.895241,"list":37325,"gp_fte":14.0266666666,"rating":"Good","prev":{"asthma":7.955,"atrial_fibrillation":3.042,"copd":1.9,"coronary_heart_disease":3.228,"dementia":0.974,"depression":20.662,"diabetes":8.447,"hypertension":18.681,"obesity":15.922,"serious_mental_illness":0.88,"stroke_tia":2.184}},{"ods":"C82039","name":"KINGSWAY SURGERY","pcn":"U12169","lat":52.610899,"lng":-1.181837,"list":11056,"gp_fte":4.0106666665,"rating":"Good","prev":{"asthma":5.042,"atrial_fibrillation":1.907,"copd":1.464,"coronary_heart_disease":2.738,"dementia":0.533,"depression":16.568,"diabetes":9.858,"hypertension":18.048,"obesity":15.194,"serious_mental_illness":0.741,"stroke_tia":1.446}},{"ods":"C82041","name":"CHARNWOOD MEDICAL GROUP","pcn":"U51667","lat":52.764094,"lng":-1.221309,"list":13127,"gp_fte":6.9666666666,"rating":null,"prev":{"asthma":6.499,"atrial_fibrillation":2.203,"copd":1.756,"coronary_heart_disease":2.858,"dementia":0.47,"depression":13.171,"diabetes":7.937,"hypertension":13.065,"obesity":13.228,"serious_mental_illness":1.179,"stroke_tia":2.041}},{"ods":"C82042","name":"THE COUNTY PRACTICE","pcn":"U25294","lat":52.706967,"lng":-1.055332,"list":12848,"gp_fte":6.9066666667,"rating":"Good","prev":{"asthma":6.624,"atrial_fibrillation":3.176,"copd":1.776,"coronary_heart_disease":3.238,"dementia":0.928,"depression":10.774,"diabetes":8.094,"hypertension":16.373,"obesity":13.035,"serious_mental_illness":0.731,"stroke_tia":2.24}},{"ods":"C82043","name":"STATION VIEW HEALTH CENTRE","pcn":"U35987","lat":52.54059,"lng":-1.372824,"list":10933,"gp_fte":6.96,"rating":"Good","prev":{"asthma":6.528,"atrial_fibrillation":2.976,"copd":1.766,"coronary_heart_disease":2.555,"dementia":0.923,"depression":15.46,"diabetes":8.214,"hypertension":16.879,"obesity":11.557,"serious_mental_illness":0.843,"stroke_tia":2.106}},{"ods":"C82044","name":"EMPINGHAM MEDICAL CENTRE","pcn":"U67590","lat":52.663764,"lng":-0.611079,"list":9444,"gp_fte":4.86,"rating":"Good","prev":{"asthma":9.644,"atrial_fibrillation":3.649,"copd":1.75,"coronary_heart_disease":3.734,"dementia":0.987,"depression":15.383,"diabetes":5.803,"hypertension":18.691,"obesity":16.54,"serious_mental_illness":0.53,"stroke_tia":2.122}},{"ods":"C82045","name":"WHITWICK ROAD SURGERY","pcn":"U42007","lat":52.725856,"lng":-1.366359,"list":8654,"gp_fte":3.1199999999,"rating":"Good","prev":{"asthma":7.297,"atrial_fibrillation":2.149,"copd":1.832,"coronary_heart_disease":2.32,"dementia":0.623,"depression":19.545,"diabetes":8.338,"hypertension":15.13,"obesity":12.572,"serious_mental_illness":0.757,"stroke_tia":1.551}},{"ods":"C82046","name":"SAFFRON GROUP PRACTICE","pcn":"U54764","lat":52.600968,"lng":-1.139621,"list":17148,"gp_fte":8.1546666667,"rating":"Good","prev":{"asthma":6.556,"atrial_fibrillation":1.85,"copd":2.758,"coronary_heart_disease":2.649,"dementia":0.529,"depression":23.89,"diabetes":9.973,"hypertension":14.801,"obesity":17.19,"serious_mental_illness":1.655,"stroke_tia":1.707}},{"ods":"C82047","name":"MAPLES FAMILY MED.PRACT.","pcn":"U35987","lat":52.544364,"lng":-1.371908,"list":10641,"gp_fte":3.6800000001,"rating":"Good","prev":{"asthma":7.973,"atrial_fibrillation":2.651,"copd":2.07,"coronary_heart_disease":2.951,"dementia":0.693,"depression":16.124,"diabetes":7.618,"hypertension":15.942,"obesity":10.346,"serious_mental_illness":0.937,"stroke_tia":2.023}},{"ods":"C82048","name":"ROSEMEAD DRIVE SURGERY","pcn":"U09521","lat":52.594953,"lng":-1.079491,"list":5372,"gp_fte":3.0146666668,"rating":"Good","prev":{"asthma":5.832,"atrial_fibrillation":2.682,"copd":1.492,"coronary_heart_disease":3.892,"dementia":0.948,"depression":10.488,"diabetes":12.261,"hypertension":20.488,"obesity":13.52,"serious_mental_illness":1.008,"stroke_tia":2.541}},{"ods":"C82050","name":"LONG LANE SURGERY","pcn":"U42007","lat":52.723774,"lng":-1.363403,"list":13930,"gp_fte":4.8624000001,"rating":"Good","prev":{"asthma":7.714,"atrial_fibrillation":2.659,"copd":2.282,"coronary_heart_disease":3.078,"dementia":0.825,"depression":15.325,"diabetes":8.975,"hypertension":18.129,"obesity":14.94,"serious_mental_illness":0.768,"stroke_tia":1.799}},{"ods":"C82051","name":"NEWBOLD VERDON MED.PRACT.","pcn":"U74544","lat":52.63485,"lng":-1.37643,"list":11926,"gp_fte":5.0133333333,"rating":"Good","prev":{"asthma":7.814,"atrial_fibrillation":3.582,"copd":1.657,"coronary_heart_disease":3.524,"dementia":1.18,"depression":15.637,"diabetes":7.915,"hypertension":19.593,"obesity":10.624,"serious_mental_illness":0.569,"stroke_tia":2.302}},{"ods":"C82052","name":"DR AM LEWIS' PRACTICE","pcn":"U42007","lat":52.743631,"lng":-1.363513,"list":3713,"gp_fte":2.2133333334,"rating":"Good","prev":{"asthma":8.079,"atrial_fibrillation":3.189,"copd":2.76,"coronary_heart_disease":3.457,"dementia":0.804,"depression":16.619,"diabetes":10.227,"hypertension":22.026,"obesity":17.996,"serious_mental_illness":0.777,"stroke_tia":2.331}},{"ods":"C82053","name":"HOCKLEY FARM MED PRACT (A NANA)","pcn":"U48026","lat":52.627026,"lng":-1.18297,"list":10984,"gp_fte":3.4266666666,"rating":"Requires improvement","prev":{"asthma":7.573,"atrial_fibrillation":1.649,"copd":3.978,"coronary_heart_disease":2.565,"dementia":0.625,"depression":26.323,"diabetes":10.128,"hypertension":15.641,"obesity":18.907,"serious_mental_illness":1.604,"stroke_tia":1.686}},{"ods":"C82054","name":"THE BURBAGE SURGERY","pcn":"U95499","lat":52.527545,"lng":-1.355156,"list":12516,"gp_fte":4.9333333335,"rating":"Good","prev":{"asthma":8.553,"atrial_fibrillation":2.989,"copd":1.597,"coronary_heart_disease":3.055,"dementia":1.22,"depression":18.804,"diabetes":8.589,"hypertension":19.451,"obesity":11.984,"serious_mental_illness":0.811,"stroke_tia":2.244}},{"ods":"C82055","name":"THE LIMES MEDICAL CENTRE","pcn":"U12169","lat":52.570624,"lng":-1.212362,"list":14369,"gp_fte":7.25,"rating":"Good","prev":{"asthma":7.679,"atrial_fibrillation":2.86,"copd":1.988,"coronary_heart_disease":3.151,"dementia":0.942,"depression":18.928,"diabetes":7.191,"hypertension":18.118,"obesity":11.193,"serious_mental_illness":0.81,"stroke_tia":2.057}},{"ods":"C82056","name":"THE GLENFIELD SURGERY","pcn":"U87499","lat":52.655714,"lng":-1.208657,"list":14059,"gp_fte":9.7066666669,"rating":"Good","prev":{"asthma":6.47,"atrial_fibrillation":3.053,"copd":1.498,"coronary_heart_disease":3.988,"dementia":0.806,"depression":19.086,"diabetes":8.752,"hypertension":20.609,"obesity":7.852,"serious_mental_illness":0.621,"stroke_tia":2.076}},{"ods":"C82059","name":"WESTCOTES GP SURGERY (ONE)","pcn":"U36231","lat":52.626018,"lng":-1.154913,"list":1888,"gp_fte":0.3333333333,"rating":null,"prev":{"asthma":2.532,"atrial_fibrillation":0.686,"copd":0.739,"coronary_heart_disease":1.266,"dementia":0.317,"depression":7.328,"diabetes":5.191,"hypertension":10.554,"obesity":5.396,"serious_mental_illness":1.055,"stroke_tia":1.214}},{"ods":"C82060","name":"THE PRACTICE-SAYEED","pcn":"U00147","lat":52.628111,"lng":-1.101687,"list":4105,"gp_fte":0.8533333333,"rating":"Good","prev":{"asthma":5.766,"atrial_fibrillation":0.427,"copd":0.404,"coronary_heart_disease":2.753,"dementia":0.214,"depression":5.467,"diabetes":14.602,"hypertension":11.322,"obesity":10.088,"serious_mental_illness":0.831,"stroke_tia":0.973}},{"ods":"C82061","name":"BARWELL & HOLLYCROFT MEDICAL CENTRES","pcn":"U95499","lat":52.555607,"lng":-1.367414,"list":15580,"gp_fte":10.1333333332,"rating":null,"prev":{"asthma":8.435,"atrial_fibrillation":2.213,"copd":1.967,"coronary_heart_disease":2.339,"dementia":0.744,"depression":19.816,"diabetes":8.584,"hypertension":15.053,"obesity":15.604,"serious_mental_illness":0.758,"stroke_tia":1.794}},{"ods":"C82062","name":"BARROW HEALTH CENTRE","pcn":"U33192","lat":52.758028,"lng":-1.135962,"list":9028,"gp_fte":3.2,"rating":"Good","prev":{"asthma":6.96,"atrial_fibrillation":2.911,"copd":1.807,"coronary_heart_disease":2.811,"dementia":0.77,"depression":14.889,"diabetes":6.942,"hypertension":17.89,"obesity":12.33,"serious_mental_illness":0.836,"stroke_tia":1.996}},{"ods":"C82063","name":"EAST LEICESTER MED PRACT(S LONGWORTH)","pcn":"U73005","lat":52.641079,"lng":-1.088224,"list":12122,"gp_fte":6.2639999999,"rating":"Good","prev":{"asthma":5.72,"atrial_fibrillation":1.321,"copd":1.505,"coronary_heart_disease":2.394,"dementia":0.536,"depression":9.586,"diabetes":11.742,"hypertension":13.803,"obesity":15.351,"serious_mental_illness":1.081,"stroke_tia":1.385}},{"ods":"C82064","name":"FOREST HOUSE SURGERY","pcn":"U51667","lat":52.766694,"lng":-1.293484,"list":12282,"gp_fte":7.6530666667,"rating":"Good","prev":{"asthma":9.361,"atrial_fibrillation":3.0,"copd":1.492,"coronary_heart_disease":3.267,"dementia":1.378,"depression":18.192,"diabetes":9.361,"hypertension":18.907,"obesity":10.242,"serious_mental_illness":1.192,"stroke_tia":2.197}},{"ods":"C82066","name":"FOREST MEDICAL GROUP","pcn":"U12169","lat":52.619878,"lng":-1.2175,"list":17572,"gp_fte":5.9733333333,"rating":null,"prev":{"asthma":6.704,"atrial_fibrillation":2.552,"copd":1.399,"coronary_heart_disease":2.728,"dementia":1.288,"depression":15.846,"diabetes":8.138,"hypertension":14.993,"obesity":12.405,"serious_mental_illness":0.782,"stroke_tia":1.84}},{"ods":"C82067","name":"THE CROFT MEDICAL CENTRE","pcn":"U09521","lat":52.596068,"lng":-1.072984,"list":8703,"gp_fte":4.76,"rating":"Good","prev":{"asthma":7.01,"atrial_fibrillation":2.428,"copd":0.971,"coronary_heart_disease":3.388,"dementia":0.757,"depression":10.128,"diabetes":11.365,"hypertension":18.758,"obesity":11.766,"serious_mental_illness":0.576,"stroke_tia":2.089}},{"ods":"C82068","name":"NORTHFIELD MEDICAL CENTRE","pcn":"U71931","lat":52.567161,"lng":-1.172322,"list":12364,"gp_fte":6.0,"rating":"Good","prev":{"asthma":6.966,"atrial_fibrillation":3.423,"copd":2.341,"coronary_heart_disease":3.059,"dementia":1.162,"depression":18.912,"diabetes":8.823,"hypertension":19.172,"obesity":13.492,"serious_mental_illness":0.856,"stroke_tia":2.293}},{"ods":"C82070","name":"WOODBROOK MEDICAL CENTRE","pcn":"U76772","lat":52.768671,"lng":-1.219057,"list":10232,"gp_fte":4.7133333334,"rating":"Good","prev":{"asthma":7.087,"atrial_fibrillation":2.021,"copd":1.974,"coronary_heart_disease":2.938,"dementia":0.765,"depression":12.434,"diabetes":9.41,"hypertension":16.275,"obesity":15.876,"serious_mental_illness":1.559,"stroke_tia":1.87}},{"ods":"C82071","name":"WIGSTON CENTRAL SURGERY","pcn":"U09521","lat":52.58645,"lng":-1.108316,"list":14385,"gp_fte":6.7733333334,"rating":"Good","prev":{"asthma":6.944,"atrial_fibrillation":2.507,"copd":1.648,"coronary_heart_disease":3.04,"dementia":0.909,"depression":14.889,"diabetes":9.728,"hypertension":17.081,"obesity":13.52,"serious_mental_illness":0.923,"stroke_tia":1.96}},{"ods":"C82072","name":"BROOM LEYS SURGERY","pcn":"U42007","lat":52.723863,"lng":-1.345492,"list":8763,"gp_fte":3.5733333333,"rating":"Good","prev":{"asthma":8.037,"atrial_fibrillation":2.518,"copd":2.236,"coronary_heart_disease":3.318,"dementia":0.788,"depression":23.204,"diabetes":9.37,"hypertension":18.075,"obesity":19.605,"serious_mental_illness":0.753,"stroke_tia":1.965}},{"ods":"C82073","name":"MERRIDALE MEDICAL CENTRE (RP TEW)","pcn":"U87332","lat":52.622873,"lng":-1.165376,"list":14077,"gp_fte":3.5600000001,"rating":"Good","prev":{"asthma":5.496,"atrial_fibrillation":1.259,"copd":1.994,"coronary_heart_disease":2.157,"dementia":0.374,"depression":15.618,"diabetes":8.229,"hypertension":12.248,"obesity":10.906,"serious_mental_illness":1.055,"stroke_tia":1.3}},{"ods":"C82075","name":"CASTLE MEAD MEDICAL CENTRE","pcn":"U35987","lat":52.547287,"lng":-1.380978,"list":10996,"gp_fte":6.4266666668,"rating":"Good","prev":{"asthma":7.22,"atrial_fibrillation":2.926,"copd":1.84,"coronary_heart_disease":3.607,"dementia":0.617,"depression":18.117,"diabetes":7.464,"hypertension":19.095,"obesity":13.835,"serious_mental_illness":1.012,"stroke_tia":2.485}},{"ods":"C82077","name":"THE UPPINGHAM SURGERY","pcn":"U67590","lat":52.584744,"lng":-0.706315,"list":12687,"gp_fte":3.6533333335,"rating":"Good","prev":{"asthma":7.179,"atrial_fibrillation":3.607,"copd":1.96,"coronary_heart_disease":3.342,"dementia":0.757,"depression":13.511,"diabetes":6.434,"hypertension":19.66,"obesity":8.457,"serious_mental_illness":0.687,"stroke_tia":2.342}},{"ods":"C82078","name":"THE JUBILEE MEDICAL PRACTICE","pcn":"U25294","lat":52.703962,"lng":-1.06097,"list":11855,"gp_fte":7.0480000001,"rating":"Good","prev":{"asthma":6.471,"atrial_fibrillation":2.829,"copd":2.176,"coronary_heart_disease":3.516,"dementia":0.835,"depression":15.448,"diabetes":9.376,"hypertension":19.472,"obesity":10.525,"serious_mental_illness":0.943,"stroke_tia":2.267}},{"ods":"C82079","name":"SOUTH WIGSTON HEALTH CTR.","pcn":"U09521","lat":52.58187,"lng":-1.124603,"list":6844,"gp_fte":2.9066666667,"rating":"Good","prev":{"asthma":6.883,"atrial_fibrillation":2.811,"copd":2.552,"coronary_heart_disease":2.811,"dementia":1.023,"depression":16.898,"diabetes":8.991,"hypertension":15.943,"obesity":14.986,"serious_mental_illness":1.254,"stroke_tia":2.321}},{"ods":"C82080","name":"SHEFA MEDICAL PRACTICE","pcn":"U77315","lat":52.630158,"lng":-1.109569,"list":4656,"gp_fte":1.3866666666,"rating":"Good","prev":{"asthma":8.219,"atrial_fibrillation":0.989,"copd":1.01,"coronary_heart_disease":2.82,"dementia":0.61,"depression":14.566,"diabetes":15.193,"hypertension":14.523,"obesity":14.062,"serious_mental_illness":2.105,"stroke_tia":1.494}},{"ods":"C82082","name":"THE CENTRE SURGERY","pcn":"U35987","lat":52.543889,"lng":-1.370544,"list":5558,"gp_fte":1.6149333333,"rating":"Good","prev":{"asthma":6.847,"atrial_fibrillation":2.306,"copd":2.088,"coronary_heart_disease":3.414,"dementia":0.981,"depression":18.248,"diabetes":8.436,"hypertension":19.521,"obesity":17.567,"serious_mental_illness":0.999,"stroke_tia":2.252}},{"ods":"C82084","name":"DR B MODI","pcn":"U64426","lat":52.65453,"lng":-1.109217,"list":3828,"gp_fte":null,"rating":null,"prev":{"asthma":4.344,"atrial_fibrillation":0.868,"copd":1.004,"coronary_heart_disease":2.388,"dementia":0.353,"depression":5.612,"diabetes":13.633,"hypertension":14.627,"obesity":13.105,"serious_mental_illness":0.868,"stroke_tia":1.791}},{"ods":"C82086","name":"FOSSE MEDICAL CENTRE (DR H MUKADAM)","pcn":"U08206","lat":52.63861,"lng":-1.158315,"list":10147,"gp_fte":6.1333333334,"rating":"Good","prev":{"asthma":4.396,"atrial_fibrillation":0.963,"copd":1.604,"coronary_heart_disease":1.651,"dementia":0.283,"depression":14.561,"diabetes":8.119,"hypertension":14.693,"obesity":14.769,"serious_mental_illness":1.0,"stroke_tia":1.114}},{"ods":"C82088","name":"HORIZON HEALTHCARE","pcn":"U03186","lat":52.639564,"lng":-1.109073,"list":10390,"gp_fte":1.6666666667,"rating":"Good","prev":{"asthma":5.492,"atrial_fibrillation":0.69,"copd":0.758,"coronary_heart_disease":3.139,"dementia":0.321,"depression":10.407,"diabetes":16.155,"hypertension":16.249,"obesity":10.026,"serious_mental_illness":1.302,"stroke_tia":1.526}},{"ods":"C82091","name":"BIRSTALL MEDICAL CENTRE","pcn":"U63948","lat":52.673004,"lng":-1.132539,"list":10101,"gp_fte":0.9260564193,"rating":"Good","prev":{"asthma":5.797,"atrial_fibrillation":1.793,"copd":2.411,"coronary_heart_disease":2.689,"dementia":1.051,"depression":17.69,"diabetes":10.055,"hypertension":15.566,"obesity":13.254,"serious_mental_illness":1.04,"stroke_tia":1.597}},{"ods":"C82092","name":"AYLESTONE HEALTH CENTRE","pcn":"U36231","lat":52.604131,"lng":-1.148093,"list":4761,"gp_fte":1.68,"rating":"Requires improvement","prev":{"asthma":5.432,"atrial_fibrillation":1.778,"copd":1.418,"coronary_heart_disease":2.117,"dementia":0.233,"depression":18.079,"diabetes":7.521,"hypertension":13.061,"obesity":9.657,"serious_mental_illness":0.804,"stroke_tia":1.588}},{"ods":"C82093","name":"THE ORCHARD MED PRACTICE","pcn":"U95499","lat":52.520547,"lng":-1.231101,"list":12598,"gp_fte":4.832,"rating":"Good","prev":{"asthma":7.222,"atrial_fibrillation":2.539,"copd":1.592,"coronary_heart_disease":2.459,"dementia":0.661,"depression":14.102,"diabetes":6.324,"hypertension":15.709,"obesity":10.438,"serious_mental_illness":0.653,"stroke_tia":1.83}},{"ods":"C82094","name":"BEAUMONT LODGE MEDICAL PRACTICE","pcn":"U08206","lat":52.662929,"lng":-1.159373,"list":6782,"gp_fte":4.76,"rating":"Good","prev":{"asthma":6.553,"atrial_fibrillation":1.258,"copd":2.18,"coronary_heart_disease":2.371,"dementia":0.38,"depression":11.587,"diabetes":11.174,"hypertension":15.364,"obesity":15.927,"serious_mental_illness":0.98,"stroke_tia":1.229}},{"ods":"C82095","name":"ALPINE HOUSE SURGERY","pcn":"U33192","lat":52.718226,"lng":-1.144154,"list":9069,"gp_fte":4.4933333334,"rating":"Good","prev":{"asthma":7.228,"atrial_fibrillation":2.905,"copd":1.833,"coronary_heart_disease":2.993,"dementia":1.259,"depression":20.91,"diabetes":7.349,"hypertension":17.02,"obesity":11.38,"serious_mental_illness":0.873,"stroke_tia":2.032}},{"ods":"C82096","name":"HUGGLESCOTE SURGERY","pcn":"U42007","lat":52.710313,"lng":-1.363662,"list":10222,"gp_fte":4.6519999999,"rating":"Good","prev":{"asthma":7.946,"atrial_fibrillation":2.104,"copd":1.857,"coronary_heart_disease":2.638,"dementia":0.425,"depression":17.709,"diabetes":7.578,"hypertension":15.284,"obesity":17.236,"serious_mental_illness":0.731,"stroke_tia":1.62}},{"ods":"C82097","name":"CHARNWOOD SURGERY","pcn":"U33192","lat":52.720585,"lng":-1.144275,"list":3053,"gp_fte":0.9066666666,"rating":"Good","prev":{"asthma":7.002,"atrial_fibrillation":2.164,"copd":1.551,"coronary_heart_disease":2.416,"dementia":0.325,"depression":17.373,"diabetes":7.671,"hypertension":16.192,"obesity":17.1,"serious_mental_illness":0.829,"stroke_tia":1.623}},{"ods":"C82098","name":"HAZELMERE MEDICAL CENTRE","pcn":"U71931","lat":52.566096,"lng":-1.17175,"list":7236,"gp_fte":3.7066666668,"rating":"Good","prev":{"asthma":7.501,"atrial_fibrillation":2.686,"copd":1.453,"coronary_heart_disease":2.864,"dementia":1.028,"depression":19.323,"diabetes":8.11,"hypertension":18.912,"obesity":13.761,"serious_mental_illness":0.822,"stroke_tia":2.015}},{"ods":"C82099","name":"AL-WAQAS MEDICAL CENTRE","pcn":"U03186","lat":52.628625,"lng":-1.102038,"list":4594,"gp_fte":1.1733333333,"rating":"Good","prev":{"asthma":5.771,"atrial_fibrillation":0.737,"copd":0.585,"coronary_heart_disease":3.489,"dementia":0.26,"depression":7.286,"diabetes":16.719,"hypertension":13.976,"obesity":17.794,"serious_mental_illness":0.932,"stroke_tia":1.257}},{"ods":"C82100","name":"THE HEDGES MEDICAL CENTRE (SA BAILEY)","pcn":"U54764","lat":52.591996,"lng":-1.148835,"list":6473,"gp_fte":3.4666666665,"rating":"Good","prev":{"asthma":9.072,"atrial_fibrillation":2.579,"copd":3.022,"coronary_heart_disease":3.252,"dementia":2.135,"depression":25.761,"diabetes":10.534,"hypertension":16.508,"obesity":15.137,"serious_mental_illness":1.922,"stroke_tia":2.053}},{"ods":"C82102","name":"MANOR HOUSE SURGERY","pcn":"U42007","lat":52.774687,"lng":-1.377231,"list":4811,"gp_fte":2.7733333333,"rating":"Good","prev":{"asthma":8.062,"atrial_fibrillation":2.664,"copd":1.373,"coronary_heart_disease":3.033,"dementia":0.41,"depression":13.998,"diabetes":6.004,"hypertension":18.361,"obesity":12.976,"serious_mental_illness":0.492,"stroke_tia":1.844}},{"ods":"C82103","name":"DISHLEY GRANGE MEDICAL PRACTICE","pcn":"U51667","lat":52.778945,"lng":-1.24254,"list":6795,"gp_fte":null,"rating":null,"prev":{"asthma":5.984,"atrial_fibrillation":2.264,"copd":2.306,"coronary_heart_disease":2.82,"dementia":0.653,"depression":15.339,"diabetes":10.312,"hypertension":16.725,"obesity":13.526,"serious_mental_illness":1.417,"stroke_tia":2.236}},{"ods":"C82107","name":"COSSINGTON PARK SURGERY","pcn":"U36231","lat":52.651967,"lng":-1.118625,"list":7710,"gp_fte":3.6266666666,"rating":"Requires improvement","prev":{"asthma":4.653,"atrial_fibrillation":0.797,"copd":0.595,"coronary_heart_disease":2.543,"dementia":0.721,"depression":7.783,"diabetes":16.72,"hypertension":15.787,"obesity":13.01,"serious_mental_illness":1.328,"stroke_tia":1.354}},{"ods":"C82109","name":"HUSBANDS BOSWORTH MEDICAL CENTRE","pcn":"U50165","lat":52.452219,"lng":-1.052642,"list":5320,"gp_fte":3.8933333333,"rating":"Good","prev":{"asthma":6.929,"atrial_fibrillation":3.544,"copd":1.831,"coronary_heart_disease":3.019,"dementia":0.74,"depression":12.842,"diabetes":6.447,"hypertension":18.948,"obesity":14.849,"serious_mental_illness":0.584,"stroke_tia":2.356}},{"ods":"C82111","name":"CAMPUS VIEW MEDICAL CENTRE","pcn":"U76772","lat":52.748867,"lng":-1.216496,"list":16430,"gp_fte":2.56,"rating":"Good","prev":{"asthma":2.565,"atrial_fibrillation":0.075,"copd":0.017,"coronary_heart_disease":0.168,"dementia":0.15,"depression":2.802,"diabetes":0.655,"hypertension":0.833,"obesity":2.146,"serious_mental_illness":0.197,"stroke_tia":0.11}},{"ods":"C82112","name":"SEVERN SURGERY","pcn":"U63948","lat":52.593017,"lng":-1.063709,"list":9630,"gp_fte":1.4666666667,"rating":"Good","prev":{"asthma":5.799,"atrial_fibrillation":1.028,"copd":0.799,"coronary_heart_disease":2.055,"dementia":0.374,"depression":11.952,"diabetes":9.397,"hypertension":12.787,"obesity":10.89,"serious_mental_illness":0.82,"stroke_tia":1.297}},{"ods":"C82114","name":"DR U K ROY","pcn":"U87332","lat":52.631288,"lng":-1.157594,"list":2385,"gp_fte":2.7660564193,"rating":"Good","prev":{"asthma":3.307,"atrial_fibrillation":0.955,"copd":1.234,"coronary_heart_disease":1.83,"dementia":0.159,"depression":9.512,"diabetes":7.912,"hypertension":12.216,"obesity":5.987,"serious_mental_illness":0.995,"stroke_tia":0.676}},{"ods":"C82116","name":"HIGHFIELDS SURGERY (R WADHWA)","pcn":"U08206","lat":52.627748,"lng":-1.110798,"list":5093,"gp_fte":1.4666666667,"rating":"Good","prev":{"asthma":4.135,"atrial_fibrillation":0.391,"copd":0.88,"coronary_heart_disease":2.797,"dementia":0.372,"depression":9.448,"diabetes":13.09,"hypertension":13.573,"obesity":18.823,"serious_mental_illness":1.232,"stroke_tia":1.389}},{"ods":"C82119","name":"NARBOROUGH ROAD SURGERY","pcn":"U03186","lat":52.619155,"lng":-1.160311,"list":3298,"gp_fte":1.4666666666,"rating":"Good","prev":{"asthma":3.763,"atrial_fibrillation":1.214,"copd":0.425,"coronary_heart_disease":2.215,"dementia":0.455,"depression":4.271,"diabetes":11.319,"hypertension":14.108,"obesity":7.256,"serious_mental_illness":0.637,"stroke_tia":1.153}},{"ods":"C82120","name":"WHITWICK HEALTH CENTRE","pcn":"U42007","lat":52.741797,"lng":-1.360206,"list":3960,"gp_fte":1.4933333333,"rating":"Good","prev":{"asthma":8.111,"atrial_fibrillation":2.626,"copd":1.957,"coronary_heart_disease":2.497,"dementia":0.85,"depression":14.544,"diabetes":9.141,"hypertension":22.065,"obesity":12.703,"serious_mental_illness":0.669,"stroke_tia":2.214}},{"ods":"C82121","name":"HEATH LANE SURGERY","pcn":"U74544","lat":52.573699,"lng":-1.320188,"list":14826,"gp_fte":4.9866666667,"rating":"Good","prev":{"asthma":7.651,"atrial_fibrillation":2.452,"copd":2.331,"coronary_heart_disease":3.218,"dementia":0.994,"depression":16.116,"diabetes":9.051,"hypertension":17.791,"obesity":17.755,"serious_mental_illness":0.867,"stroke_tia":2.197}},{"ods":"C82124","name":"VICTORIA PARK HEALTH CENTRE","pcn":"U48026","lat":52.614189,"lng":-1.11716,"list":24525,"gp_fte":9.1295999999,"rating":"Good","prev":{"asthma":3.097,"atrial_fibrillation":0.386,"copd":0.195,"coronary_heart_disease":0.494,"dementia":0.115,"depression":7.312,"diabetes":1.85,"hypertension":3.496,"obesity":5.44,"serious_mental_illness":0.545,"stroke_tia":0.326}},{"ods":"C82600","name":"THE BANKS SURGERY","pcn":"U33192","lat":52.734173,"lng":-1.106084,"list":6267,"gp_fte":0.0,"rating":"Good","prev":{"asthma":6.778,"atrial_fibrillation":1.913,"copd":1.704,"coronary_heart_disease":2.331,"dementia":0.531,"depression":18.325,"diabetes":6.645,"hypertension":14.469,"obesity":12.189,"serious_mental_illness":0.916,"stroke_tia":1.415}},{"ods":"C82610","name":"THE PARKS MEDICAL CENTRE (B HAINSWORTH)","pcn":"U87332","lat":52.645308,"lng":-1.174624,"list":6839,"gp_fte":3.3333333334,"rating":"Good","prev":{"asthma":3.466,"atrial_fibrillation":1.055,"copd":1.809,"coronary_heart_disease":1.9,"dementia":0.181,"depression":12.883,"diabetes":8.868,"hypertension":11.776,"obesity":9.734,"serious_mental_illness":0.679,"stroke_tia":0.95}},{"ods":"C82611","name":"THE MASHARANI PRACTICE","pcn":"U71931","lat":52.463877,"lng":-1.200346,"list":7010,"gp_fte":2.7333333334,"rating":"Good","prev":{"asthma":6.842,"atrial_fibrillation":2.624,"copd":1.691,"coronary_heart_disease":2.376,"dementia":0.947,"depression":20.14,"diabetes":6.875,"hypertension":16.863,"obesity":17.092,"serious_mental_illness":0.612,"stroke_tia":1.72}},{"ods":"C82614","name":"SPIRIT PRIMARY CARE LIMITED-ASQUITH","pcn":"U87332","lat":52.601402,"lng":-1.118526,"list":4311,"gp_fte":0.8533333333,"rating":"Good","prev":{"asthma":6.124,"atrial_fibrillation":1.245,"copd":0.677,"coronary_heart_disease":2.513,"dementia":0.743,"depression":14.093,"diabetes":9.009,"hypertension":14.398,"obesity":9.357,"serious_mental_illness":1.071,"stroke_tia":1.355}},{"ods":"C82620","name":"DR S SHAFI","pcn":"U36231","lat":52.626242,"lng":-1.153096,"list":2322,"gp_fte":2.2666666667,"rating":"Good","prev":{"asthma":2.367,"atrial_fibrillation":0.254,"copd":0.254,"coronary_heart_disease":1.648,"dementia":0.211,"depression":5.514,"diabetes":10.194,"hypertension":12.299,"obesity":5.815,"serious_mental_illness":0.719,"stroke_tia":0.761}},{"ods":"C82624","name":"SPIRIT PRIMARY CARE LTD-BEAUMONT LEYS","pcn":"U87332","lat":52.661865,"lng":-1.15281,"list":8306,"gp_fte":3.0933333335,"rating":"Good","prev":{"asthma":5.046,"atrial_fibrillation":0.91,"copd":1.821,"coronary_heart_disease":1.596,"dementia":1.005,"depression":16.191,"diabetes":8.999,"hypertension":11.031,"obesity":12.936,"serious_mental_illness":1.253,"stroke_tia":1.17}},{"ods":"C82627","name":"SILVERDALE MEDICAL CENTRE","pcn":"U63948","lat":52.672847,"lng":-1.091744,"list":8238,"gp_fte":2.56,"rating":"Good","prev":{"asthma":4.899,"atrial_fibrillation":1.905,"copd":1.245,"coronary_heart_disease":3.073,"dementia":0.699,"depression":16.391,"diabetes":12.673,"hypertension":17.793,"obesity":19.031,"serious_mental_illness":0.94,"stroke_tia":1.638}},{"ods":"C82628","name":"GROBY SURGERY","pcn":"U87499","lat":52.660175,"lng":-1.226721,"list":3532,"gp_fte":0.64,"rating":"Good","prev":{"asthma":5.466,"atrial_fibrillation":2.436,"copd":1.36,"coronary_heart_disease":2.748,"dementia":0.623,"depression":18.356,"diabetes":8.041,"hypertension":19.292,"obesity":9.356,"serious_mental_illness":0.68,"stroke_tia":1.926}},{"ods":"C82631","name":"ENDERBY MEDICAL CENTRE","pcn":"U12169","lat":52.584548,"lng":-1.209834,"list":7060,"gp_fte":3.4,"rating":"Good","prev":{"asthma":7.18,"atrial_fibrillation":1.59,"copd":1.339,"coronary_heart_disease":2.259,"dementia":0.404,"depression":18.868,"diabetes":7.2,"hypertension":13.68,"obesity":11.117,"serious_mental_illness":0.92,"stroke_tia":1.422}},{"ods":"C82634","name":"RATBY MEDICAL CENTRE","pcn":"U74544","lat":52.650127,"lng":-1.239029,"list":6453,"gp_fte":3.9866666667,"rating":"Good","prev":{"asthma":6.403,"atrial_fibrillation":1.971,"copd":1.401,"coronary_heart_disease":2.476,"dementia":0.537,"depression":22.616,"diabetes":7.434,"hypertension":16.612,"obesity":12.765,"serious_mental_illness":0.896,"stroke_tia":1.678}},{"ods":"C82639","name":"WESTEND MEDICAL PRACTICE","pcn":"U36231","lat":52.633698,"lng":-1.160242,"list":10134,"gp_fte":3.24,"rating":"Good","prev":{"asthma":6.324,"atrial_fibrillation":1.758,"copd":1.881,"coronary_heart_disease":1.937,"dementia":0.624,"depression":12.185,"diabetes":9.001,"hypertension":15.205,"obesity":12.812,"serious_mental_illness":1.2,"stroke_tia":1.465}},{"ods":"C82642","name":"HIGHFIELDS MEDICAL CENTRE","pcn":"U77315","lat":52.644593,"lng":-1.110107,"list":9604,"gp_fte":2.6666666666,"rating":"Good","prev":{"asthma":4.7,"atrial_fibrillation":0.601,"copd":0.387,"coronary_heart_disease":2.81,"dementia":0.428,"depression":8.308,"diabetes":16.09,"hypertension":14.153,"obesity":15.772,"serious_mental_illness":1.018,"stroke_tia":1.283}},{"ods":"C82643","name":"COMMUNITY HEALTH CENTRE (ZS OSAMA)","pcn":"U77315","lat":52.631825,"lng":-1.107876,"list":14340,"gp_fte":4.12,"rating":"Good","prev":{"asthma":5.422,"atrial_fibrillation":0.387,"copd":0.267,"coronary_heart_disease":2.369,"dementia":0.401,"depression":7.329,"diabetes":16.562,"hypertension":12.602,"obesity":18.712,"serious_mental_illness":0.836,"stroke_tia":0.949}},{"ods":"C82644","name":"DR MK LAKHANI'S PRACTICE","pcn":"U33192","lat":52.735344,"lng":-1.103238,"list":5068,"gp_fte":2.0933333333,"rating":"Good","prev":{"asthma":7.141,"atrial_fibrillation":1.802,"copd":1.622,"coronary_heart_disease":2.423,"dementia":0.36,"depression":21.123,"diabetes":9.182,"hypertension":15.278,"obesity":17.674,"serious_mental_illness":0.921,"stroke_tia":1.742}},{"ods":"C82649","name":"MARKET OVERTON & SOMERBY SURGERIES","pcn":"U67590","lat":52.710527,"lng":-0.757481,"list":5807,"gp_fte":1.12,"rating":"Good","prev":{"asthma":6.892,"atrial_fibrillation":3.556,"copd":1.567,"coronary_heart_disease":3.662,"dementia":0.669,"depression":12.871,"diabetes":7.373,"hypertension":19.137,"obesity":16.094,"serious_mental_illness":0.581,"stroke_tia":2.13}},{"ods":"C82650","name":"DESFORD MEDICAL CENTRE","pcn":"U74544","lat":52.625476,"lng":-1.289817,"list":5414,"gp_fte":2.5333333334,"rating":"Good","prev":{"asthma":7.782,"atrial_fibrillation":2.728,"copd":1.806,"coronary_heart_disease":3.18,"dementia":0.79,"depression":16.326,"diabetes":7.882,"hypertension":15.56,"obesity":9.44,"serious_mental_illness":0.564,"stroke_tia":2.051}},{"ods":"C82651","name":"BROADHURST ST MED PRACT (KS MORJARIA)","pcn":"U64426","lat":52.655464,"lng":-1.11588,"list":3796,"gp_fte":1.6266666666,"rating":"Good","prev":{"asthma":3.22,"atrial_fibrillation":0.707,"copd":0.891,"coronary_heart_disease":2.174,"dementia":0.34,"depression":3.178,"diabetes":18.17,"hypertension":17.129,"obesity":16.46,"serious_mental_illness":0.812,"stroke_tia":1.283}},{"ods":"C82653","name":"WESTCOTES GP SURGERY (TWO)","pcn":"U36231","lat":52.62745,"lng":-1.157357,"list":2071,"gp_fte":0.3333333333,"rating":"Good","prev":{"asthma":2.191,"atrial_fibrillation":0.407,"copd":1.12,"coronary_heart_disease":1.018,"dementia":0.255,"depression":8.291,"diabetes":6.191,"hypertension":7.841,"obesity":5.759,"serious_mental_illness":0.662,"stroke_tia":0.509}},{"ods":"C82656","name":"FIELD STREET SURGERY","pcn":"U51667","lat":52.768923,"lng":-1.29789,"list":3125,"gp_fte":1.3333333333,"rating":null,"prev":{"asthma":6.79,"atrial_fibrillation":2.107,"copd":1.937,"coronary_heart_disease":2.446,"dementia":0.374,"depression":22.095,"diabetes":8.573,"hypertension":16.514,"obesity":12.236,"serious_mental_illness":0.985,"stroke_tia":1.257}},{"ods":"C82659","name":"DR R KAPUR & PARTNERS","pcn":"U03186","lat":52.632823,"lng":-1.109615,"list":2890,"gp_fte":1.6533333333,"rating":"Good","prev":{"asthma":4.123,"atrial_fibrillation":0.405,"copd":0.506,"coronary_heart_disease":2.226,"dementia":0.236,"depression":2.921,"diabetes":17.124,"hypertension":15.683,"obesity":14.777,"serious_mental_illness":0.978,"stroke_tia":1.046}},{"ods":"C82660","name":"ST PETER'S MED CENTRE (MANSINGH & MEHRA)","pcn":"U03186","lat":52.621416,"lng":-1.1148,"list":7444,"gp_fte":1.3866666667,"rating":null,"prev":{"asthma":5.744,"atrial_fibrillation":1.186,"copd":1.186,"coronary_heart_disease":3.585,"dementia":0.977,"depression":10.169,"diabetes":11.591,"hypertension":15.639,"obesity":12.961,"serious_mental_illness":1.702,"stroke_tia":1.688}},{"ods":"C82662","name":"WALNUT ST MED CTR","pcn":"Unaligned","lat":52.623762,"lng":-1.142041,"list":8705,"gp_fte":1.0,"rating":"Good","prev":{"asthma":2.634,"atrial_fibrillation":0.269,"copd":0.421,"coronary_heart_disease":0.808,"dementia":0.129,"depression":5.369,"diabetes":6.556,"hypertension":6.86,"obesity":13.166,"serious_mental_illness":0.679,"stroke_tia":0.468}},{"ods":"C82667","name":"THE CHARNWOOD PRACTICE","pcn":"U64426","lat":52.641309,"lng":-1.091188,"list":8233,"gp_fte":2.2933333334,"rating":"Good","prev":{"asthma":5.326,"atrial_fibrillation":1.227,"copd":1.054,"coronary_heart_disease":2.38,"dementia":0.533,"depression":9.191,"diabetes":15.019,"hypertension":15.049,"obesity":14.462,"serious_mental_illness":1.252,"stroke_tia":1.314}},{"ods":"C82669","name":"THE SURGERY @ AYLESTONE","pcn":"U03186","lat":52.605423,"lng":-1.152774,"list":4192,"gp_fte":2.0133333334,"rating":"Good","prev":{"asthma":6.107,"atrial_fibrillation":1.454,"copd":1.43,"coronary_heart_disease":1.478,"dementia":0.267,"depression":18.427,"diabetes":8.372,"hypertension":11.8,"obesity":11.188,"serious_mental_illness":1.212,"stroke_tia":0.848}},{"ods":"C82670","name":"INCLUSION HEALTHCARE","pcn":"","lat":52.62863,"lng":-1.126603,"list":748,"gp_fte":null,"rating":"Outstanding","prev":{"asthma":8.333,"atrial_fibrillation":0.11,"copd":2.851,"coronary_heart_disease":1.754,"dementia":0.11,"depression":37.212,"diabetes":3.399,"hypertension":5.702,"obesity":8.672,"serious_mental_illness":8.004,"stroke_tia":0.987}},{"ods":"C82671","name":"BRANDON SURGERY DR R KAPUR & PARTNER","pcn":"U03186","lat":52.652176,"lng":-1.11962,"list":8295,"gp_fte":0.7999999999,"rating":"Good","prev":{"asthma":2.275,"atrial_fibrillation":0.322,"copd":0.26,"coronary_heart_disease":1.794,"dementia":0.148,"depression":2.564,"diabetes":15.309,"hypertension":11.843,"obesity":12.897,"serious_mental_illness":0.396,"stroke_tia":0.693}},{"ods":"C82676","name":"ST ELIZABETH'S MEDICAL CENTRE (JA WOOD)","pcn":"U73005","lat":52.644277,"lng":-1.06393,"list":7491,"gp_fte":2.3866666667,"rating":"Good","prev":{"asthma":6.558,"atrial_fibrillation":1.459,"copd":1.803,"coronary_heart_disease":2.478,"dementia":1.087,"depression":13.652,"diabetes":11.441,"hypertension":13.875,"obesity":10.581,"serious_mental_illness":1.239,"stroke_tia":1.487}},{"ods":"C82678","name":"THURMASTON HEALTH CENTRE","pcn":"U63948","lat":52.670484,"lng":-1.097508,"list":5499,"gp_fte":null,"rating":"Requires improvement","prev":{"asthma":6.471,"atrial_fibrillation":2.235,"copd":1.616,"coronary_heart_disease":3.644,"dementia":0.808,"depression":16.846,"diabetes":13.643,"hypertension":20.835,"obesity":15.199,"serious_mental_illness":1.014,"stroke_tia":1.874}},{"ods":"C82680","name":"SPIRIT PRIMARY CARE LTD-RUSHEY MEAD","pcn":"U87332","lat":52.660724,"lng":-1.10039,"list":4717,"gp_fte":0.64,"rating":"Good","prev":{"asthma":5.149,"atrial_fibrillation":1.64,"copd":1.316,"coronary_heart_disease":2.673,"dementia":1.721,"depression":8.865,"diabetes":12.066,"hypertension":16.707,"obesity":11.653,"serious_mental_illness":1.357,"stroke_tia":1.681}},{"ods":"Y00137","name":"WILLOWS HEALTH","pcn":"U00147","lat":52.630154,"lng":-1.101291,"list":32409,"gp_fte":4.4533333334,"rating":null,"prev":{"asthma":5.505,"atrial_fibrillation":1.594,"copd":1.631,"coronary_heart_disease":2.419,"dementia":1.04,"depression":12.299,"diabetes":10.315,"hypertension":14.061,"obesity":15.176,"serious_mental_illness":1.343,"stroke_tia":1.728}},{"ods":"Y00252","name":"DR SJC CLAY'S PRACTICE","pcn":"U33192","lat":52.725441,"lng":-1.20155,"list":3035,"gp_fte":0.9866666667,"rating":"Good","prev":{"asthma":9.777,"atrial_fibrillation":2.571,"copd":1.189,"coronary_heart_disease":3.117,"dementia":0.9,"depression":18.672,"diabetes":5.633,"hypertension":16.035,"obesity":11.624,"serious_mental_illness":0.9,"stroke_tia":1.992}},{"ods":"Y00344","name":"LEICESTER CITY ASSIST PRACTICE","pcn":"U54764","lat":52.635228,"lng":-1.137106,"list":1380,"gp_fte":1.56,"rating":null,"prev":{"asthma":0.967,"atrial_fibrillation":0.058,"copd":0.058,"coronary_heart_disease":0.289,"dementia":0.058,"depression":9.201,"diabetes":2.795,"hypertension":2.428,"obesity":4.473,"serious_mental_illness":0.462,"stroke_tia":0.173}},{"ods":"Y02469","name":"HERON GP PRACTICE","pcn":"U77315","lat":52.640343,"lng":-1.113004,"list":9814,"gp_fte":0.0,"rating":"Good","prev":{"asthma":4.694,"atrial_fibrillation":0.577,"copd":0.689,"coronary_heart_disease":1.52,"dementia":0.243,"depression":7.057,"diabetes":11.492,"hypertension":11.215,"obesity":14.604,"serious_mental_illness":1.054,"stroke_tia":0.75}},{"ods":"Y02686","name":"BOWLING GREEN STREET SURGERY","pcn":"U77315","lat":52.631826,"lng":-1.129726,"list":9120,"gp_fte":0.2,"rating":"Good","prev":{"asthma":3.214,"atrial_fibrillation":0.305,"copd":0.666,"coronary_heart_disease":0.88,"dementia":0.056,"depression":11.061,"diabetes":4.273,"hypertension":5.866,"obesity":10.581,"serious_mental_illness":1.015,"stroke_tia":0.316}},{"ods":"Y03584","name":"LLR SAS PROVIDER","pcn":"","lat":52.652103,"lng":-1.160967,"list":91,"gp_fte":null,"rating":null,"prev":{}}]