[{"ods":"J83001","name":"MERCHISTON SURGERY","pcn":"U97855","lat":51.584556,"lng":-1.747885,"list":13336,"gp_fte":4.9973333334,"rating":"Good","prev":{"asthma":7.419,"atrial_fibrillation":3.39,"copd":3.405,"coronary_heart_disease":3.885,"dementia":1.337,"depression":12.664,"diabetes":10.064,"hypertension":20.904,"obesity":12.53,"serious_mental_illness":1.034,"stroke_tia":2.43}},{"ods":"J83002","name":"WESTROP MEDICAL PRACTICE","pcn":"U28791","lat":51.597521,"lng":-1.787509,"list":49951,"gp_fte":10.4258760159,"rating":"Good","prev":{"asthma":7.535,"atrial_fibrillation":1.867,"copd":1.643,"coronary_heart_disease":2.443,"dementia":0.456,"depression":12.936,"diabetes":7.67,"hypertension":15.161,"obesity":15.567,"serious_mental_illness":0.751,"stroke_tia":1.557}},{"ods":"J83003","name":"HARCOURT MEDICAL CENTRE","pcn":"U44713","lat":51.073565,"lng":-1.797495,"list":13027,"gp_fte":6.7733333333,"rating":"Good","prev":{"asthma":7.753,"atrial_fibrillation":3.673,"copd":2.367,"coronary_heart_disease":4.834,"dementia":1.268,"depression":12.748,"diabetes":7.767,"hypertension":18.771,"obesity":15.987,"serious_mental_illness":0.893,"stroke_tia":3.406}},{"ods":"J83004","name":"WHITEPARISH SURGERY","pcn":"U38066","lat":51.006364,"lng":-1.642719,"list":7855,"gp_fte":4.3733333332,"rating":"Good","prev":{"asthma":9.824,"atrial_fibrillation":3.541,"copd":2.477,"coronary_heart_disease":4.267,"dementia":1.751,"depression":4.434,"diabetes":5.721,"hypertension":19.339,"obesity":10.938,"serious_mental_illness":0.545,"stroke_tia":3.268}},{"ods":"J83005","name":"BARCROFT MEDICAL CENTRE","pcn":"U26808","lat":51.171989,"lng":-1.766384,"list":10732,"gp_fte":6.1280000001,"rating":"Good","prev":{"asthma":6.997,"atrial_fibrillation":2.726,"copd":1.766,"coronary_heart_disease":3.806,"dementia":1.107,"depression":12.858,"diabetes":8.505,"hypertension":15.845,"obesity":17.345,"serious_mental_illness":0.668,"stroke_tia":2.415}},{"ods":"J83006","name":"PURTON SURGERY","pcn":"U61347","lat":51.60783,"lng":-1.875844,"list":10946,"gp_fte":5.2666666668,"rating":"Good","prev":{"asthma":7.006,"atrial_fibrillation":3.504,"copd":1.83,"coronary_heart_disease":3.238,"dementia":1.177,"depression":8.535,"diabetes":7.323,"hypertension":14.413,"obesity":8.828,"serious_mental_illness":0.708,"stroke_tia":2.272}},{"ods":"J83007","name":"HATHAWAY SURGERY","pcn":"U93148","lat":51.463054,"lng":-2.122231,"list":15328,"gp_fte":12.4,"rating":"Good","prev":{"asthma":8.334,"atrial_fibrillation":2.479,"copd":1.58,"coronary_heart_disease":2.909,"dementia":1.362,"depression":12.71,"diabetes":7.595,"hypertension":15.15,"obesity":11.839,"serious_mental_illness":1.073,"stroke_tia":1.792}},{"ods":"J83008","name":"LOVEMEAD GROUP PRACTICE","pcn":"U85644","lat":51.317824,"lng":-2.199895,"list":18897,"gp_fte":9.4133333334,"rating":"Outstanding","prev":{"asthma":7.366,"atrial_fibrillation":2.689,"copd":2.347,"coronary_heart_disease":3.373,"dementia":0.953,"depression":15.598,"diabetes":8.729,"hypertension":15.763,"obesity":15.294,"serious_mental_illness":1.057,"stroke_tia":2.125}},{"ods":"J83009","name":"RIDGEWAY VIEW FAMILY PRACTICE","pcn":"U78462","lat":51.518553,"lng":-1.784703,"list":15000,"gp_fte":8.6,"rating":"Good","prev":{"asthma":7.651,"atrial_fibrillation":3.248,"copd":2.114,"coronary_heart_disease":3.456,"dementia":1.356,"depression":15.108,"diabetes":7.879,"hypertension":18.792,"obesity":16.785,"serious_mental_illness":0.846,"stroke_tia":2.544}},{"ods":"J83010","name":"PORCH SURGERY","pcn":"U93148","lat":51.430572,"lng":-2.191963,"list":11608,"gp_fte":6.6333333334,"rating":"Good","prev":{"asthma":8.014,"atrial_fibrillation":3.322,"copd":1.823,"coronary_heart_disease":3.577,"dementia":1.099,"depression":9.619,"diabetes":7.742,"hypertension":16.157,"obesity":8.262,"serious_mental_illness":0.877,"stroke_tia":2.308}},{"ods":"J83011","name":"GIFFORDS PRIMARY CARE CTR","pcn":"U82536","lat":51.370469,"lng":-2.131565,"list":14374,"gp_fte":6.1866666666,"rating":"Good","prev":{"asthma":7.289,"atrial_fibrillation":3.34,"copd":2.465,"coronary_heart_disease":4.271,"dementia":0.924,"depression":14.764,"diabetes":9.534,"hypertension":21.326,"obesity":19.251,"serious_mental_illness":0.951,"stroke_tia":2.604}},{"ods":"J83013","name":"BOX SURGERY","pcn":"U93148","lat":51.419591,"lng":-2.217228,"list":7839,"gp_fte":5.6266666665,"rating":"Good","prev":{"asthma":8.085,"atrial_fibrillation":4.066,"copd":2.501,"coronary_heart_disease":3.938,"dementia":1.167,"depression":9.35,"diabetes":6.866,"hypertension":17.47,"obesity":14.089,"serious_mental_illness":0.705,"stroke_tia":2.411}},{"ods":"J83014","name":"CASTLE PRACTICE","pcn":"U26808","lat":51.245339,"lng":-1.640785,"list":16395,"gp_fte":6.656,"rating":"Good","prev":{"asthma":6.732,"atrial_fibrillation":2.086,"copd":1.698,"coronary_heart_disease":2.935,"dementia":0.661,"depression":14.628,"diabetes":8.655,"hypertension":13.407,"obesity":12.003,"serious_mental_illness":0.637,"stroke_tia":1.758}},{"ods":"J83016","name":"TROWBRIDGE HEALTH CENTRE","pcn":"U85644","lat":51.319524,"lng":-2.20448,"list":31876,"gp_fte":12.0400000001,"rating":"Good","prev":{"asthma":6.89,"atrial_fibrillation":2.284,"copd":1.998,"coronary_heart_disease":2.689,"dementia":0.729,"depression":13.778,"diabetes":7.911,"hypertension":14.729,"obesity":11.448,"serious_mental_illness":0.927,"stroke_tia":1.951}},{"ods":"J83018","name":"AVENUE SURGERY","pcn":"U78164","lat":51.20524,"lng":-2.184704,"list":17974,"gp_fte":8.0666666667,"rating":"Good","prev":{"asthma":7.499,"atrial_fibrillation":3.855,"copd":2.629,"coronary_heart_disease":4.617,"dementia":1.524,"depression":11.997,"diabetes":8.933,"hypertension":19.629,"obesity":16.259,"serious_mental_illness":1.033,"stroke_tia":3.198}},{"ods":"J83019","name":"THE ORCHARD PARTNERSHIP","pcn":"U55979","lat":51.137591,"lng":-1.941591,"list":12308,"gp_fte":7.0346666666,"rating":"Good","prev":{"asthma":7.991,"atrial_fibrillation":3.96,"copd":2.334,"coronary_heart_disease":4.984,"dementia":0.984,"depression":14.342,"diabetes":7.183,"hypertension":19.189,"obesity":15.36,"serious_mental_illness":0.797,"stroke_tia":3.391}},{"ods":"J83021","name":"SALISBURY MEDICAL PRACTICE","pcn":"U44713","lat":51.082596,"lng":-1.809821,"list":24540,"gp_fte":12.3226666669,"rating":"Good","prev":{"asthma":7.928,"atrial_fibrillation":2.503,"copd":1.96,"coronary_heart_disease":3.356,"dementia":1.009,"depression":15.296,"diabetes":7.226,"hypertension":14.095,"obesity":13.136,"serious_mental_illness":1.249,"stroke_tia":2.254}},{"ods":"J83022","name":"OLD TOWN SURGERY","pcn":"U49785","lat":51.554442,"lng":-1.783126,"list":9194,"gp_fte":4.1866666667,"rating":"Good","prev":{"asthma":7.63,"atrial_fibrillation":1.72,"copd":1.389,"coronary_heart_disease":2.104,"dementia":0.47,"depression":13.554,"diabetes":5.846,"hypertension":14.975,"obesity":11.97,"serious_mental_illness":1.431,"stroke_tia":1.378}},{"ods":"J83023","name":"AVON VALLEY PRACTICE","pcn":"U21547","lat":51.238379,"lng":-1.786151,"list":8938,"gp_fte":1.3527230859,"rating":"Good","prev":{"asthma":7.386,"atrial_fibrillation":2.983,"copd":1.973,"coronary_heart_disease":4.44,"dementia":0.562,"depression":16.989,"diabetes":8.138,"hypertension":16.531,"obesity":20.582,"serious_mental_illness":0.539,"stroke_tia":2.283}},{"ods":"J83024","name":"PRIORY ROAD MEDICAL CENTRE","pcn":"U49785","lat":51.555088,"lng":-1.748286,"list":8716,"gp_fte":4.3066666666,"rating":"Good","prev":{"asthma":7.223,"atrial_fibrillation":2.408,"copd":2.894,"coronary_heart_disease":2.781,"dementia":1.085,"depression":16.829,"diabetes":11.214,"hypertension":19.014,"obesity":20.087,"serious_mental_illness":1.074,"stroke_tia":2.216}},{"ods":"J83026","name":"THREE CHEQUERS MEDICAL PRACTICE","pcn":"U38066","lat":51.081011,"lng":-1.774965,"list":23619,"gp_fte":13.0266666666,"rating":"Outstanding","prev":{"asthma":8.322,"atrial_fibrillation":3.629,"copd":1.867,"coronary_heart_disease":4.453,"dementia":1.383,"depression":11.388,"diabetes":7.285,"hypertension":18.181,"obesity":11.002,"serious_mental_illness":1.451,"stroke_tia":3.158}},{"ods":"J83027","name":"HAWTHORN MEDICAL CENTRE","pcn":"U97855","lat":51.576343,"lng":-1.778294,"list":12056,"gp_fte":5.6133333333,"rating":"Good","prev":{"asthma":8.687,"atrial_fibrillation":2.539,"copd":3.194,"coronary_heart_disease":3.299,"dementia":0.744,"depression":14.775,"diabetes":11.805,"hypertension":18.443,"obesity":18.227,"serious_mental_illness":1.083,"stroke_tia":2.207}},{"ods":"J83029","name":"TINKERS LANE SURGERY","pcn":"U61347","lat":51.535094,"lng":-1.914044,"list":8644,"gp_fte":4.5333333334,"rating":"Good","prev":{"asthma":10.444,"atrial_fibrillation":4.089,"copd":1.898,"coronary_heart_disease":3.549,"dementia":1.168,"depression":10.842,"diabetes":9.453,"hypertension":19.892,"obesity":15.854,"serious_mental_illness":0.685,"stroke_tia":2.37}},{"ods":"J83030","name":"BRADFORD-ON-AVON AND MELKSHAM HEALTH","pcn":"U82536","lat":51.347309,"lng":-2.239494,"list":18718,"gp_fte":10.3736000002,"rating":"Outstanding","prev":{"asthma":7.363,"atrial_fibrillation":3.594,"copd":1.774,"coronary_heart_disease":3.547,"dementia":1.132,"depression":15.04,"diabetes":6.82,"hypertension":18.139,"obesity":15.285,"serious_mental_illness":0.882,"stroke_tia":2.462}},{"ods":"J83033","name":"WHALEBRIDGE PRACTICE","pcn":"U05679","lat":51.569648,"lng":-1.788112,"list":21372,"gp_fte":6.2133333335,"rating":"Good","prev":{"asthma":6.545,"atrial_fibrillation":1.34,"copd":1.274,"coronary_heart_disease":2.178,"dementia":0.295,"depression":11.484,"diabetes":9.818,"hypertension":14.839,"obesity":16.482,"serious_mental_illness":0.745,"stroke_tia":1.466}},{"ods":"J83034","name":"LANSDOWNE SURGERY","pcn":"U25572","lat":51.349419,"lng":-1.994773,"list":6656,"gp_fte":4.3066666667,"rating":"Good","prev":{"asthma":8.436,"atrial_fibrillation":3.992,"copd":2.91,"coronary_heart_disease":4.68,"dementia":0.804,"depression":13.461,"diabetes":10.139,"hypertension":23.194,"obesity":13.127,"serious_mental_illness":0.936,"stroke_tia":2.793}},{"ods":"J83035","name":"ABBEY MEADS MEDICAL PRACT","pcn":"U36809","lat":51.595096,"lng":-1.793687,"list":14840,"gp_fte":4.9066666667,"rating":null,"prev":{"asthma":7.159,"atrial_fibrillation":1.724,"copd":1.902,"coronary_heart_disease":2.305,"dementia":0.28,"depression":16.225,"diabetes":8.359,"hypertension":13.769,"obesity":20.127,"serious_mental_illness":0.643,"stroke_tia":1.279}},{"ods":"J83036","name":"ASHINGTON HOUSE SURGERY","pcn":"U32901","lat":51.559554,"lng":-1.831137,"list":10251,"gp_fte":4.6933333333,"rating":"Good","prev":{"asthma":7.193,"atrial_fibrillation":1.892,"copd":1.467,"coronary_heart_disease":2.723,"dementia":0.29,"depression":17.916,"diabetes":9.403,"hypertension":18.334,"obesity":19.295,"serious_mental_illness":0.85,"stroke_tia":1.612}},{"ods":"J83037","name":"KENNET AND AVON MEDICAL PARTNERSHIP","pcn":"U62545","lat":51.396796,"lng":-1.751835,"list":16759,"gp_fte":12.5733333334,"rating":"Good","prev":{"asthma":6.851,"atrial_fibrillation":3.505,"copd":1.685,"coronary_heart_disease":3.611,"dementia":1.352,"depression":12.119,"diabetes":6.747,"hypertension":17.087,"obesity":9.601,"serious_mental_illness":0.913,"stroke_tia":2.183}},{"ods":"J83038","name":"KINGSWOOD SURGERY","pcn":"U71014","lat":51.561596,"lng":-1.765754,"list":29210,"gp_fte":9.0066666665,"rating":"Good","prev":{"asthma":5.104,"atrial_fibrillation":1.033,"copd":1.829,"coronary_heart_disease":1.764,"dementia":0.203,"depression":10.022,"diabetes":11.2,"hypertension":12.054,"obesity":13.291,"serious_mental_illness":0.958,"stroke_tia":1.044}},{"ods":"J83039","name":"NORTHLANDS SURGERY","pcn":"U68450","lat":51.442184,"lng":-1.997282,"list":13792,"gp_fte":4.5333333333,"rating":"Good","prev":{"asthma":8.604,"atrial_fibrillation":2.957,"copd":2.053,"coronary_heart_disease":3.165,"dementia":0.869,"depression":11.966,"diabetes":8.964,"hypertension":17.047,"obesity":16.825,"serious_mental_illness":0.725,"stroke_tia":1.96}},{"ods":"J83040","name":"WESTBURY GROUP PRACTICE","pcn":"U78164","lat":51.255884,"lng":-2.183275,"list":24895,"gp_fte":7.6866666666,"rating":"Good","prev":{"asthma":7.091,"atrial_fibrillation":2.755,"copd":1.624,"coronary_heart_disease":3.325,"dementia":1.026,"depression":13.017,"diabetes":8.151,"hypertension":16.218,"obesity":13.017,"serious_mental_illness":0.865,"stroke_tia":2.044}},{"ods":"J83041","name":"MALMESBURY MEDICAL PARTNERSHIP","pcn":"U61347","lat":51.582943,"lng":-2.079244,"list":16671,"gp_fte":9.9426666668,"rating":"Outstanding","prev":{"asthma":7.865,"atrial_fibrillation":3.577,"copd":1.346,"coronary_heart_disease":3.266,"dementia":0.933,"depression":9.109,"diabetes":7.016,"hypertension":16.462,"obesity":14.942,"serious_mental_illness":0.604,"stroke_tia":2.566}},{"ods":"J83042","name":"ROWDEN SURGERY","pcn":"U93148","lat":51.458995,"lng":-2.123079,"list":19978,"gp_fte":10.956,"rating":"Outstanding","prev":{"asthma":6.597,"atrial_fibrillation":2.421,"copd":1.547,"coronary_heart_disease":3.131,"dementia":0.914,"depression":12.562,"diabetes":8.189,"hypertension":14.243,"obesity":13.106,"serious_mental_illness":0.884,"stroke_tia":2.017}},{"ods":"J83043","name":"DOWNTON SURGERY","pcn":"U38066","lat":50.991055,"lng":-1.737666,"list":6625,"gp_fte":4.3466666667,"rating":"Good","prev":{"asthma":6.919,"atrial_fibrillation":4.428,"copd":1.372,"coronary_heart_disease":5.472,"dementia":1.446,"depression":9.193,"diabetes":7.57,"hypertension":23.14,"obesity":7.631,"serious_mental_illness":0.656,"stroke_tia":2.937}},{"ods":"J83045","name":"RAMSBURY SURGERY","pcn":"U62545","lat":51.483097,"lng":-1.645528,"list":10379,"gp_fte":5.7733333333,"rating":"Outstanding","prev":{"asthma":7.644,"atrial_fibrillation":3.217,"copd":1.525,"coronary_heart_disease":2.894,"dementia":0.841,"depression":7.641,"diabetes":5.76,"hypertension":15.379,"obesity":8.556,"serious_mental_illness":0.528,"stroke_tia":1.916}},{"ods":"J83046","name":"SPA MEDICAL CENTRE","pcn":"U82536","lat":51.371225,"lng":-2.128858,"list":15822,"gp_fte":7.1592,"rating":"Good","prev":{"asthma":7.895,"atrial_fibrillation":2.766,"copd":1.881,"coronary_heart_disease":3.411,"dementia":1.224,"depression":11.389,"diabetes":8.356,"hypertension":16.755,"obesity":17.464,"serious_mental_illness":0.814,"stroke_tia":1.966}},{"ods":"J83047","name":"ELDENE SURGERY","pcn":"U36809","lat":51.556022,"lng":-1.736517,"list":8401,"gp_fte":2.0373333333,"rating":"Good","prev":{"asthma":8.115,"atrial_fibrillation":2.477,"copd":2.169,"coronary_heart_disease":2.986,"dementia":0.415,"depression":10.591,"diabetes":10.062,"hypertension":16.886,"obesity":20.577,"serious_mental_illness":0.687,"stroke_tia":1.647}},{"ods":"J83048","name":"ST MELOR HOUSE SURGERY","pcn":"U26808","lat":51.171844,"lng":-1.768507,"list":6936,"gp_fte":2.7733333334,"rating":"Good","prev":{"asthma":9.73,"atrial_fibrillation":2.765,"copd":2.312,"coronary_heart_disease":3.16,"dementia":0.805,"depression":13.037,"diabetes":8.871,"hypertension":16.298,"obesity":19.254,"serious_mental_illness":0.805,"stroke_tia":2.048}},{"ods":"J83049","name":"SOUTHBROOM SURGERY","pcn":"U25572","lat":51.354555,"lng":-1.985595,"list":12543,"gp_fte":7.7333333334,"rating":"Good","prev":{"asthma":7.66,"atrial_fibrillation":2.844,"copd":2.151,"coronary_heart_disease":3.384,"dementia":1.305,"depression":16.28,"diabetes":7.821,"hypertension":15.889,"obesity":12.401,"serious_mental_illness":1.056,"stroke_tia":2.2}},{"ods":"J83050","name":"PATFORD HOUSE PARTNERSHIP","pcn":"U68450","lat":51.45243,"lng":-2.009179,"list":14844,"gp_fte":4.9200000002,"rating":"Good","prev":{"asthma":7.721,"atrial_fibrillation":2.623,"copd":1.444,"coronary_heart_disease":2.908,"dementia":0.563,"depression":14.029,"diabetes":7.653,"hypertension":15.93,"obesity":16.769,"serious_mental_illness":0.827,"stroke_tia":1.762}},{"ods":"J83052","name":"SARUM HEALTH GROUP","pcn":"U21547","lat":51.090017,"lng":-1.835189,"list":16395,"gp_fte":7.4800000001,"rating":"Good","prev":{"asthma":6.81,"atrial_fibrillation":1.818,"copd":1.605,"coronary_heart_disease":2.893,"dementia":0.451,"depression":12.848,"diabetes":6.6,"hypertension":12.521,"obesity":14.078,"serious_mental_illness":0.988,"stroke_tia":1.62}},{"ods":"J83053","name":"ST. JAMES SURGERY","pcn":"U25572","lat":51.352912,"lng":-1.987078,"list":7431,"gp_fte":2.5093333334,"rating":"Good","prev":{"asthma":7.737,"atrial_fibrillation":3.047,"copd":1.852,"coronary_heart_disease":3.356,"dementia":0.523,"depression":11.235,"diabetes":7.988,"hypertension":18.832,"obesity":12.37,"serious_mental_illness":0.899,"stroke_tia":2.268}},{"ods":"J83055","name":"NEW COURT SURGERY","pcn":"U61347","lat":51.538226,"lng":-1.905237,"list":9877,"gp_fte":3.5600000001,"rating":"Good","prev":{"asthma":8.919,"atrial_fibrillation":3.092,"copd":2.375,"coronary_heart_disease":3.506,"dementia":1.101,"depression":13.056,"diabetes":9.247,"hypertension":19.574,"obesity":19.324,"serious_mental_illness":0.93,"stroke_tia":2.061}},{"ods":"J83056","name":"MARKET LAVINGTON SURGERY","pcn":"U25572","lat":51.309604,"lng":-1.975116,"list":5430,"gp_fte":2.9866666666,"rating":"Good","prev":{"asthma":6.98,"atrial_fibrillation":3.438,"copd":1.601,"coronary_heart_disease":3.601,"dementia":0.637,"depression":9.02,"diabetes":7.805,"hypertension":17.079,"obesity":14.074,"serious_mental_illness":0.782,"stroke_tia":1.892}},{"ods":"J83057","name":"NORTH SWINDON PRACTICE","pcn":"U32901","lat":51.591181,"lng":-1.799153,"list":19888,"gp_fte":9.5599999999,"rating":"Good","prev":{"asthma":6.705,"atrial_fibrillation":2.486,"copd":2.216,"coronary_heart_disease":2.958,"dementia":1.148,"depression":12.678,"diabetes":8.888,"hypertension":18.032,"obesity":16.023,"serious_mental_illness":0.797,"stroke_tia":1.995}},{"ods":"J83058","name":"TISBURY SURGERY","pcn":"U55979","lat":51.056381,"lng":-2.07973,"list":4323,"gp_fte":3.48,"rating":"Good","prev":{"asthma":8.526,"atrial_fibrillation":4.698,"copd":3.565,"coronary_heart_disease":5.335,"dementia":2.054,"depression":15.075,"diabetes":7.281,"hypertension":23.111,"obesity":15.606,"serious_mental_illness":0.992,"stroke_tia":4.462}},{"ods":"J83059","name":"THE LAWN MEDICAL CENTRE","pcn":"U49785","lat":51.549182,"lng":-1.754842,"list":9716,"gp_fte":4.9066666666,"rating":"Good","prev":{"asthma":7.443,"atrial_fibrillation":2.776,"copd":1.953,"coronary_heart_disease":3.114,"dementia":0.581,"depression":9.404,"diabetes":8.614,"hypertension":16.521,"obesity":15.839,"serious_mental_illness":0.855,"stroke_tia":2.175}},{"ods":"J83060","name":"MERE SURGERY","pcn":"U55979","lat":51.097615,"lng":-2.272302,"list":5080,"gp_fte":3.6666666667,"rating":"Good","prev":{"asthma":8.34,"atrial_fibrillation":4.175,"copd":2.485,"coronary_heart_disease":5.447,"dementia":1.352,"depression":8.208,"diabetes":7.784,"hypertension":21.412,"obesity":7.314,"serious_mental_illness":0.775,"stroke_tia":3.082}},{"ods":"J83064","name":"RIDGE GREEN MEDICAL PRACTICE","pcn":"U04648","lat":51.565679,"lng":-1.836235,"list":12301,"gp_fte":2.7253333333,"rating":"Good","prev":{"asthma":6.967,"atrial_fibrillation":1.346,"copd":1.33,"coronary_heart_disease":2.446,"dementia":0.238,"depression":13.572,"diabetes":7.622,"hypertension":15.53,"obesity":14.962,"serious_mental_illness":0.714,"stroke_tia":1.239}},{"ods":"J83601","name":"BURBAGE SURGERY","pcn":"U62545","lat":51.342196,"lng":-1.676398,"list":4210,"gp_fte":3.3066666667,"rating":"Good","prev":{"asthma":7.588,"atrial_fibrillation":3.152,"copd":1.54,"coronary_heart_disease":3.345,"dementia":0.674,"depression":10.284,"diabetes":7.496,"hypertension":19.49,"obesity":8.835,"serious_mental_illness":0.529,"stroke_tia":1.949}},{"ods":"J83603","name":"JUBILEE FIELD SURGERY","pcn":"U68450","lat":51.490181,"lng":-2.195326,"list":4855,"gp_fte":4.0666666667,"rating":"Good","prev":{"asthma":7.059,"atrial_fibrillation":3.262,"copd":1.108,"coronary_heart_disease":3.282,"dementia":0.513,"depression":11.191,"diabetes":6.035,"hypertension":15.795,"obesity":9.156,"serious_mental_illness":0.615,"stroke_tia":2.154}},{"ods":"J83609","name":"CRICKLADE SURGERY","pcn":"U61347","lat":51.640853,"lng":-1.875747,"list":3498,"gp_fte":0.5333333333,"rating":"Inadequate","prev":{"asthma":8.15,"atrial_fibrillation":3.005,"copd":1.214,"coronary_heart_disease":2.774,"dementia":0.578,"depression":12.066,"diabetes":7.885,"hypertension":19.359,"obesity":10.204,"serious_mental_illness":0.925,"stroke_tia":1.762}},{"ods":"J83615","name":"OLD SCHOOL HOUSE SURGERY","pcn":"U62545","lat":51.353975,"lng":-1.594431,"list":3457,"gp_fte":1.1839999999,"rating":"Good","prev":{"asthma":7.918,"atrial_fibrillation":3.056,"copd":1.914,"coronary_heart_disease":3.37,"dementia":0.6,"depression":11.513,"diabetes":6.982,"hypertension":17.995,"obesity":12.03,"serious_mental_illness":1.028,"stroke_tia":2.199}},{"ods":"J83618","name":"THE TOLSEY SURGERY","pcn":"U61347","lat":51.572394,"lng":-2.213282,"list":3361,"gp_fte":1.4133333334,"rating":"Good","prev":{"asthma":7.822,"atrial_fibrillation":3.578,"copd":1.105,"coronary_heart_disease":3.578,"dementia":0.64,"depression":7.314,"diabetes":5.588,"hypertension":16.725,"obesity":10.565,"serious_mental_illness":0.291,"stroke_tia":2.036}},{"ods":"J83619","name":"COURTYARD SURGERY","pcn":"U55979","lat":51.298565,"lng":-2.005366,"list":3382,"gp_fte":2.56,"rating":"Good","prev":{"asthma":6.151,"atrial_fibrillation":3.307,"copd":1.255,"coronary_heart_disease":3.797,"dementia":1.531,"depression":9.163,"diabetes":7.874,"hypertension":17.177,"obesity":18.689,"serious_mental_illness":0.796,"stroke_tia":3.154}},{"ods":"J83625","name":"LODGE SURGERY","pcn":"U93148","lat":51.449166,"lng":-2.105273,"list":8366,"gp_fte":4.8158418697,"rating":"Good","prev":{"asthma":6.962,"atrial_fibrillation":2.2,"copd":1.399,"coronary_heart_disease":2.38,"dementia":0.837,"depression":11.365,"diabetes":6.653,"hypertension":17.388,"obesity":14.228,"serious_mental_illness":0.801,"stroke_tia":1.543}},{"ods":"J83629","name":"SILTON SURGERY","pcn":"U55979","lat":51.066596,"lng":-2.316182,"list":2397,"gp_fte":2.8,"rating":"Good","prev":{"asthma":6.199,"atrial_fibrillation":4.463,"copd":2.296,"coronary_heart_disease":4.376,"dementia":1.213,"depression":4.669,"diabetes":7.228,"hypertension":17.981,"obesity":12.098,"serious_mental_illness":0.693,"stroke_tia":2.773}},{"ods":"J83630","name":"HINDON SURGERY","pcn":"U55979","lat":51.076496,"lng":-2.122826,"list":2506,"gp_fte":null,"rating":"Outstanding","prev":{"asthma":7.502,"atrial_fibrillation":4.665,"copd":2.117,"coronary_heart_disease":4.704,"dementia":1.372,"depression":11.789,"diabetes":6.857,"hypertension":21.364,"obesity":7.752,"serious_mental_illness":1.019,"stroke_tia":3.254}},{"ods":"J83633","name":"VICTORIA CROSS SURGERY","pcn":"U36809","lat":51.557127,"lng":-1.764063,"list":10354,"gp_fte":3.5066666666,"rating":"Good","prev":{"asthma":7.882,"atrial_fibrillation":1.974,"copd":1.954,"coronary_heart_disease":2.678,"dementia":0.293,"depression":8.734,"diabetes":8.294,"hypertension":14.942,"obesity":15.539,"serious_mental_illness":1.124,"stroke_tia":1.515}},{"ods":"J83645","name":"PHOENIX SURGERY","pcn":"U04648","lat":51.556387,"lng":-1.822609,"list":4335,"gp_fte":1.0,"rating":"Good","prev":{"asthma":6.392,"atrial_fibrillation":1.606,"copd":1.722,"coronary_heart_disease":2.932,"dementia":0.279,"depression":15.578,"diabetes":8.527,"hypertension":16.849,"obesity":13.623,"serious_mental_illness":0.954,"stroke_tia":1.676}},{"ods":"J83646","name":"PARK LANE PRACTICE","pcn":"U04648","lat":51.561831,"lng":-1.79514,"list":7694,"gp_fte":1.6666666666,"rating":"Good","prev":{"asthma":4.486,"atrial_fibrillation":1.185,"copd":1.289,"coronary_heart_disease":1.757,"dementia":0.208,"depression":9.094,"diabetes":7.177,"hypertension":10.948,"obesity":10.553,"serious_mental_illness":0.937,"stroke_tia":1.093}},{"ods":"K84012","name":"ELM TREE SURGERY","pcn":"U78462","lat":51.599317,"lng":-1.641245,"list":8858,"gp_fte":3.6266666666,"rating":"Good","prev":{"asthma":6.192,"atrial_fibrillation":2.11,"copd":0.998,"coronary_heart_disease":2.191,"dementia":0.287,"depression":8.068,"diabetes":5.681,"hypertension":11.286,"obesity":12.89,"serious_mental_illness":0.401,"stroke_tia":1.296}},{"ods":"L81010","name":"HOPE HOUSE SURGERY","pcn":"U05340","lat":51.291457,"lng":-2.45066,"list":8393,"gp_fte":4.3600000002,"rating":"Good","prev":{"asthma":9.472,"atrial_fibrillation":2.339,"copd":2.883,"coronary_heart_disease":3.143,"dementia":0.532,"depression":24.483,"diabetes":7.591,"hypertension":17.756,"obesity":20.222,"serious_mental_illness":1.002,"stroke_tia":1.72}},{"ods":"L81020","name":"WIDCOMBE SURGERY","pcn":"U63770","lat":51.377157,"lng":-2.35804,"list":8864,"gp_fte":3.5733333334,"rating":"Good","prev":{"asthma":5.601,"atrial_fibrillation":1.929,"copd":1.003,"coronary_heart_disease":2.212,"dementia":0.49,"depression":9.096,"diabetes":4.266,"hypertension":11.672,"obesity":10.953,"serious_mental_illness":1.122,"stroke_tia":1.558}},{"ods":"L81025","name":"SOMER VALLEY MEDICAL GROUP","pcn":"U05340","lat":51.283611,"lng":-2.483093,"list":18617,"gp_fte":9.0026666666,"rating":"Good","prev":{"asthma":8.337,"atrial_fibrillation":3.508,"copd":1.927,"coronary_heart_disease":4.055,"dementia":1.194,"depression":13.801,"diabetes":8.512,"hypertension":19.034,"obesity":17.068,"serious_mental_illness":0.833,"stroke_tia":2.373}},{"ods":"L81027","name":"BATHEASTON MEDICAL CENTRE","pcn":"U63770","lat":51.403532,"lng":-2.309674,"list":8826,"gp_fte":6.72,"rating":"Good","prev":{"asthma":6.34,"atrial_fibrillation":3.139,"copd":1.437,"coronary_heart_disease":3.013,"dementia":0.563,"depression":9.803,"diabetes":5.511,"hypertension":15.145,"obesity":13.834,"serious_mental_illness":0.851,"stroke_tia":1.966}},{"ods":"L81030","name":"HARPTREE SURGERY","pcn":"U05340","lat":51.317614,"lng":-2.589483,"list":6622,"gp_fte":5.7066666667,"rating":"Good","prev":{"asthma":6.865,"atrial_fibrillation":3.091,"copd":1.168,"coronary_heart_disease":3.283,"dementia":0.503,"depression":12.427,"diabetes":6.431,"hypertension":16.223,"obesity":11.083,"serious_mental_illness":0.562,"stroke_tia":2.056}},{"ods":"L81039","name":"HEART OF BATH","pcn":"U70185","lat":51.37857,"lng":-2.374996,"list":25764,"gp_fte":9.2485333334,"rating":"Good","prev":{"asthma":7.197,"atrial_fibrillation":2.505,"copd":1.609,"coronary_heart_disease":2.753,"dementia":0.814,"depression":11.008,"diabetes":5.568,"hypertension":12.941,"obesity":14.037,"serious_mental_illness":1.454,"stroke_tia":1.955}},{"ods":"L81045","name":"ST AUGUSTINE'S MEDICAL PRACTICE","pcn":"U66269","lat":51.407842,"lng":-2.489857,"list":19677,"gp_fte":9.3413333335,"rating":"Good","prev":{"asthma":7.684,"atrial_fibrillation":3.84,"copd":1.813,"coronary_heart_disease":3.657,"dementia":1.707,"depression":11.756,"diabetes":7.39,"hypertension":16.991,"obesity":14.207,"serious_mental_illness":0.858,"stroke_tia":2.692}},{"ods":"L81059","name":"ELM HAYES SURGERY","pcn":"U05340","lat":51.30401,"lng":-2.495892,"list":8902,"gp_fte":2.8799999999,"rating":"Good","prev":{"asthma":6.982,"atrial_fibrillation":3.275,"copd":1.976,"coronary_heart_disease":3.219,"dementia":0.744,"depression":10.901,"diabetes":7.465,"hypertension":17.616,"obesity":15.871,"serious_mental_illness":0.677,"stroke_tia":2.12}},{"ods":"L81065","name":"COMBE DOWN SURGERY","pcn":"U79019","lat":51.358916,"lng":-2.35692,"list":14185,"gp_fte":8.1066666667,"rating":"Outstanding","prev":{"asthma":6.944,"atrial_fibrillation":2.833,"copd":1.025,"coronary_heart_disease":2.556,"dementia":1.075,"depression":15.054,"diabetes":4.736,"hypertension":13.07,"obesity":10.475,"serious_mental_illness":0.961,"stroke_tia":2.015}},{"ods":"L81068","name":"THE PULTENEY PRACTICE","pcn":"U84537","lat":51.385481,"lng":-2.347625,"list":12113,"gp_fte":5.3066666667,"rating":"Good","prev":{"asthma":5.781,"atrial_fibrillation":2.643,"copd":1.31,"coronary_heart_disease":2.962,"dementia":0.624,"depression":9.9,"diabetes":3.593,"hypertension":13.073,"obesity":8.173,"serious_mental_illness":1.66,"stroke_tia":1.637}},{"ods":"L81069","name":"ST. MICHAEL'S SURGERY","pcn":"U79019","lat":51.374315,"lng":-2.394683,"list":8307,"gp_fte":4.2399999999,"rating":"Good","prev":{"asthma":9.188,"atrial_fibrillation":1.926,"copd":3.852,"coronary_heart_disease":3.912,"dementia":0.795,"depression":20.255,"diabetes":8.537,"hypertension":14.614,"obesity":16.226,"serious_mental_illness":1.806,"stroke_tia":1.902}},{"ods":"L81070","name":"NEWBRIDGE SURGERY","pcn":"U79019","lat":51.389316,"lng":-2.389713,"list":9010,"gp_fte":3.8400000001,"rating":"Good","prev":{"asthma":8.407,"atrial_fibrillation":3.168,"copd":1.22,"coronary_heart_disease":3.068,"dementia":0.974,"depression":8.694,"diabetes":5.446,"hypertension":14.263,"obesity":9.021,"serious_mental_illness":0.996,"stroke_tia":1.982}},{"ods":"L81071","name":"FAIRFIELD PARK HEALTH CENTRE","pcn":"U63770","lat":51.393643,"lng":-2.353973,"list":14616,"gp_fte":6.0266666667,"rating":"Good","prev":{"asthma":6.41,"atrial_fibrillation":1.935,"copd":1.051,"coronary_heart_disease":2.332,"dementia":0.619,"depression":10.24,"diabetes":3.258,"hypertension":10.746,"obesity":8.799,"serious_mental_illness":0.988,"stroke_tia":1.308}},{"ods":"L81072","name":"CHEW MEDICAL PRACTICE","pcn":"U05340","lat":51.360632,"lng":-2.614557,"list":10641,"gp_fte":8.0000000001,"rating":"Good","prev":{"asthma":6.371,"atrial_fibrillation":3.458,"copd":1.81,"coronary_heart_disease":3.373,"dementia":0.991,"depression":10.663,"diabetes":6.586,"hypertension":17.654,"obesity":11.964,"serious_mental_illness":0.619,"stroke_tia":2.21}},{"ods":"L81073","name":"WEST VIEW SURGERY","pcn":"U66269","lat":51.407911,"lng":-2.497252,"list":8238,"gp_fte":3.8466666667,"rating":"Good","prev":{"asthma":7.593,"atrial_fibrillation":3.011,"copd":1.579,"coronary_heart_disease":3.282,"dementia":0.888,"depression":10.838,"diabetes":6.59,"hypertension":15.585,"obesity":13.709,"serious_mental_illness":0.728,"stroke_tia":2.295}},{"ods":"L81122","name":"ST. MARY'S SURGERY","pcn":"U05340","lat":51.335019,"lng":-2.480985,"list":5606,"gp_fte":3.6533333333,"rating":"Good","prev":{"asthma":8.682,"atrial_fibrillation":3.147,"copd":1.743,"coronary_heart_disease":3.752,"dementia":1.191,"depression":11.435,"diabetes":7.8,"hypertension":17.728,"obesity":16.707,"serious_mental_illness":0.569,"stroke_tia":2.312}},{"ods":"L81123","name":"HILLCREST SURGERY","pcn":"U05340","lat":51.314696,"lng":-2.424305,"list":5783,"gp_fte":4.68,"rating":"Good","prev":{"asthma":7.913,"atrial_fibrillation":2.743,"copd":1.857,"coronary_heart_disease":3.425,"dementia":0.665,"depression":14.606,"diabetes":7.858,"hypertension":16.732,"obesity":16.12,"serious_mental_illness":0.971,"stroke_tia":1.942}},{"ods":"L81132","name":"WESTFIELD SURGERY","pcn":"U05340","lat":51.286083,"lng":-2.466377,"list":5160,"gp_fte":2.7111999999,"rating":"Good","prev":{"asthma":9.055,"atrial_fibrillation":1.437,"copd":1.341,"coronary_heart_disease":2.51,"dementia":0.421,"depression":22.59,"diabetes":7.509,"hypertension":11.782,"obesity":15.8,"serious_mental_illness":0.575,"stroke_tia":1.341}},{"ods":"L81617","name":"UNIVERSITY MEDICAL CENTRE","pcn":"U84537","lat":51.389656,"lng":-2.319536,"list":13422,"gp_fte":2.5746666667,"rating":"Good","prev":{"asthma":3.352,"atrial_fibrillation":0.1,"copd":0.022,"coronary_heart_disease":0.086,"dementia":0.007,"depression":3.905,"diabetes":0.463,"hypertension":0.61,"obesity":2.253,"serious_mental_illness":0.359,"stroke_tia":0.036}},{"ods":"L81644","name":"RUSH HILL SURGERY","pcn":"U79019","lat":51.380325,"lng":-2.387771,"list":8911,"gp_fte":3.7512,"rating":"Good","prev":{"asthma":5.908,"atrial_fibrillation":1.938,"copd":1.949,"coronary_heart_disease":3.418,"dementia":1.306,"depression":10.823,"diabetes":5.07,"hypertension":11.605,"obesity":10.573,"serious_mental_illness":0.893,"stroke_tia":1.807}}]