[{"ods":"L84003","name":"UNDERWOOD SURGERY","pcn":"U36833","lat":51.900441,"lng":-2.087995,"list":11482,"gp_fte":6.0133333334,"rating":"Good","prev":{"asthma":7.497,"atrial_fibrillation":2.007,"copd":0.924,"coronary_heart_disease":2.007,"dementia":0.924,"depression":12.42,"diabetes":4.992,"hypertension":10.499,"obesity":8.851,"serious_mental_illness":0.801,"stroke_tia":1.399}},{"ods":"L84004","name":"WINCHCOMBE MEDICAL CENTRE","pcn":"U13956","lat":51.967017,"lng":-1.948755,"list":7921,"gp_fte":6.3066666667,"rating":"Outstanding","prev":{"asthma":8.147,"atrial_fibrillation":4.358,"copd":2.185,"coronary_heart_disease":3.926,"dementia":0.953,"depression":12.24,"diabetes":6.791,"hypertension":19.781,"obesity":11.581,"serious_mental_illness":0.559,"stroke_tia":2.516}},{"ods":"L84005","name":"MINCHINHAMPTON SURGERY","pcn":"U23862","lat":51.712287,"lng":-2.185782,"list":8563,"gp_fte":4.8453333333,"rating":null,"prev":{"asthma":7.036,"atrial_fibrillation":3.908,"copd":1.11,"coronary_heart_disease":3.982,"dementia":0.999,"depression":8.975,"diabetes":6.827,"hypertension":22.71,"obesity":5.978,"serious_mental_illness":0.925,"stroke_tia":3.008}},{"ods":"L84006","name":"STAUNTON & CORSE SURGERY","pcn":"U63565","lat":51.95277,"lng":-2.303488,"list":6900,"gp_fte":3.3333333334,"rating":"Good","prev":{"asthma":6.912,"atrial_fibrillation":3.233,"copd":1.392,"coronary_heart_disease":3.407,"dementia":0.928,"depression":14.195,"diabetes":6.617,"hypertension":18.327,"obesity":12.212,"serious_mental_illness":0.594,"stroke_tia":1.812}},{"ods":"L84007","name":"ROWCROFT MEDICAL CENTRE","pcn":"U23862","lat":51.742574,"lng":-2.228368,"list":12381,"gp_fte":5.6,"rating":"Good","prev":{"asthma":7.3,"atrial_fibrillation":2.508,"copd":1.429,"coronary_heart_disease":3.19,"dementia":0.56,"depression":9.317,"diabetes":6.671,"hypertension":15.545,"obesity":11.574,"serious_mental_illness":0.99,"stroke_tia":1.778}},{"ods":"L84008","name":"ST. GEORGE'S SURGERY","pcn":"U22020","lat":51.90525,"lng":-2.090913,"list":12248,"gp_fte":5.5066666668,"rating":"Good","prev":{"asthma":7.457,"atrial_fibrillation":2.53,"copd":1.912,"coronary_heart_disease":3.371,"dementia":0.989,"depression":10.992,"diabetes":7.469,"hypertension":14.886,"obesity":12.276,"serious_mental_illness":0.865,"stroke_tia":1.879}},{"ods":"L84009","name":"HADWEN HEALTH","pcn":"U76977","lat":51.842922,"lng":-2.208671,"list":19464,"gp_fte":10.24,"rating":"Good","prev":{"asthma":7.318,"atrial_fibrillation":2.451,"copd":1.524,"coronary_heart_disease":2.892,"dementia":0.871,"depression":9.249,"diabetes":9.352,"hypertension":16.455,"obesity":16.182,"serious_mental_illness":0.601,"stroke_tia":1.798}},{"ods":"L84010","name":"UPPER THAMES MEDICAL GROUP","pcn":"U41523","lat":51.709081,"lng":-1.845019,"list":10812,"gp_fte":6.4904000002,"rating":"Good","prev":{"asthma":8.686,"atrial_fibrillation":3.825,"copd":2.263,"coronary_heart_disease":3.995,"dementia":0.817,"depression":13.739,"diabetes":8.365,"hypertension":18.441,"obesity":9.977,"serious_mental_illness":0.682,"stroke_tia":2.46}},{"ods":"L84011","name":"LYDNEY PRACTICE","pcn":"U29596","lat":51.728026,"lng":-2.532489,"list":8183,"gp_fte":4.4533333333,"rating":null,"prev":{"asthma":7.176,"atrial_fibrillation":3.341,"copd":1.87,"coronary_heart_disease":3.655,"dementia":1.062,"depression":18.403,"diabetes":9.652,"hypertension":18.987,"obesity":16.382,"serious_mental_illness":0.663,"stroke_tia":2.461}},{"ods":"L84012","name":"PHOENIX HEALTH GROUP","pcn":"U41523","lat":51.67891,"lng":-2.03357,"list":24618,"gp_fte":11.3291752032,"rating":"Good","prev":{"asthma":7.178,"atrial_fibrillation":3.121,"copd":1.377,"coronary_heart_disease":3.045,"dementia":1.138,"depression":14.199,"diabetes":6.486,"hypertension":15.66,"obesity":20.851,"serious_mental_illness":0.652,"stroke_tia":2.126}},{"ods":"L84014","name":"HUCCLECOTE SURGERY","pcn":"U16338","lat":51.855338,"lng":-2.188891,"list":9007,"gp_fte":4.2186666668,"rating":"Good","prev":{"asthma":8.191,"atrial_fibrillation":3.586,"copd":1.91,"coronary_heart_disease":4.341,"dementia":1.177,"depression":10.153,"diabetes":9.939,"hypertension":19.352,"obesity":16.059,"serious_mental_illness":0.733,"stroke_tia":2.332}},{"ods":"L84015","name":"SIXWAYS CLINIC","pcn":"U13956","lat":51.885266,"lng":-2.042776,"list":10831,"gp_fte":6.92,"rating":"Good","prev":{"asthma":6.484,"atrial_fibrillation":3.149,"copd":1.172,"coronary_heart_disease":3.525,"dementia":1.263,"depression":10.984,"diabetes":5.761,"hypertension":16.131,"obesity":6.249,"serious_mental_illness":0.76,"stroke_tia":2.307}},{"ods":"L84016","name":"FRITHWOOD SURGERY","pcn":"U23862","lat":51.73437,"lng":-2.162115,"list":6849,"gp_fte":3.8266666667,"rating":"Good","prev":{"asthma":7.472,"atrial_fibrillation":3.043,"copd":1.98,"coronary_heart_disease":3.782,"dementia":0.561,"depression":10.937,"diabetes":5.957,"hypertension":16.28,"obesity":7.814,"serious_mental_illness":0.488,"stroke_tia":2.127}},{"ods":"L84018","name":"CIRENCESTER HEALTH GROUP","pcn":"U41523","lat":51.713021,"lng":-1.957643,"list":12638,"gp_fte":5.5359999999,"rating":"Good","prev":{"asthma":6.752,"atrial_fibrillation":3.249,"copd":1.846,"coronary_heart_disease":2.976,"dementia":0.974,"depression":8.64,"diabetes":8.392,"hypertension":16.08,"obesity":12.15,"serious_mental_illness":0.857,"stroke_tia":2.337}},{"ods":"L84021","name":"YORKLEY HEALTH CENTRE(WG)","pcn":"U29596","lat":51.756011,"lng":-2.556181,"list":9098,"gp_fte":4.8533333334,"rating":"Good","prev":{"asthma":7.68,"atrial_fibrillation":3.077,"copd":2.022,"coronary_heart_disease":4.111,"dementia":0.854,"depression":18.071,"diabetes":9.369,"hypertension":20.227,"obesity":15.468,"serious_mental_illness":0.696,"stroke_tia":2.729}},{"ods":"L84022","name":"YORKLEIGH SURGERY(CT)","pcn":"U36833","lat":51.901756,"lng":-2.091143,"list":7549,"gp_fte":3.7946666667,"rating":"Good","prev":{"asthma":7.132,"atrial_fibrillation":2.781,"copd":2.718,"coronary_heart_disease":2.932,"dementia":0.793,"depression":20.787,"diabetes":7.578,"hypertension":14.597,"obesity":12.506,"serious_mental_illness":1.082,"stroke_tia":1.762}},{"ods":"L84023","name":"CHURCH STREET PRACTICE","pcn":"U63565","lat":51.994861,"lng":-2.139691,"list":13127,"gp_fte":8.0266666667,"rating":"Good","prev":{"asthma":8.687,"atrial_fibrillation":3.268,"copd":2.455,"coronary_heart_disease":3.739,"dementia":1.52,"depression":11.423,"diabetes":9.1,"hypertension":18.598,"obesity":16.558,"serious_mental_illness":0.631,"stroke_tia":2.645}},{"ods":"L84024","name":"DRYBROOK SURGERY","pcn":"U16196","lat":51.845857,"lng":-2.520187,"list":4132,"gp_fte":1.6933333333,"rating":null,"prev":{"asthma":9.687,"atrial_fibrillation":2.904,"copd":2.558,"coronary_heart_disease":4.61,"dementia":1.332,"depression":16.095,"diabetes":10.421,"hypertension":19.345,"obesity":15.454,"serious_mental_illness":0.773,"stroke_tia":2.611}},{"ods":"L84025","name":"HOYLAND HOUSE","pcn":"U23862","lat":51.78865,"lng":-2.180442,"list":4631,"gp_fte":3.8,"rating":"Good","prev":{"asthma":7.332,"atrial_fibrillation":4.863,"copd":1.334,"coronary_heart_disease":4.541,"dementia":1.614,"depression":12.371,"diabetes":6.158,"hypertension":20.702,"obesity":9.013,"serious_mental_illness":0.818,"stroke_tia":3.228}},{"ods":"L84026","name":"ASPEN MEDICAL PRACTICE","pcn":"U16816","lat":51.854221,"lng":-2.225297,"list":32593,"gp_fte":17.7332,"rating":"Good","prev":{"asthma":6.402,"atrial_fibrillation":2.555,"copd":1.898,"coronary_heart_disease":3.065,"dementia":0.991,"depression":17.942,"diabetes":10.382,"hypertension":16.085,"obesity":17.836,"serious_mental_illness":1.157,"stroke_tia":1.87}},{"ods":"L84027","name":"CULVERHAY SURGERY","pcn":"U02669","lat":51.701887,"lng":-2.38745,"list":18113,"gp_fte":10.0560000001,"rating":"Good","prev":{"asthma":8.337,"atrial_fibrillation":2.891,"copd":1.741,"coronary_heart_disease":3.162,"dementia":0.873,"depression":8.674,"diabetes":8.666,"hypertension":15.963,"obesity":13.285,"serious_mental_illness":0.597,"stroke_tia":2.156}},{"ods":"L84028","name":"FOREST HEALTH CARE","pcn":"U16196","lat":51.82528,"lng":-2.494167,"list":11838,"gp_fte":4.72,"rating":"Good","prev":{"asthma":8.148,"atrial_fibrillation":3.034,"copd":2.907,"coronary_heart_disease":4.319,"dementia":0.811,"depression":14.044,"diabetes":10.097,"hypertension":18.763,"obesity":17.692,"serious_mental_illness":0.896,"stroke_tia":2.502}},{"ods":"L84029","name":"DEAN MEDICAL PRACTICE","pcn":"U29596","lat":51.794193,"lng":-2.583119,"list":16780,"gp_fte":8.3914666668,"rating":"Good","prev":{"asthma":9.14,"atrial_fibrillation":3.439,"copd":2.708,"coronary_heart_disease":3.956,"dementia":0.883,"depression":8.106,"diabetes":8.786,"hypertension":17.59,"obesity":14.467,"serious_mental_illness":1.704,"stroke_tia":2.465}},{"ods":"L84030","name":"BERKELEY PLACE SURGERY","pcn":"U36833","lat":51.901111,"lng":-2.067723,"list":18208,"gp_fte":7.0720000003,"rating":"Good","prev":{"asthma":6.48,"atrial_fibrillation":2.127,"copd":1.489,"coronary_heart_disease":2.46,"dementia":0.581,"depression":10.691,"diabetes":5.801,"hypertension":13.601,"obesity":6.291,"serious_mental_illness":0.835,"stroke_tia":1.625}},{"ods":"L84031","name":"STOW SURGERY","pcn":"U09847","lat":51.930474,"lng":-1.726891,"list":5784,"gp_fte":3.0133333333,"rating":"Good","prev":{"asthma":7.327,"atrial_fibrillation":4.2,"copd":2.004,"coronary_heart_disease":4.531,"dementia":1.307,"depression":11.672,"diabetes":7.606,"hypertension":20.007,"obesity":13.477,"serious_mental_illness":0.802,"stroke_tia":2.823}},{"ods":"L84033","name":"WESTON HOUSE PRACTICE","pcn":"U22020","lat":51.898019,"lng":-2.09638,"list":19195,"gp_fte":8.3799999999,"rating":"Good","prev":{"asthma":8.164,"atrial_fibrillation":2.933,"copd":2.563,"coronary_heart_disease":3.501,"dementia":1.474,"depression":12.549,"diabetes":8.816,"hypertension":16.815,"obesity":12.782,"serious_mental_illness":1.13,"stroke_tia":2.334}},{"ods":"L84034","name":"PARTNERS IN HEALTH, PAVILION FAMILY DRS","pcn":"U53179","lat":51.834303,"lng":-2.264973,"list":12014,"gp_fte":5.7333333334,"rating":"Good","prev":{"asthma":8.566,"atrial_fibrillation":1.91,"copd":2.898,"coronary_heart_disease":2.808,"dementia":0.8,"depression":10.262,"diabetes":9.296,"hypertension":15.071,"obesity":15.413,"serious_mental_illness":0.661,"stroke_tia":1.796}},{"ods":"L84036","name":"CLEEVELANDS MEDICAL CENTRE","pcn":"U13956","lat":51.943374,"lng":-2.063796,"list":11090,"gp_fte":4.8946666668,"rating":"Good","prev":{"asthma":8.931,"atrial_fibrillation":2.695,"copd":1.243,"coronary_heart_disease":3.395,"dementia":0.901,"depression":14.504,"diabetes":7.281,"hypertension":14.667,"obesity":12.489,"serious_mental_illness":0.63,"stroke_tia":1.882}},{"ods":"L84037","name":"THE HOLTS HEALTH CENTRE","pcn":"U63565","lat":51.929288,"lng":-2.409526,"list":12031,"gp_fte":6.3999999998,"rating":"Good","prev":{"asthma":6.882,"atrial_fibrillation":3.339,"copd":1.649,"coronary_heart_disease":3.488,"dementia":1.152,"depression":9.719,"diabetes":8.154,"hypertension":17.597,"obesity":11.849,"serious_mental_illness":0.787,"stroke_tia":2.593}},{"ods":"L84038","name":"COTSWOLD MEDICAL PRACTICE","pcn":"U09847","lat":51.869338,"lng":-1.794418,"list":11308,"gp_fte":5.9213333332,"rating":"Good","prev":{"asthma":6.636,"atrial_fibrillation":3.655,"copd":1.705,"coronary_heart_disease":3.402,"dementia":1.321,"depression":13.723,"diabetes":7.354,"hypertension":16.589,"obesity":10.204,"serious_mental_illness":0.656,"stroke_tia":2.589}},{"ods":"L84039","name":"BEECHES GREEN SURGERY","pcn":"U23862","lat":51.744738,"lng":-2.230551,"list":8985,"gp_fte":4.9333333334,"rating":"Good","prev":{"asthma":8.121,"atrial_fibrillation":2.596,"copd":1.652,"coronary_heart_disease":2.888,"dementia":0.45,"depression":9.814,"diabetes":6.939,"hypertension":18.678,"obesity":7.876,"serious_mental_illness":1.09,"stroke_tia":1.944}},{"ods":"L84040","name":"THE LECKHAMPTON SURGERY","pcn":"U13956","lat":51.878978,"lng":-2.084566,"list":12583,"gp_fte":9.1866666667,"rating":"Good","prev":{"asthma":7.204,"atrial_fibrillation":3.843,"copd":1.088,"coronary_heart_disease":4.028,"dementia":1.273,"depression":8.985,"diabetes":6.107,"hypertension":17.662,"obesity":7.443,"serious_mental_illness":0.741,"stroke_tia":2.4}},{"ods":"L84041","name":"OVERTON PARK SURGERY","pcn":"U36833","lat":51.896852,"lng":-2.084897,"list":13107,"gp_fte":6.3138666666,"rating":"Good","prev":{"asthma":7.556,"atrial_fibrillation":2.366,"copd":1.389,"coronary_heart_disease":2.763,"dementia":0.756,"depression":12.368,"diabetes":6.22,"hypertension":13.092,"obesity":9.908,"serious_mental_illness":1.008,"stroke_tia":2.053}},{"ods":"L84043","name":"CHIPPING CAMPDEN SURGERY","pcn":"U09847","lat":52.064303,"lng":-1.772412,"list":4880,"gp_fte":2.64,"rating":"Good","prev":{"asthma":7.234,"atrial_fibrillation":4.234,"copd":1.411,"coronary_heart_disease":3.911,"dementia":1.109,"depression":10.735,"diabetes":7.14,"hypertension":20.302,"obesity":11.904,"serious_mental_illness":0.766,"stroke_tia":3.004}},{"ods":"L84045","name":"MITCHELDEAN SURGERY","pcn":"U16196","lat":51.861425,"lng":-2.464964,"list":7225,"gp_fte":3.24,"rating":"Good","prev":{"asthma":7.224,"atrial_fibrillation":3.195,"copd":2.417,"coronary_heart_disease":3.834,"dementia":2.098,"depression":9.672,"diabetes":9.99,"hypertension":19.241,"obesity":10.883,"serious_mental_illness":0.681,"stroke_tia":2.681}},{"ods":"L84046","name":"DOCKHAM SURGERY","pcn":"U16196","lat":51.818289,"lng":-2.503092,"list":5796,"gp_fte":3.08,"rating":"Good","prev":{"asthma":7.94,"atrial_fibrillation":3.369,"copd":2.737,"coronary_heart_disease":5.037,"dementia":0.858,"depression":15.253,"diabetes":11.237,"hypertension":16.748,"obesity":14.277,"serious_mental_illness":0.777,"stroke_tia":2.737}},{"ods":"L84047","name":"CHURCHDOWN SURGERY","pcn":"U16338","lat":51.889984,"lng":-2.184265,"list":16738,"gp_fte":7.852,"rating":"Good","prev":{"asthma":7.781,"atrial_fibrillation":2.813,"copd":2.159,"coronary_heart_disease":3.429,"dementia":0.79,"depression":15.043,"diabetes":8.771,"hypertension":15.769,"obesity":11.671,"serious_mental_illness":0.647,"stroke_tia":2.091}},{"ods":"L84048","name":"THE STOKE ROAD SURGERY,","pcn":"U13956","lat":51.949821,"lng":-2.0628,"list":10326,"gp_fte":3.9333333334,"rating":"Good","prev":{"asthma":7.944,"atrial_fibrillation":3.79,"copd":1.602,"coronary_heart_disease":3.886,"dementia":1.161,"depression":12.377,"diabetes":8.207,"hypertension":20.253,"obesity":10.724,"serious_mental_illness":0.576,"stroke_tia":2.418}},{"ods":"L84049","name":"THE ROYAL WELL SURGERY","pcn":"U22020","lat":51.904607,"lng":-2.085215,"list":8490,"gp_fte":4.4266666667,"rating":"Good","prev":{"asthma":6.38,"atrial_fibrillation":2.25,"copd":1.556,"coronary_heart_disease":3.147,"dementia":1.125,"depression":14.275,"diabetes":7.355,"hypertension":13.821,"obesity":9.76,"serious_mental_illness":1.113,"stroke_tia":1.663}},{"ods":"L84050","name":"ROSEBANK SURGERY","pcn":"U31538","lat":51.838035,"lng":-2.255606,"list":40600,"gp_fte":18.1355466667,"rating":"Good","prev":{"asthma":7.624,"atrial_fibrillation":1.446,"copd":1.957,"coronary_heart_disease":2.296,"dementia":0.724,"depression":15.288,"diabetes":9.258,"hypertension":12.728,"obesity":15.791,"serious_mental_illness":0.956,"stroke_tia":1.408}},{"ods":"L84051","name":"CHIPPING SURGERY","pcn":"U02669","lat":51.626144,"lng":-2.370709,"list":9943,"gp_fte":5.2149333333,"rating":"Good","prev":{"asthma":8.235,"atrial_fibrillation":2.699,"copd":1.656,"coronary_heart_disease":3.578,"dementia":0.808,"depression":15.824,"diabetes":7.231,"hypertension":17.278,"obesity":15.734,"serious_mental_illness":0.562,"stroke_tia":2.259}},{"ods":"L84052","name":"SEVERNSIDE MEDICAL PRACTICE","pcn":"U53179","lat":51.855948,"lng":-2.241701,"list":10089,"gp_fte":4.3133333334,"rating":"Good","prev":{"asthma":6.862,"atrial_fibrillation":1.728,"copd":2.971,"coronary_heart_disease":3.052,"dementia":0.748,"depression":13.723,"diabetes":9.42,"hypertension":13.675,"obesity":13.922,"serious_mental_illness":1.395,"stroke_tia":1.779}},{"ods":"L84053","name":"HILARY COTTAGE SURGERY","pcn":"U41523","lat":51.709591,"lng":-1.784043,"list":7671,"gp_fte":3.3493333334,"rating":"Good","prev":{"asthma":8.641,"atrial_fibrillation":3.793,"copd":1.814,"coronary_heart_disease":3.502,"dementia":0.977,"depression":11.852,"diabetes":8.121,"hypertension":20.667,"obesity":8.986,"serious_mental_illness":0.52,"stroke_tia":2.423}},{"ods":"L84054","name":"MYTHE MEDICAL PRACTICE","pcn":"U63565","lat":51.995586,"lng":-2.138445,"list":13993,"gp_fte":6.1474666668,"rating":"Outstanding","prev":{"asthma":7.706,"atrial_fibrillation":2.913,"copd":2.293,"coronary_heart_disease":3.648,"dementia":1.118,"depression":13.779,"diabetes":8.656,"hypertension":17.615,"obesity":16.006,"serious_mental_illness":0.671,"stroke_tia":2.271}},{"ods":"L84058","name":"ST. CATHERINE'S SURGERY","pcn":"U22020","lat":51.905697,"lng":-2.089098,"list":9335,"gp_fte":3.3760000001,"rating":"Good","prev":{"asthma":6.919,"atrial_fibrillation":2.469,"copd":2.884,"coronary_heart_disease":2.831,"dementia":1.107,"depression":17.214,"diabetes":8.377,"hypertension":15.111,"obesity":12.305,"serious_mental_illness":1.149,"stroke_tia":1.99}},{"ods":"L84059","name":"ROYAL CRESCENT SURGERY","pcn":"U36833","lat":51.901986,"lng":-2.080421,"list":8091,"gp_fte":3.88,"rating":"Good","prev":{"asthma":7.133,"atrial_fibrillation":2.301,"copd":1.677,"coronary_heart_disease":2.681,"dementia":0.857,"depression":12.609,"diabetes":6.544,"hypertension":13.905,"obesity":9.542,"serious_mental_illness":0.857,"stroke_tia":1.799}},{"ods":"L84060","name":"CAM & ULEY FAMILY PRACTICE","pcn":"U02669","lat":51.698713,"lng":-2.353719,"list":11099,"gp_fte":7.296,"rating":"Good","prev":{"asthma":9.395,"atrial_fibrillation":3.332,"copd":1.779,"coronary_heart_disease":3.711,"dementia":1.363,"depression":14.089,"diabetes":8.519,"hypertension":19.422,"obesity":15.282,"serious_mental_illness":0.677,"stroke_tia":2.203}},{"ods":"L84063","name":"RENDCOMB SURGERY","pcn":"U41523","lat":51.780179,"lng":-1.994836,"list":4996,"gp_fte":3.1466666667,"rating":"Good","prev":{"asthma":8.294,"atrial_fibrillation":3.086,"copd":1.206,"coronary_heart_disease":3.127,"dementia":0.552,"depression":12.383,"diabetes":4.745,"hypertension":15.43,"obesity":10.113,"serious_mental_illness":0.511,"stroke_tia":1.942}},{"ods":"L84065","name":"PRICES MILL SURGERY","pcn":"U23710","lat":51.702885,"lng":-2.221769,"list":8973,"gp_fte":5.5288000001,"rating":"Good","prev":{"asthma":7.602,"atrial_fibrillation":3.382,"copd":1.538,"coronary_heart_disease":3.611,"dementia":1.069,"depression":9.216,"diabetes":6.401,"hypertension":20.161,"obesity":13.109,"serious_mental_illness":1.102,"stroke_tia":2.106}},{"ods":"L84067","name":"LONGLEVENS SURGERY","pcn":"U16338","lat":51.880635,"lng":-2.215277,"list":10059,"gp_fte":10.8000000002,"rating":"Good","prev":{"asthma":7.462,"atrial_fibrillation":2.53,"copd":1.423,"coronary_heart_disease":2.985,"dementia":0.741,"depression":17.015,"diabetes":7.681,"hypertension":15.983,"obesity":16.186,"serious_mental_illness":0.662,"stroke_tia":1.809}},{"ods":"L84068","name":"MANN COTTAGE SURGERY","pcn":"U09847","lat":51.997028,"lng":-1.702476,"list":5949,"gp_fte":3.8106666666,"rating":"Good","prev":{"asthma":7.273,"atrial_fibrillation":3.979,"copd":1.693,"coronary_heart_disease":4.171,"dementia":0.855,"depression":8.118,"diabetes":6.685,"hypertension":19.494,"obesity":13.081,"serious_mental_illness":0.681,"stroke_tia":2.792}},{"ods":"L84072","name":"WHITE HOUSE SURGERY","pcn":"U09847","lat":52.003033,"lng":-1.711744,"list":5126,"gp_fte":3.6933333333,"rating":"Good","prev":{"asthma":7.813,"atrial_fibrillation":3.304,"copd":2.838,"coronary_heart_disease":3.848,"dementia":0.603,"depression":7.434,"diabetes":7.983,"hypertension":16.968,"obesity":11.945,"serious_mental_illness":0.894,"stroke_tia":1.983}},{"ods":"L84075","name":"MAY LANE SURGERY","pcn":"U02669","lat":51.690114,"lng":-2.355798,"list":9357,"gp_fte":3.9866666666,"rating":"Outstanding","prev":{"asthma":8.183,"atrial_fibrillation":3.021,"copd":2.12,"coronary_heart_disease":3.466,"dementia":0.753,"depression":18.151,"diabetes":8.74,"hypertension":18.527,"obesity":12.192,"serious_mental_illness":0.678,"stroke_tia":2.014}},{"ods":"L84077","name":"FIVE VALLEYS MEDICAL PRACTICE","pcn":"U23710","lat":51.743691,"lng":-2.22602,"list":14472,"gp_fte":7.5186666666,"rating":"Good","prev":{"asthma":6.773,"atrial_fibrillation":2.811,"copd":2.211,"coronary_heart_disease":3.742,"dementia":1.214,"depression":13.967,"diabetes":7.764,"hypertension":18.445,"obesity":14.512,"serious_mental_illness":1.247,"stroke_tia":2.306}},{"ods":"L84080","name":"THE WILLOW TREE PRACTICE","pcn":"U23710","lat":51.752874,"lng":-2.280543,"list":11539,"gp_fte":1.6933333334,"rating":"Good","prev":{"asthma":8.134,"atrial_fibrillation":2.84,"copd":1.965,"coronary_heart_disease":3.218,"dementia":0.789,"depression":11.804,"diabetes":8.562,"hypertension":16.329,"obesity":12.766,"serious_mental_illness":0.832,"stroke_tia":1.965}},{"ods":"L84081","name":"KINGSHOLM SURGERY","pcn":"U53179","lat":51.873732,"lng":-2.236628,"list":4393,"gp_fte":2.24,"rating":"Good","prev":{"asthma":6.356,"atrial_fibrillation":2.203,"copd":2.315,"coronary_heart_disease":2.54,"dementia":0.989,"depression":13.569,"diabetes":9.006,"hypertension":14.79,"obesity":14.971,"serious_mental_illness":1.461,"stroke_tia":1.978}},{"ods":"L84084","name":"BROCKWORTH SURGERY","pcn":"U16338","lat":51.846294,"lng":-2.158731,"list":11597,"gp_fte":3.92,"rating":"Good","prev":{"asthma":8.005,"atrial_fibrillation":2.079,"copd":2.009,"coronary_heart_disease":3.057,"dementia":1.197,"depression":13.823,"diabetes":8.543,"hypertension":13.627,"obesity":11.99,"serious_mental_illness":0.664,"stroke_tia":1.633}},{"ods":"L84085","name":"SEVERNBANK SURGERY","pcn":"U29596","lat":51.727758,"lng":-2.535522,"list":3813,"gp_fte":2.1866666667,"rating":"Good","prev":{"asthma":8.246,"atrial_fibrillation":3.03,"copd":2.246,"coronary_heart_disease":3.996,"dementia":1.019,"depression":17.77,"diabetes":10.949,"hypertension":19.613,"obesity":18.862,"serious_mental_illness":1.097,"stroke_tia":2.272}},{"ods":"L84606","name":"THE ALNEY PRACTICE","pcn":"U16338","lat":51.87751,"lng":-2.252273,"list":12027,"gp_fte":5.9994666669,"rating":"Good","prev":{"asthma":6.689,"atrial_fibrillation":2.964,"copd":1.847,"coronary_heart_disease":3.476,"dementia":0.764,"depression":12.138,"diabetes":8.249,"hypertension":16.22,"obesity":12.368,"serious_mental_illness":0.672,"stroke_tia":2.435}},{"ods":"L84613","name":"STONEHOUSE HEALTH CLINIC","pcn":"U23710","lat":51.756522,"lng":-2.283468,"list":3695,"gp_fte":1.6,"rating":"Good","prev":{"asthma":5.182,"atrial_fibrillation":2.814,"copd":1.422,"coronary_heart_disease":3.017,"dementia":2.06,"depression":8.644,"diabetes":10.454,"hypertension":20.191,"obesity":12.016,"serious_mental_illness":0.667,"stroke_tia":2.118}},{"ods":"L84617","name":"QUEDGELEY MEDICAL CENTRE","pcn":"U76977","lat":51.826416,"lng":-2.275375,"list":7857,"gp_fte":2.5600000001,"rating":"Good","prev":{"asthma":7.432,"atrial_fibrillation":1.558,"copd":0.814,"coronary_heart_disease":1.965,"dementia":0.309,"depression":12.189,"diabetes":8.287,"hypertension":13.197,"obesity":12.317,"serious_mental_illness":0.632,"stroke_tia":1.502}},{"ods":"Y00054","name":"THE HOMELESS HEALTHCARE TEAM","pcn":"","lat":51.862807,"lng":-2.248961,"list":92,"gp_fte":null,"rating":null,"prev":{}},{"ods":"Y02519","name":"GLOUCESTER HEALTH ACCESS CENTRE","pcn":"U53179","lat":51.85309,"lng":-2.232288,"list":10034,"gp_fte":7.8666666666,"rating":"Good","prev":{"asthma":6.327,"atrial_fibrillation":0.854,"copd":2.371,"coronary_heart_disease":1.839,"dementia":0.09,"depression":12.631,"diabetes":7.82,"hypertension":10.008,"obesity":13.575,"serious_mental_illness":1.336,"stroke_tia":1.125}},{"ods":"Y05212","name":"WEST CHELTENHAM MEDICAL","pcn":"U63565","lat":51.907372,"lng":-2.112587,"list":6069,"gp_fte":1.7866666667,"rating":"Good","prev":{"asthma":6.942,"atrial_fibrillation":0.886,"copd":1.739,"coronary_heart_disease":1.706,"dementia":0.318,"depression":13.439,"diabetes":5.548,"hypertension":9.266,"obesity":10.407,"serious_mental_illness":0.953,"stroke_tia":0.987}}]